Región|Provincia|Comuna|Temporada|Nombre|Fecha|Hora inicio|Duración (minutos)|Alerta|Escenario|Causa|Superficie quemada: Pino A [ha]|Superficie quemada: Pino B [ha]|Superficie quemada: Pino C [ha]|Superficie quemada: Eucalípto [ha]|Superficie quemada: Otras plantas [ha]|Superficie quemada: Arbolado [ha]|Superficie quemada: Matorral [ha]|Superficie quemada: Pastizal [ha]|Superficie quemada: Agrícola [ha]|Superficie quemada: Desechos [ha]|Superficie quemada total [ha]|Latitud|Longitud|Datum
Coquimbo|Elqui|La Serena|2002-2003|ALTOVALSOL|2002-07-05|21:05|195.0|Sin alerta|No definido|No definida|0.0|0.0|0.0|0.0|0.0|0.0|0.01|0.03|0.0|0.0|0.04|-29.93555555555556|-71.10833333333333|WGS84
Coquimbo|Elqui|La Serena|2002-2003|CERES|2002-10-25|11:50|137.0|Sin alerta|No definido|No definida|0.0|0.0|0.0|0.0|0.0|0.0|0.01|0.01|0.0|0.0|0.02|-29.933611111111112|-71.21194444444444|WGS84
Coquimbo|Limarí|Punitaqui|2002-2003|LA RINCONADA|2002-10-27|11:50|190.0|Sin alerta|No definido|No definida|0.0|0.0|0.0|0.0|0.0|0.0|0.0|0.01|0.0|0.0|0.01|-30.83305555555556|-71.36805555555556|WGS84
Coquimbo|Elqui|Coquimbo|2002-2003|CERRO LA VIRGEN.|2002-11-02|17:00|90.0|Sin alerta|No definido|No definida|0.0|0.0|0.0|0.0|0.0|0.0|0.5|1.5|0.0|0.0|2.0|-29.995833333333337|-71.27555555555556|WGS84
Coquimbo|Elqui|La Serena|2002-2003|LA VARILLA|2002-11-02|15:30|210.0|Sin alerta|No definido|No definida|0.0|0.0|0.0|0.0|0.0|0.0|2.0|5.0|0.0|0.0|7.0|-29.879999999999995|-71.19|WGS84
Coquimbo|Elqui|Coquimbo|2002-2003|EL SAUCE|2002-11-03|13:10|560.0|Sin alerta|No definido|No definida|0.0|0.0|0.0|2.8|0.0|0.0|50.0|12.7|0.0|0.0|65.5|-30.10388888888889|-71.28833333333333|WGS84
Coquimbo|Elqui|La Serena|2002-2003|ALTOVALSOL  1|2002-11-03|18:00|625.0|Sin alerta|No definido|No definida|0.0|0.0|0.0|0.0|0.0|0.0|15.0|25.0|0.0|0.0|40.0|-29.926666666666662|-71.0875|WGS84
Coquimbo|Limarí|Ovalle|2002-2003|LA CHIMBA|2002-11-04|15:10|80.0|Sin alerta|No definido|No definida|0.0|0.0|0.0|0.0|0.0|0.0|0.0|0.01|0.0|0.0|0.01|-30.627222222222223|-71.26916666666666|WGS84
Coquimbo|Limarí|Punitaqui|2002-2003|PUEBLO NUEVO.|2002-11-04|16:00|180.0|Sin alerta|No definido|No definida|0.0|0.0|0.0|0.0|0.0|0.0|0.0|0.01|0.0|0.0|0.01|-30.870555555555555|-71.29583333333333|WGS84
Coquimbo|Limarí|Ovalle|2002-2003|TALINAY|2002-11-05|14:30|1260.0|Sin alerta|No definido|No definida|0.0|0.0|0.0|0.0|0.0|0.0|0.3|1.7|0.0|0.0|2.0|-30.93583333333333|-71.64277777777778|WGS84
Coquimbo|Elqui|La Serena|2002-2003|INACAP|2002-11-07|07:00|426.0|Sin alerta|No definido|No definida|0.0|0.0|0.0|0.0|0.0|0.0|0.6|0.9|0.0|0.0|1.5|-29.90777777777777|-71.26916666666666|WGS84
Coquimbo|Elqui|La Serena|2002-2003|QUILACAN|2002-11-08|12:10|645.0|Sin alerta|No definido|No definida|0.0|0.0|0.0|5.0|0.0|0.0|10.0|20.0|0.0|0.0|35.0|-29.98027777777778|-71.13|WGS84
Coquimbo|Elqui|La Serena|2002-2003|GABRIELA MISTRAL|2002-11-09|11:40|230.0|Sin alerta|No definido|No definida|0.0|0.0|0.0|0.0|0.0|0.0|0.02|0.08|0.0|0.0|0.1|-29.980833333333333|-71.0886111111111|WGS84
Coquimbo|Elqui|La Serena|2002-2003|RESERVA QUILACAN.|2002-11-09|14:30|403.0|Sin alerta|No definido|No definida|0.0|0.0|0.0|0.5|0.0|0.0|3.0|1.5|0.0|0.0|5.0|-29.98916666666667|-71.13027777777778|WGS84
Coquimbo|Limarí|Punitaqui|2002-2003|LAS LLUVIAS|2002-11-14|18:00|165.0|Sin alerta|No definido|No definida|0.0|0.0|0.0|0.0|0.0|0.0|0.0|0.01|0.0|0.0|0.01|-30.826388888888893|-71.23222222222222|WGS84
Coquimbo|Limarí|Punitaqui|2002-2003|VIÑA VIEJA.|2002-11-16|15:00|285.0|Sin alerta|No definido|No definida|0.0|0.0|0.0|0.0|0.0|0.0|0.0|0.01|0.0|0.0|0.01|-30.85638888888889|-71.06555555555556|WGS84
Coquimbo|Choapa|Illapel|2002-2003|CERRO LA CRUZ|2002-11-17|16:10|110.0|Sin alerta|No definido|No definida|0.0|0.0|0.0|0.0|0.0|0.0|0.0|0.01|0.0|0.0|0.01|-31.62972222222222|-71.19833333333334|WGS84
Coquimbo|Limarí|Punitaqui|2002-2003|CIENAGO|2002-11-18|15:00|225.0|Sin alerta|No definido|No definida|0.0|0.0|0.0|0.0|0.0|0.0|0.0|0.01|0.0|0.0|0.01|-30.79694444444445|-71.36722222222222|WGS84
Coquimbo|Limarí|Punitaqui|2002-2003|LA HIGUERA|2002-11-20|10:00|115.0|Sin alerta|No definido|No definida|0.0|0.0|0.0|0.0|0.0|0.0|0.0|0.01|0.0|0.0|0.01|-30.861666666666668|-71.27472222222222|WGS84
Coquimbo|Elqui|La Serena|2002-2003|LAS ROJAS|2002-11-20|16:00|330.0|Sin alerta|No definido|No definida|0.0|0.0|0.0|0.0|0.0|0.0|0.0|0.01|0.0|0.0|0.01|-29.96333333333333|-71.05722222222222|WGS84
Coquimbo|Limarí|Ovalle|2002-2003|ALTOS LA CHIMBA|2002-11-20|18:00|180.0|Sin alerta|No definido|No definida|0.0|0.0|0.0|0.0|0.0|0.0|0.0|0.01|0.0|0.0|0.01|-30.66333333333333|-71.27|WGS84
Coquimbo|Choapa|Los Vilos|2002-2003|PEAJE PICHIDANGUI|2002-11-26|16:30|330.0|Sin alerta|No definido|No definida|0.0|0.0|0.0|0.0|0.0|3.0|5.0|22.0|0.0|0.0|30.0|-32.175|-71.52222222222223|WGS84
Coquimbo|Choapa|Illapel|2002-2003|MAL PASO|2002-11-29|14:25|335.0|Sin alerta|No definido|No definida|0.0|0.0|0.0|0.5|0.0|0.0|4.5|5.0|0.0|0.0|10.0|-31.74833333333333|-71.12722222222222|WGS84
Coquimbo|Elqui|La Serena|2002-2003|EL OLIVAR|2002-11-30|15:30|200.0|Sin alerta|No definido|No definida|0.0|0.0|0.0|0.0|0.0|0.0|1.0|2.0|0.0|0.0|3.0|-29.879999999999995|-71.19|WGS84
Coquimbo|Limarí|Ovalle|2002-2003|LOS OLIVOS|2002-12-05|14:02|253.0|Sin alerta|No definido|No definida|0.0|0.0|0.0|0.0|0.0|0.0|1.0|2.0|0.0|0.0|3.0|-30.59638888888889|-71.4875|WGS84
Coquimbo|Choapa|Illapel|2002-2003|CANELILLO ALTO|2002-12-09|07:30|540.0|Sin alerta|No definido|No definida|0.0|0.0|0.0|0.0|3.0|1.5|0.5|5.0|0.0|0.0|10.0|-31.754444444444445|-71.29638888888888|WGS84
Coquimbo|Elqui|Coquimbo|2002-2003|HUACHALALUME|2002-12-09|15:30|350.0|Sin alerta|No definido|No definida|0.0|0.0|0.0|0.0|0.0|0.0|2.0|18.0|0.0|0.0|20.0|-29.968888888888888|-71.26444444444445|WGS84
Coquimbo|Elqui|Andacollo|2002-2003|LA CALDERA|2002-12-11|14:00|210.0|Sin alerta|No definido|No definida|0.0|0.0|0.0|0.0|0.0|0.3|0.7|2.0|0.0|0.0|3.0|-30.261388888888888|-71.03222222222222|WGS84
Coquimbo|Limarí|Ovalle|2002-2003|TALINAY  1|2002-12-12|15:30|345.0|Sin alerta|No definido|No definida|0.0|0.0|0.0|0.0|0.0|0.0|5.0|10.0|0.0|0.0|15.0|-30.84611111111112|-71.62972222222223|WGS84
Coquimbo|Choapa|Los Vilos|2002-2003|PUPIDO|2002-12-15|09:05|97.0|Sin alerta|No definido|No definida|0.0|0.0|0.0|0.0|0.0|0.0|0.1|0.2|0.0|0.0|0.3|-31.869166666666665|-71.42583333333333|WGS84
Coquimbo|Choapa|Los Vilos|2002-2003|QUEREO|2002-12-15|14:15|135.0|Sin alerta|No definido|No definida|0.0|0.0|0.0|0.0|0.0|0.0|0.0|10.0|0.0|0.0|10.0|-31.92194444444445|-71.50138888888888|WGS84
Coquimbo|Choapa|Los Vilos|2002-2003|QUEREO 1|2002-12-18|16:50|70.0|Sin alerta|No definido|No definida|0.0|0.0|0.0|0.0|0.0|0.0|0.0|0.03|0.0|0.0|0.03|-31.93277777777778|-71.39583333333333|WGS84
Coquimbo|Elqui|La Serena|2002-2003|PARCELAS U. DE LA SERENA|2002-12-18|17:00|100.0|Sin alerta|No definido|No definida|0.0|0.0|0.0|0.0|0.0|0.0|0.0|0.03|0.0|0.0|0.03|-29.924166666666668|-71.24277777777777|WGS84
Coquimbo|Limarí|Ovalle|2002-2003|EL TRAPICHE|2002-12-20|13:15|165.0|Sin alerta|No definido|No definida|0.0|0.0|0.0|0.0|0.0|0.0|0.0|7.0|0.0|0.0|7.0|-30.634444444444444|-71.37361111111112|WGS84
Coquimbo|Choapa|Los Vilos|2002-2003|TOTORALILLO|2002-12-20|16:50|1390.0|Sin alerta|No definido|No definida|0.0|0.0|0.0|0.0|189.0|0.0|27.0|324.0|0.0|0.0|540.0|-32.01222222222222|-71.49333333333334|WGS84
Coquimbo|Limarí|Ovalle|2002-2003|CANTA RANA|2002-12-22|16:30|120.0|Sin alerta|No definido|No definida|0.0|0.0|0.0|0.0|0.0|0.0|0.0|2.0|0.0|0.0|2.0|-30.641111111111112|-71.49916666666667|WGS84
Coquimbo|Choapa|Los Vilos|2002-2003|QUILIMARI|2002-12-23|17:10|185.0|Sin alerta|No definido|No definida|0.0|0.0|0.0|0.5|0.0|0.0|0.5|1.0|0.0|0.0|2.0|-32.14694444444444|-71.51805555555555|WGS84
Coquimbo|Choapa|Los Vilos|2002-2003|MATA GORDA|2002-12-24|15:00|60.0|Sin alerta|No definido|No definida|0.0|0.0|0.0|0.0|0.0|0.0|0.0|0.04|0.0|0.0|0.04|-31.91305555555556|-71.49055555555556|WGS84
Coquimbo|Elqui|Coquimbo|2002-2003|MAJADA BLANCA|2002-12-24|18:30|1240.0|Sin alerta|No definido|No definida|0.0|0.0|0.0|0.0|0.0|0.0|98.0|147.0|0.0|0.0|245.0|-30.0225|-71.29666666666667|WGS84
Coquimbo|Elqui|Coquimbo|2002-2003|MAJADA BLANCA   1|2002-12-25|18:30|1024.0|Sin alerta|No definido|No definida|0.0|0.0|0.0|0.0|0.0|0.0|5.0|10.0|0.0|0.0|15.0|-30.004722222222224|-71.28611111111111|WGS84
Coquimbo|Limarí|Ovalle|2002-2003|LATORRE|2002-12-26|17:00|110.0|Sin alerta|No definido|No definida|0.0|0.0|0.0|0.0|0.0|0.0|1.0|2.0|0.0|0.0|3.0|-30.61638888888889|-71.37333333333333|WGS84
Coquimbo|Choapa|Los Vilos|2002-2003|MATAGORDA  1|2002-12-29|13:35|40.0|Sin alerta|No definido|No definida|0.0|0.0|0.0|0.0|0.0|0.0|0.0|0.3|0.0|0.0|0.3|-31.91305555555556|-71.49055555555556|WGS84
Coquimbo|Choapa|Los Vilos|2002-2003|MONTE ARANDA|2002-12-30|13:30|305.0|Sin alerta|No definido|No definida|0.0|0.0|0.0|0.0|0.0|85.0|136.0|119.0|0.0|0.0|340.0|-31.94527777777777|-71.21638888888889|WGS84
Coquimbo|Elqui|La Serena|2002-2003|EL SANTO|2003-01-07|08:45|330.0|Sin alerta|No definido|No definida|0.0|0.0|0.0|0.0|0.0|0.0|0.0|1.0|0.0|0.0|1.0|-29.90611111111112|-71.25277777777778|WGS84
Coquimbo|Elqui|Coquimbo|2002-2003|EL MIRADOR|2003-01-10|15:25|243.0|Sin alerta|No definido|No definida|0.0|0.0|0.0|0.0|0.0|0.0|1.0|3.5|0.0|0.0|4.5|-30.00361111111112|-71.33777777777777|WGS84
Coquimbo|Limarí|Ovalle|2002-2003|MIRADOR ORIENTE|2003-01-17|15:00|195.0|Sin alerta|No definido|No definida|0.0|0.0|0.0|0.0|0.0|0.0|5.5|2.0|0.0|0.0|7.5|-30.61944444444444|-71.2063888888889|WGS84
Coquimbo|Choapa|Illapel|2002-2003|LA COCINERA|2003-01-17|15:00|375.0|Sin alerta|No definido|No definida|0.0|0.0|0.0|0.5|0.0|1.5|3.0|3.0|0.0|0.0|8.0|-31.640277777777776|-71.1036111111111|WGS84
Coquimbo|Elqui|La Serena|2002-2003|EL OLIVAR 1|2003-01-20|12:05|325.0|Sin alerta|No definido|No definida|0.0|0.0|0.0|0.0|0.0|0.0|2.0|8.0|0.0|0.0|10.0|-29.879999999999995|-71.19|WGS84
Coquimbo|Elqui|Coquimbo|2002-2003|EL TANGUE|2003-01-20|15:00|350.0|Sin alerta|No definido|No definida|0.0|0.0|0.0|0.0|0.0|0.0|80.0|100.0|0.0|0.0|180.0|-30.372222222222227|-71.4088888888889|WGS84
Coquimbo|Limarí|Ovalle|2002-2003|LIMARI|2003-01-21|16:00|85.0|Sin alerta|No definido|No definida|0.0|0.0|0.0|0.0|0.0|0.0|0.0|0.5|0.0|0.0|0.5|-30.608888888888885|-71.3|WGS84
Coquimbo|Choapa|Los Vilos|2002-2003|SHEL|2003-01-24|12:00|95.0|Sin alerta|No definido|No definida|0.0|0.0|0.0|0.0|0.0|0.0|0.0|0.25|0.0|0.0|0.25|-31.903888888888893|-71.49027777777778|WGS84
Coquimbo|Choapa|Canela|2002-2003|MILLAHUE|2003-01-28|12:00|460.0|Sin alerta|No definido|No definida|0.0|0.0|0.0|0.0|0.0|50.0|84.0|140.0|6.0|0.0|280.0|-31.66111111111111|-71.45222222222222|WGS84
Coquimbo|Elqui|La Serena|2002-2003|PARQUE COLL.|2003-01-29|14:30|315.0|Sin alerta|No definido|No definida|0.0|0.0|0.0|0.5|0.0|0.0|0.5|1.5|0.0|0.0|2.5|-29.92388888888889|-71.25305555555556|WGS84
Coquimbo|Limarí|Ovalle|2002-2003|CERRILLOS POBRES|2003-01-29|16:00|150.0|Sin alerta|No definido|No definida|0.0|0.0|0.0|0.0|0.0|0.0|7.0|12.0|0.0|0.0|19.0|-30.613888888888887|-71.50888888888889|WGS84
Coquimbo|Limarí|Ovalle|2002-2003|LLANOS DEL LIMARI|2003-01-29|15:00|1245.0|Sin alerta|No definido|No definida|0.0|0.0|0.0|1.0|0.0|0.0|35.0|64.0|0.0|0.0|100.0|-30.64416666666667|-71.34277777777778|WGS84
Coquimbo|Elqui|La Serena|2002-2003|ISLON|2003-01-29|18:00|305.0|Sin alerta|No definido|No definida|0.0|0.0|0.0|0.0|0.0|0.0|0.5|1.5|0.0|0.0|2.0|-29.87083333333333|-71.20027777777777|WGS84
Coquimbo|Elqui|La Serena|2002-2003|PAMPA ALTA|2003-01-30|18:30|200.0|Sin alerta|No definido|No definida|0.0|0.0|0.0|0.25|0.0|0.0|0.0|0.0|0.0|0.0|0.25|-29.91833333333333|-71.24305555555556|WGS84
Coquimbo|Limarí|Ovalle|2002-2003|LA TORRE 1|2003-01-31|16:30|250.0|Sin alerta|No definido|No definida|0.0|0.0|0.0|0.3|0.0|0.0|0.2|0.5|0.0|0.0|1.0|-30.607222222222227|-71.38361111111111|WGS84
Coquimbo|Choapa|Illapel|2002-2003|ASIENTO VIEJO|2003-02-01|14:00|200.0|Sin alerta|No definido|No definida|0.0|0.0|0.0|0.0|0.0|0.3|0.3|0.4|0.0|0.0|1.0|-31.621666666666663|-71.14555555555556|WGS84
Coquimbo|Limarí|Ovalle|2002-2003|LATORRE  2|2003-02-02|13:30|162.0|Sin alerta|No definido|No definida|0.0|0.0|0.0|0.0|0.0|0.0|0.5|1.5|0.0|0.0|2.0|-30.61638888888889|-71.37333333333333|WGS84
Coquimbo|Limarí|Ovalle|2002-2003|HACIENDA LATORRE|2003-02-03|10:00|251.0|Sin alerta|No definido|No definida|0.0|0.0|0.0|1.4|0.0|0.0|0.0|0.0|0.0|0.1|1.5|-30.6075|-71.37305555555555|WGS84
Coquimbo|Choapa|Los Vilos|2002-2003|PICHIDANGUI|2003-02-08|14:30|135.0|Sin alerta|No definido|No definida|0.0|0.0|0.0|0.0|0.0|0.0|0.1|0.4|0.0|0.0|0.5|-32.13805555555555|-71.51777777777778|WGS84
Coquimbo|Elqui|La Serena|2002-2003|CERRO GRANDE|2003-02-11|18:06|179.0|Sin alerta|No definido|No definida|0.0|0.0|0.0|0.0|0.0|0.0|1.0|2.0|0.0|0.0|3.0|-29.94305555555556|-71.1913888888889|WGS84
Coquimbo|Limarí|Ovalle|2002-2003|BARRAZA BAJO|2003-02-14|12:00|343.0|Sin alerta|No definido|No definida|0.0|0.0|0.0|0.0|0.0|0.0|0.0|0.0|0.0|9.0|9.0|-30.6425|-71.43638888888889|WGS84
Coquimbo|Choapa|Los Vilos|2002-2003|CARACAS|2003-02-15|12:30|160.0|Sin alerta|No definido|No definida|0.0|0.0|0.0|0.0|0.0|0.0|0.2|0.8|0.0|0.0|1.0|-31.91333333333333|-71.48|WGS84
Coquimbo|Choapa|Los Vilos|2002-2003|RABADILLA|2003-02-19|15:05|70.0|Sin alerta|No definido|No definida|0.0|0.0|0.0|0.0|0.0|0.0|0.0|0.2|0.0|0.0|0.2|-31.91333333333333|-71.46944444444445|WGS84
Coquimbo|Choapa|Los Vilos|2002-2003|LA MOSTAZA|2003-02-19|16:10|150.0|Sin alerta|No definido|No definida|0.0|0.0|0.0|0.0|0.0|0.0|0.5|1.0|0.0|0.0|1.5|-31.869444444444447|-71.41527777777777|WGS84
Coquimbo|Limarí|Ovalle|2002-2003|EL FRUTO|2003-02-20|14:30|75.0|Sin alerta|No definido|No definida|0.0|0.0|0.0|0.0|3.0|0.0|0.0|2.0|0.0|0.0|5.0|-30.7625|-71.2725|WGS84
Coquimbo|Choapa|Los Vilos|2002-2003|POLCURA|2003-02-23|13:00|240.0|Sin alerta|No definido|No definida|0.0|0.0|0.0|0.0|0.0|6.75|11.25|27.0|0.0|0.0|45.0|-31.949444444444445|-70.96277777777777|WGS84
Coquimbo|Choapa|Illapel|2002-2003|PAJARITOS|2003-02-26|14:00|140.0|Sin alerta|No definido|No definida|0.0|0.0|0.0|0.0|0.5|0.0|1.5|3.0|0.0|0.0|5.0|-31.630277777777778|-71.16666666666667|WGS84
Coquimbo|Elqui|La Serena|2002-2003|CERRO CUTUM|2003-05-02|13:30|170.0|Sin alerta|No definido|No definida|0.0|0.0|0.0|0.0|0.0|0.0|10.0|90.0|0.0|0.0|100.0|-29.97222222222222|-71.05722222222222|WGS84
Coquimbo|Limarí|Ovalle|2002-2003|TALINAY BAJO|2003-05-15|13:00|60.0|Sin alerta|No definido|No definida|0.0|0.0|0.0|0.0|0.0|0.0|5.0|40.0|0.0|0.0|45.0|-30.785|-71.68083333333334|WGS84
Valparaíso|Marga Marga|Olmué|2002-2003|EL ALMENDRAL|2002-08-11|13:10|470.0|Sin alerta|No definido|Incendios de causa desconocida|0.0|0.0|0.0|0.0|0.0|0.0|6.0|6.0|0.0|0.0|12.0|-33.0925|-71.10555555555555|WGS84
Valparaíso|Marga Marga|Olmué|2002-2003|EL ALMENDRAL|2002-08-11|13:10|470.0|Sin alerta|No definido|Incendios de causa desconocida|0.0|0.0|0.0|0.0|0.0|0.0|4.0|0.0|0.0|0.0|4.0|-33.083333333333336|-71.10527777777777|WGS84
Valparaíso|Quillota|Hijuelas|2002-2003|OASIS LA CAMPANA|2002-08-13|14:30|390.0|Sin alerta|No definido|Incendios de causa desconocida|0.0|0.0|0.0|0.0|0.0|0.0|3.0|1.0|0.0|0.0|4.0|-32.894444444444446|-71.07944444444445|WGS84
Valparaíso|Valparaíso|Valparaíso|2002-2003|FDO PAJONAL|2002-10-04|12:00|540.0|Sin alerta|No definido|Incendios de causa desconocida|0.0|0.0|0.0|5.0|0.0|0.0|1.0|0.0|0.0|0.0|6.0|-33.07388888888889|-71.60833333333333|WGS84
Valparaíso|Valparaíso|Valparaíso|2002-2003|FDO PAJONAL|2002-10-09|16:50|43.0|Sin alerta|No definido|Incendios intencionales|0.0|0.0|0.0|0.01|0.0|0.0|0.0|0.0|0.0|0.0|0.01|-33.07416666666666|-71.59777777777778|WGS84
Valparaíso|Valparaíso|Valparaíso|2002-2003|PLACILLA|2002-10-10|17:30|17.0|Sin alerta|No definido|Incendios intencionales|0.0|0.0|0.0|0.0|0.0|0.0|0.01|0.0|0.0|0.0|0.01|-33.10166666666667|-71.5663888888889|WGS84
Valparaíso|Valparaíso|Valparaíso|2002-2003|FDO LAS MERCEDEZ|2002-10-12|20:50|26.0|Sin alerta|No definido|Incendios intencionales|0.0|0.0|0.0|0.0|0.0|0.0|0.01|0.0|0.0|0.0|0.01|-33.07416666666666|-71.58694444444444|WGS84
Valparaíso|Valparaíso|Valparaíso|2002-2003|RODELILLO|2002-10-13|01:31|14.0|Sin alerta|No definido|Incendios de causa desconocida|0.0|0.0|0.0|0.0|0.0|0.0|0.0|0.01|0.0|0.0|0.01|-33.05638888888889|-71.57583333333334|WGS84
Valparaíso|Valparaíso|Valparaíso|2002-2003|RODELILLO|2002-10-13|01:49|11.0|Sin alerta|No definido|Incendios de causa desconocida|0.0|0.0|0.0|0.0|0.0|0.0|0.0|0.02|0.0|0.0|0.02|-33.05638888888889|-71.57583333333334|WGS84
Valparaíso|Valparaíso|Valparaíso|2002-2003|FDO PAJONAL|2002-10-15|15:30|142.0|Sin alerta|No definido|Incendios de causa desconocida|0.0|0.0|0.0|0.5|0.0|0.0|0.0|0.0|0.0|0.0|0.5|-33.07416666666666|-71.59777777777778|WGS84
Valparaíso|Valparaíso|Valparaíso|2002-2003|LAGUNA VERDE|2002-10-16|13:05|55.0|Sin alerta|No definido|Incendios de causa desconocida|0.0|0.0|0.0|0.02|0.0|0.0|0.0|0.0|0.0|0.0|0.02|-33.117222222222225|-71.68472222222222|WGS84
Valparaíso|Valparaíso|Valparaíso|2002-2003|PLAYA ANCHA|2002-10-16|13:16|49.0|Sin alerta|No definido|Incendios de causa desconocida|0.0|0.0|0.0|0.0|0.0|0.0|0.15|0.0|0.0|0.0|0.15|-33.064166666666665|-71.64027777777778|WGS84
Valparaíso|Valparaíso|Valparaíso|2002-2003|CERRO LA CRUZ|2002-10-16|17:43|187.0|Sin alerta|No definido|Incendios de causa desconocida|0.0|0.0|0.0|0.0|0.0|0.0|1.0|0.0|0.0|0.0|1.0|-33.068333333333335|-71.58722222222222|WGS84
Valparaíso|Valparaíso|Valparaíso|2002-2003|CERRO LA CRUZ|2002-10-16|21:35|155.0|Sin alerta|No definido|Incendios de causa desconocida|0.0|0.0|0.0|0.0|0.0|0.0|0.4|0.0|0.0|0.0|0.4|-33.08305555555555|-71.59805555555556|WGS84
Valparaíso|Valparaíso|Casablanca|2002-2003|LO OROZCO|2002-10-20|16:25|815.0|Sin alerta|No definido|Tránsito de personasvehículos o aeronaves|0.0|0.0|0.0|0.0|0.0|1.0|1.0|2.0|0.0|0.0|4.0|-33.221666666666664|-71.43055555555556|WGS84
Valparaíso|San Antonio|San Antonio|2002-2003|FUNDO MIRAMAR|2002-11-02|16:06|44.0|Sin alerta|No definido|Incendios intencionales|0.0|0.0|0.0|0.0|0.0|0.0|0.0|0.01|0.0|0.0|0.01|-33.579166666666666|-71.5911111111111|WGS84
Valparaíso|Marga Marga|Quilpué|2002-2003|ESTERO VIEJO|2002-11-03|14:38|68.0|Sin alerta|No definido|Tránsito de personasvehículos o aeronaves|0.0|0.0|0.0|0.0|0.0|0.0|0.0|0.2|0.0|0.0|0.2|-33.06|-71.40444444444445|WGS84
Valparaíso|Valparaíso|Concón|2002-2003|VILLA PRIMAVERA|2002-11-03|15:00|30.0|Sin alerta|No definido|Actividades recreativas|0.02|0.0|0.0|0.0|0.0|0.0|0.02|0.04|0.0|0.0|0.08|-32.913333333333334|-71.51805555555555|WGS84
Valparaíso|Marga Marga|Villa Alemana|2002-2003|POBLACION WILSON|2002-11-03|15:57|41.0|Sin alerta|No definido|Actividades recreativas|0.0|0.0|0.0|0.0|0.0|0.0|0.0|0.1|0.0|0.0|0.1|-33.043055555555554|-71.34|WGS84
Valparaíso|Valparaíso|Viña del Mar|2002-2003|GRANADILLA|2002-11-03|17:18|51.0|Sin alerta|No definido|Tránsito de personasvehículos o aeronaves|0.0|0.0|0.0|0.0|0.0|0.0|0.1|0.1|0.0|0.0|0.2|-33.00333333333333|-71.53138888888888|WGS84
Valparaíso|Valparaíso|Valparaíso|2002-2003|CERRO YUNGAY|2002-11-03|17:29|74.0|Sin alerta|No definido|Tránsito de personasvehículos o aeronaves|0.0|0.0|0.0|0.01|0.0|0.0|0.0|0.01|0.0|0.0|0.02|-33.055277777777775|-71.64|WGS84
Valparaíso|San Antonio|San Antonio|2002-2003|POTRERILLOS|2002-11-03|14:40|100.0|Sin alerta|No definido|Actividades recreativas|0.0|0.0|0.0|0.01|0.0|0.0|0.0|0.02|0.0|0.0|0.03|-33.56138888888889|-71.58|WGS84
Valparaíso|San Antonio|San Antonio|2002-2003|FUNDO MIRAMAR|2002-11-03|16:15|75.0|Sin alerta|No definido|Actividades recreativas|0.0|0.0|0.0|0.01|0.0|0.0|0.0|0.01|0.0|0.0|0.02|-33.57944444444445|-71.58055555555555|WGS84
Valparaíso|San Antonio|San Antonio|2002-2003|QUEBRADA HUALLIPEN|2002-11-03|17:02|52.0|Sin alerta|No definido|Actividades recreativas|0.0|0.0|0.0|0.0|0.0|0.0|0.0|0.5|0.0|0.0|0.5|-33.57888888888889|-71.60194444444444|WGS84
Valparaíso|Valparaíso|Valparaíso|2002-2003|LA BALLICA|2002-11-03|19:43|1097.0|Sin alerta|No definido|Actividades recreativas|0.04|0.0|0.0|0.0|0.0|0.0|0.0|0.0|0.0|0.0|0.04|-33.138888888888886|-71.51388888888889|WGS84
Valparaíso|Marga Marga|Villa Alemana|2002-2003|HUANHUALI|2002-11-04|15:50|21.0|Sin alerta|No definido|Incendios intencionales|0.0|0.0|0.0|0.0|0.0|0.0|0.05|0.0|0.0|0.0|0.05|-33.060833333333335|-71.36166666666666|WGS84
Valparaíso|Marga Marga|Villa Alemana|2002-2003|CAMINO TRONCAL|2002-11-06|15:53|28.0|Sin alerta|No definido|Tránsito de personasvehículos o aeronaves|0.0|0.0|0.0|0.0|0.0|0.0|0.01|0.02|0.0|0.0|0.03|-33.04361111111111|-71.31861111111111|WGS84
Valparaíso|Marga Marga|Villa Alemana|2002-2003|POBLACION WILSON|2002-11-06|16:44|62.0|Sin alerta|No definido|Actividades recreativas|0.0|0.0|0.0|0.0|0.0|0.0|0.0|0.05|0.0|0.0|0.05|-33.043055555555554|-71.34|WGS84
Valparaíso|Marga Marga|Villa Alemana|2002-2003|FORESTA EL CARMEN|2002-11-07|14:35|29.0|Sin alerta|No definido|Tránsito de personasvehículos o aeronaves|0.0|0.0|0.0|0.0|0.0|0.0|0.0|0.2|0.0|0.0|0.2|-33.04333333333334|-71.32916666666667|WGS84
Valparaíso|San Antonio|El Tabo|2002-2003|PIDRA EL ELEFANTE|2002-11-08|15:30|1275.0|Sin alerta|No definido|Actividades recreativas|0.5|0.0|0.0|0.0|0.0|0.0|2.5|0.6|0.0|0.0|3.6|-33.44277777777778|-71.64083333333333|WGS84
Valparaíso|Marga Marga|Villa Alemana|2002-2003|POBLACION WILSON|2002-11-08|17:32|46.0|Sin alerta|No definido|Actividades recreativas|0.0|0.0|0.0|0.0|0.0|0.0|0.0|0.25|0.0|0.0|0.25|-33.03388888888889|-71.35027777777778|WGS84
Valparaíso|Valparaíso|Casablanca|2002-2003|SANTUARIO LO VASQUEZ|2002-11-09|15:51|249.0|Sin alerta|No definido|Actividades recreativas|0.0|0.0|0.0|0.0|0.0|15.0|15.0|20.0|0.0|0.0|50.0|-33.24888888888889|-71.43111111111111|WGS84
Valparaíso|San Antonio|El Quisco|2002-2003|ISLA NEGRA|2002-11-09|17:05|115.0|Sin alerta|No definido|Incendios de causa desconocida|0.0|0.0|0.0|0.05|0.0|0.0|0.0|0.0|0.0|0.0|0.05|-33.424166666666665|-71.6725|WGS84
Valparaíso|Marga Marga|Villa Alemana|2002-2003|SECTOR SUR|2002-11-09|12:48|33.0|Sin alerta|No definido|Actividades recreativas|0.0|0.0|0.0|0.0|0.0|0.0|0.0|0.02|0.0|0.0|0.02|-33.060833333333335|-71.36166666666666|WGS84
Valparaíso|Marga Marga|Villa Alemana|2002-2003|TRONCOS VIEJOS|2002-11-09|20:14|61.0|Sin alerta|No definido|Actividades recreativas|0.0|0.0|0.0|0.0|0.0|0.0|0.5|1.0|0.0|0.0|1.5|-33.01833333333333|-71.3825|WGS84
Valparaíso|Marga Marga|Quilpué|2002-2003|EL BELLOTO|2002-11-10|11:14|126.0|Sin alerta|No definido|Tránsito de personasvehículos o aeronaves|0.0|0.0|0.0|0.0|0.0|0.0|0.1|0.2|0.0|0.0|0.3|-33.015|-71.39277777777778|WGS84
Valparaíso|Valparaíso|Viña del Mar|2002-2003|SAUSALITO|2002-11-10|15:04|79.0|Sin alerta|No definido|Tránsito de personasvehículos o aeronaves|0.0|0.0|0.0|0.05|0.0|0.0|0.0|0.05|0.0|0.0|0.1|-33.01222222222222|-71.53166666666667|WGS84
Valparaíso|Marga Marga|Quilpué|2002-2003|BELLOTO NORTE|2002-11-10|14:59|248.0|Sin alerta|No definido|Actividades recreativas|0.0|0.0|0.0|0.0|0.0|0.0|4.0|4.0|0.0|0.0|8.0|-33.02361111111111|-71.41416666666667|WGS84
Valparaíso|Marga Marga|Villa Alemana|2002-2003|EL CARMEN|2002-11-10|17:00|173.0|Sin alerta|No definido|Actividades recreativas|0.0|0.0|0.0|2.0|0.0|0.0|1.0|3.0|0.0|0.0|6.0|-33.04333333333334|-71.32916666666667|WGS84
Valparaíso|Marga Marga|Villa Alemana|2002-2003|NORTE DE VILLA ALEMANA|2002-11-10|17:34|101.0|Sin alerta|No definido|Actividades recreativas|0.0|0.0|0.0|0.0|0.0|0.0|1.4|2.1|0.0|0.0|3.5|-33.02472222222222|-71.36083333333333|WGS84
Valparaíso|Marga Marga|Villa Alemana|2002-2003|PEÑABLANCA|2002-11-10|14:27|36.0|Sin alerta|No definido|Actividades recreativas|0.0|0.0|0.0|0.0|0.0|0.0|0.0|0.07|0.0|0.0|0.07|-33.033611111111114|-71.36111111111111|WGS84
Valparaíso|Marga Marga|Villa Alemana|2002-2003|FINAL LA TORRE|2002-11-10|17:04|225.0|Sin alerta|No definido|Actividades recreativas|0.0|0.0|0.0|0.0|0.0|0.0|0.1|0.2|0.0|0.0|0.3|-33.033611111111114|-71.37166666666667|WGS84
Valparaíso|Marga Marga|Villa Alemana|2002-2003|HUANHUALI|2002-11-10|18:35|29.0|Sin alerta|No definido|Actividades recreativas|0.0|0.0|0.0|0.0|0.0|0.0|0.0|0.03|0.0|0.0|0.03|-33.06944444444444|-71.38333333333334|WGS84
Valparaíso|Valparaíso|Viña del Mar|2002-2003|GLORIAS NAVALES|2002-11-11|14:20|57.0|Sin alerta|No definido|Quema de desechos|0.0|0.0|0.0|0.0|0.0|0.0|0.0|0.01|0.0|0.0|0.01|-32.98583333333333|-71.49888888888889|WGS84
Valparaíso|Valparaíso|Viña del Mar|2002-2003|REÑACA ALTO|2002-11-11|15:27|64.0|Sin alerta|No definido|Quema de desechos|0.0|0.0|0.0|0.0|0.0|0.0|0.03|0.02|0.0|0.0|0.05|-32.98583333333333|-71.49888888888889|WGS84
Valparaíso|Marga Marga|Villa Alemana|2002-2003|POBLACION WILSON|2002-11-11|15:40|64.0|Sin alerta|No definido|Actividades recreativas|0.0|0.0|0.0|0.0|0.0|0.0|0.05|0.15|0.0|0.0|0.2|-33.043055555555554|-71.34|WGS84
Valparaíso|San Antonio|San Antonio|2002-2003|FUNDO MIRAMAR|2002-11-11|18:50|85.0|Sin alerta|No definido|Incendios intencionales|0.0|0.0|0.0|0.1|0.0|0.0|0.1|0.1|0.0|0.0|0.3|-33.57944444444445|-71.58055555555555|WGS84
Valparaíso|Valparaíso|Viña del Mar|2002-2003|SIETE HERMANAS|2002-11-12|11:06|61.0|Sin alerta|No definido|Tránsito de personasvehículos o aeronaves|0.0|0.0|0.0|0.0|0.0|0.0|0.01|0.01|0.0|0.0|0.02|-33.048611111111114|-71.52194444444444|WGS84
Valparaíso|Marga Marga|Villa Alemana|2002-2003|POBLACION WILSON|2002-11-12|16:55|70.0|Sin alerta|No definido|Tránsito de personasvehículos o aeronaves|0.0|0.0|0.0|0.0|0.0|0.0|0.03|0.05|0.0|0.0|0.08|-33.043055555555554|-71.34|WGS84
Valparaíso|Valparaíso|Valparaíso|2002-2003|RAPA NUI|2002-11-12|17:05|31.0|Sin alerta|No definido|Tránsito de personasvehículos o aeronaves|0.0|0.0|0.0|0.01|0.0|0.0|0.0|0.0|0.0|0.0|0.01|-33.065555555555555|-71.57611111111112|WGS84
Valparaíso|Valparaíso|Valparaíso|2002-2003|EL PLATEADO|2002-11-12|17:29|39.0|Sin alerta|No definido|Tránsito de personasvehículos o aeronaves|0.0|0.0|0.0|0.0|0.0|0.0|0.0|0.01|0.0|0.0|0.01|-33.08222222222222|-71.64083333333333|WGS84
Valparaíso|Valparaíso|Valparaíso|2002-2003|CERRO ESPERANZA|2002-11-12|17:56|79.0|Sin alerta|No definido|Actividades recreativas|0.0|0.0|0.0|0.0|0.0|0.0|0.01|0.02|0.0|0.0|0.03|-33.038333333333334|-71.58611111111111|WGS84
Valparaíso|Marga Marga|Villa Alemana|2002-2003|POBLACION SAN JOSE|2002-11-12|15:37|34.0|Sin alerta|No definido|Actividades recreativas|0.0|0.0|0.0|0.0|0.0|0.0|0.0|0.01|0.0|0.0|0.01|-33.06027777777778|-71.38305555555556|WGS84
Valparaíso|Valparaíso|Viña del Mar|2002-2003|REÑACA ALTO|2002-11-13|12:45|85.0|Sin alerta|No definido|Quema de desechos|0.0|0.0|0.0|0.1|0.0|0.0|0.0|0.1|0.0|0.0|0.2|-32.99527777777778|-71.47777777777777|WGS84
Valparaíso|Valparaíso|Viña del Mar|2002-2003|LAJARILLA|2002-11-13|12:57|122.0|Sin alerta|No definido|Quema de desechos|0.0|0.0|0.0|0.0|0.0|0.0|0.4|0.5|0.0|0.0|0.9|-32.97694444444444|-71.49861111111112|WGS84
Valparaíso|Valparaíso|Valparaíso|2002-2003|VILLA RAPA NUI|2002-11-13|13:41|103.0|Sin alerta|No definido|Tránsito de personasvehículos o aeronaves|0.0|0.0|0.0|0.6|0.0|0.0|0.0|0.0|0.0|0.0|0.6|-33.0475|-71.57555555555555|WGS84
Valparaíso|Valparaíso|Concón|2002-2003|RANCHO AZUL|2002-11-13|15:17|58.0|Sin alerta|No definido|Quema de desechos|0.0|0.0|0.0|0.0|0.0|0.0|0.0|0.02|0.0|0.0|0.02|-32.97694444444444|-71.49861111111112|WGS84
Valparaíso|Marga Marga|Villa Alemana|2002-2003|POBLACION LOS PROFESORES|2002-11-13|15:18|195.0|Sin alerta|No definido|Actividades recreativas|0.0|0.0|0.0|1.0|0.0|0.0|2.0|3.0|0.0|0.0|6.0|-33.033611111111114|-71.37166666666667|WGS84
Valparaíso|Valparaíso|Viña del Mar|2002-2003|REÑACA ALTO|2002-11-13|15:31|89.0|Sin alerta|No definido|Actividades recreativas|0.0|0.0|0.0|0.0|0.0|0.0|0.0|0.07|0.0|0.0|0.07|-32.98583333333333|-71.49888888888889|WGS84
Valparaíso|Marga Marga|Villa Alemana|2002-2003|POBLACION WILSON|2002-11-14|15:31|74.0|Sin alerta|No definido|Actividades recreativas|0.0|0.0|0.0|0.0|0.0|0.0|0.0|0.23|0.0|0.0|0.23|-33.034166666666664|-71.33972222222222|WGS84
Valparaíso|Valparaíso|Valparaíso|2002-2003|LA PIRAMIDE|2002-11-14|16:51|52.0|Sin alerta|No definido|Actividades recreativas|0.0|0.0|0.0|0.0|0.0|0.0|0.0|0.02|0.0|0.0|0.02|-33.06472222222222|-71.61888888888889|WGS84
Valparaíso|Valparaíso|Casablanca|2002-2003|FDO EL REFUGIO|2002-11-14|17:20|94.0|Sin alerta|No definido|Actividades recreativas|0.0|0.0|0.0|0.0|0.0|0.0|0.3|0.7|0.0|0.0|1.0|-33.321666666666665|-71.39027777777778|WGS84
Valparaíso|Marga Marga|Villa Alemana|2002-2003|EL ROCIO|2002-11-14|00:39|15.0|Sin alerta|No definido|Actividades recreativas|0.0|0.0|0.0|0.0|0.0|0.0|0.0|0.01|0.0|0.0|0.01|-33.05111111111111|-71.39361111111111|WGS84
Valparaíso|Marga Marga|Villa Alemana|2002-2003|PEÑABLANCA|2002-11-14|15:16|19.0|Sin alerta|No definido|Tránsito de personasvehículos o aeronaves|0.0|0.0|0.0|0.0|0.0|0.0|0.0|0.01|0.0|0.0|0.01|-33.033611111111114|-71.36111111111111|WGS84
Valparaíso|Marga Marga|Villa Alemana|2002-2003|POBLACION LAS VEGAS|2002-11-14|21:28|27.0|Sin alerta|No definido|Actividades recreativas|0.0|0.0|0.0|0.0|0.0|0.0|0.0|0.03|0.0|0.0|0.03|-33.03305555555556|-71.39305555555555|WGS84
Valparaíso|Valparaíso|Valparaíso|2002-2003|ALTO DEL PUERTO|2002-11-15|12:38|192.0|Sin alerta|No definido|Tránsito de personasvehículos o aeronaves|0.0|0.0|0.0|1.0|0.0|0.0|0.0|0.0|0.0|0.0|1.0|-33.10111111111111|-71.59861111111111|WGS84
Valparaíso|Valparaíso|Valparaíso|2002-2003|CERRO LOS PLACERES|2002-11-16|15:10|45.0|Sin alerta|No definido|Actividades recreativas|0.0|0.0|0.0|0.0|0.0|0.0|0.02|0.1|0.0|0.0|0.12|-33.0475|-71.57555555555555|WGS84
Valparaíso|San Antonio|San Antonio|2002-2003|VISTA HERMOSA|2002-11-16|15:25|45.0|Sin alerta|No definido|Tránsito de personasvehículos o aeronaves|0.0|0.0|0.0|0.0|0.0|0.0|0.0|0.01|0.0|0.0|0.01|-33.57|-71.60166666666667|WGS84
Valparaíso|Marga Marga|Villa Alemana|2002-2003|PARADERO 12|2002-11-16|12:17|21.0|Sin alerta|No definido|Tránsito de personasvehículos o aeronaves|0.0|0.0|0.0|0.0|0.0|0.0|0.0|0.01|0.0|0.0|0.01|-33.04222222222222|-71.39333333333333|WGS84
Valparaíso|Marga Marga|Villa Alemana|2002-2003|PARADERO 10|2002-11-16|12:44|15.0|Sin alerta|No definido|Actividades recreativas|0.0|0.0|0.0|0.0|0.0|0.0|0.0|0.03|0.0|0.0|0.03|-33.04222222222222|-71.39333333333333|WGS84
Valparaíso|Marga Marga|Villa Alemana|2002-2003|POBLACUION JHON KENNEDY|2002-11-16|23:30|14.0|Sin alerta|No definido|Actividades recreativas|0.0|0.0|0.0|0.0|0.0|0.0|0.01|0.01|0.0|0.0|0.02|-33.05111111111111|-71.39361111111111|WGS84
Valparaíso|Valparaíso|Valparaíso|2002-2003|PLAYA ANCHA|2002-11-17|18:04|76.0|Sin alerta|No definido|Actividades recreativas|0.0|0.0|0.0|0.0|0.0|0.0|0.1|0.2|0.0|0.0|0.3|-33.055|-71.65083333333334|WGS84
Valparaíso|San Antonio|San Antonio|2002-2003|FUNDO MIRAMAR|2002-11-17|18:55|45.0|Sin alerta|No definido|Tránsito de personasvehículos o aeronaves|0.0|0.0|0.0|0.0|0.0|0.0|0.0|0.01|0.0|0.0|0.01|-33.57944444444445|-71.58055555555555|WGS84
Valparaíso|San Antonio|San Antonio|2002-2003|PELANCURA|2002-11-17|19:50|55.0|Sin alerta|No definido|Tránsito de personasvehículos o aeronaves|0.0|0.0|0.0|0.0|0.0|0.0|0.0|0.02|0.0|0.0|0.02|-33.57944444444445|-71.58055555555555|WGS84
Valparaíso|Marga Marga|Villa Alemana|2002-2003|POBLACION LAS VEGAS|2002-11-17|11:22|64.0|Sin alerta|No definido|Actividades recreativas|0.0|0.0|0.0|0.0|0.0|0.0|0.0|0.65|0.0|0.0|0.65|-33.024166666666666|-71.39277777777778|WGS84
Valparaíso|Valparaíso|Viña del Mar|2002-2003|SEXTO SECTOR GOMEZ CARREÑO|2002-11-18|12:26|62.0|Sin alerta|No definido|Tránsito de personasvehículos o aeronaves|0.0|0.0|0.0|0.0|0.0|0.0|0.03|0.07|0.0|0.0|0.1|-32.99444444444445|-71.52055555555556|WGS84
Valparaíso|Valparaíso|Viña del Mar|2002-2003|GRANADILLA|2002-11-18|14:16|65.0|Sin alerta|No definido|Tránsito de personasvehículos o aeronaves|0.0|0.0|0.0|0.0|0.0|0.0|0.0|0.02|0.0|0.0|0.02|-33.03111111111111|-71.5|WGS84
Valparaíso|Marga Marga|Quilpué|2002-2003|BELLOTO NORTE|2002-11-18|15:09|107.0|Sin alerta|No definido|Quema de desechos|0.0|0.0|0.0|0.0|0.0|0.0|0.02|0.03|0.0|0.0|0.05|-33.02361111111111|-71.41416666666667|WGS84
Valparaíso|Marga Marga|Quilpué|2002-2003|LOS MOLLES|2002-11-18|18:01|84.0|Sin alerta|No definido|Tránsito de personasvehículos o aeronaves|0.0|0.0|0.0|0.0|0.0|0.0|0.1|0.4|0.0|0.0|0.5|-33.105555555555554|-71.37361111111112|WGS84
Valparaíso|Marga Marga|Quilpué|2002-2003|EL REBAÑO|2002-11-18|18:17|66.0|Sin alerta|No definido|Actividades recreativas|0.0|0.0|0.0|0.0|0.0|0.0|0.05|0.3|0.0|0.0|0.35|-33.03138888888889|-71.4786111111111|WGS84
Valparaíso|Petorca|Cabildo|2002-2003|CABILDO|2002-11-18|17:16|164.0|Sin alerta|No definido|Tránsito de personasvehículos o aeronaves|0.0|0.0|0.0|0.0|0.0|0.0|0.0|0.5|0.0|0.0|0.5|-33.03138888888889|-71.4786111111111|WGS84
Valparaíso|Marga Marga|Villa Alemana|2002-2003|PARADERO 12 1|2002-11-18|11:10|31.0|Sin alerta|No definido|Actividades recreativas|0.0|0.0|0.0|0.0|0.0|0.0|0.01|0.04|0.0|0.0|0.05|-33.04222222222222|-71.39333333333333|WGS84
Valparaíso|Marga Marga|Villa Alemana|2002-2003|PARADERO 12 2|2002-11-18|16:08|33.0|Sin alerta|No definido|Actividades recreativas|0.0|0.0|0.0|0.0|0.0|0.0|0.0|0.02|0.0|0.0|0.02|-33.04222222222222|-71.39333333333333|WGS84
Valparaíso|Valparaíso|Valparaíso|2002-2003|PLACILLA|2002-11-19|10:24|92.0|Sin alerta|No definido|Actividades recreativas|0.0|0.0|0.0|0.0|0.0|0.0|0.0|0.02|0.0|0.0|0.02|-33.12888888888889|-71.56722222222223|WGS84
Valparaíso|Marga Marga|Quilpué|2002-2003|BELLOTO NORTE|2002-11-19|13:56|118.0|Sin alerta|No definido|Tránsito de personasvehículos o aeronaves|0.0|0.0|0.0|0.0|0.0|0.0|0.25|0.6|0.0|0.0|0.85|-33.03305555555556|-71.39305555555555|WGS84
Valparaíso|Marga Marga|Villa Alemana|2002-2003|POBLACION JHON KENNEDY|2002-11-19|17:14|31.0|Sin alerta|No definido|Quema de desechos|0.0|0.0|0.0|0.0|0.0|0.0|0.0|0.01|0.0|0.0|0.01|-33.06944444444444|-71.37277777777778|WGS84
Valparaíso|Quillota|Hijuelas|2002-2003|PILA DEL VIENTO|2002-11-19|13:05|445.0|Sin alerta|No definido|Tránsito de personasvehículos o aeronaves|0.0|0.0|0.0|1.0|0.0|0.0|2.0|5.0|0.0|0.0|8.0|-32.83083333333333|-71.09944444444444|WGS84
Valparaíso|Valparaíso|Valparaíso|2002-2003|RODELILLO|2002-11-19|17:20|83.0|Sin alerta|No definido|Actividades recreativas|0.0|0.0|0.0|0.0|0.0|0.0|0.05|0.4|0.0|0.0|0.45|-33.056666666666665|-71.565|WGS84
Valparaíso|Valparaíso|Puchuncavi|2002-2003|FDO QUIRILLUCA|2002-11-19|18:05|1123.0|Sin alerta|No definido|Tránsito de personasvehículos o aeronaves|0.0|0.0|0.0|0.0|0.0|0.0|0.5|2.0|0.0|0.0|2.5|-32.7075|-71.44833333333334|WGS84
Valparaíso|Marga Marga|Villa Alemana|2002-2003|LAS VEGAS|2002-11-19|10:15|48.0|Sin alerta|No definido|Actividades recreativas|0.0|0.0|0.0|0.0|0.0|0.0|0.0|0.03|0.0|0.0|0.03|-33.024166666666666|-71.39277777777778|WGS84
Valparaíso|Marga Marga|Villa Alemana|2002-2003|GUMERCINDO|2002-11-19|17:20|17.0|Sin alerta|No definido|Actividades recreativas|0.0|0.0|0.0|0.0|0.0|0.0|0.0|0.01|0.0|0.0|0.01|-33.069722222222225|-71.36194444444445|WGS84
Valparaíso|Marga Marga|Villa Alemana|2002-2003|VILLA LOS ALBATROS|2002-11-19|19:05|27.0|Sin alerta|No definido|Actividades recreativas|0.0|0.0|0.0|0.0|0.0|0.0|0.0|0.01|0.0|0.0|0.01|-33.024166666666666|-71.39277777777778|WGS84
Valparaíso|Marga Marga|Villa Alemana|2002-2003|POBLACION NUEVA ESPERANZA|2002-11-19|20:20|19.0|Sin alerta|No definido|Actividades recreativas|0.0|0.0|0.0|0.0|0.0|0.0|0.0|0.08|0.0|0.0|0.08|-33.06|-71.3938888888889|WGS84
Valparaíso|Marga Marga|Villa Alemana|2002-2003|POBLACION JHON KENNEDY|2002-11-19|22:20|14.0|Sin alerta|No definido|Actividades recreativas|0.0|0.0|0.0|0.0|0.0|0.0|0.0|0.03|0.0|0.0|0.03|-33.05111111111111|-71.39361111111111|WGS84
Valparaíso|Valparaíso|Concón|2002-2003|RPC|2002-11-20|11:19|281.0|Sin alerta|No definido|Tránsito de personasvehículos o aeronaves|0.0|0.0|0.0|0.0|0.0|0.0|0.5|0.3|0.0|0.0|0.8|-32.93222222222222|-71.47583333333333|WGS84
Valparaíso|Marga Marga|Limache|2002-2003|LOS LAURELES|2002-11-20|11:27|153.0|Sin alerta|No definido|Tránsito de personasvehículos o aeronaves|0.0|0.0|0.0|0.0|0.0|0.0|0.1|0.3|0.0|0.0|0.4|-32.92527777777778|-71.36888888888889|WGS84
Valparaíso|Quillota|Quillota|2002-2003|EL MAUCO|2002-11-20|11:30|570.0|Sin alerta|No definido|Tránsito de personasvehículos o aeronaves|0.0|0.0|0.0|0.0|0.0|379.31|214.52|271.64|0.0|0.0|865.47|-32.90611111111111|-71.4325|WGS84
Valparaíso|Marga Marga|Villa Alemana|2002-2003|EL BURRIQUERO|2002-11-20|13:18|1422.0|Sin alerta|No definido|Tránsito de personasvehículos o aeronaves|0.0|0.0|0.0|0.0|0.0|20.0|52.0|90.0|0.0|0.0|162.0|-33.034166666666664|-71.33972222222222|WGS84
Valparaíso|San Antonio|El Tabo|2002-2003|LAS PATAGUAS|2002-11-20|12:50|259.0|Sin alerta|No definido|Faenas agrícolas y pecuarias|0.0|0.0|0.0|1.0|0.0|0.0|0.3|1.2|0.0|0.0|2.5|-33.49944444444444|-71.52416666666667|WGS84
Valparaíso|San Antonio|Cartagena|2002-2003|ALTO SAN SEBASTIAN|2002-11-20|16:55|70.0|Sin alerta|No definido|Actividades recreativas|0.0|0.0|0.0|0.1|0.0|0.0|0.0|0.1|0.0|0.0|0.2|-33.50694444444444|-71.58916666666667|WGS84
Valparaíso|San Antonio|El Quisco|2002-2003|FUNDO MAQUEGUANO|2002-11-20|17:00|135.0|Sin alerta|No definido|Incendios intencionales|0.0|0.0|0.02|0.0|0.0|0.0|0.0|0.04|0.0|0.0|0.06|-33.424166666666665|-71.6725|WGS84
Valparaíso|Marga Marga|Villa Alemana|2002-2003|POBLACION LAS VEGAS|2002-11-20|17:03|49.0|Sin alerta|No definido|Actividades recreativas|0.0|0.0|0.0|0.0|0.0|0.0|0.1|0.4|0.0|0.0|0.5|-33.04222222222222|-71.39333333333333|WGS84
Valparaíso|Marga Marga|Villa Alemana|2002-2003|PARQUE DEL SENDERO|2002-11-20|17:30|55.0|Sin alerta|No definido|Tránsito de personasvehículos o aeronaves|0.0|0.0|0.0|0.0|0.0|0.0|0.0|2.0|0.0|0.0|2.0|-33.07888888888889|-71.36222222222223|WGS84
Valparaíso|Quillota|Quillota|2002-2003|LO ROJAS|2002-11-21|16:14|166.0|Sin alerta|No definido|Tránsito de personasvehículos o aeronaves|0.0|0.0|0.0|0.0|0.1|0.0|0.4|0.5|0.0|0.0|1.0|-32.80972222222222|-71.28027777777778|WGS84
Valparaíso|San Antonio|San Antonio|2002-2003|PELANCURA|2002-11-21|18:15|72.0|Sin alerta|No definido|Tránsito de personasvehículos o aeronaves|0.0|0.0|0.0|0.0|0.0|0.0|0.0|0.04|0.0|0.0|0.04|-33.56944444444444|-71.62333333333333|WGS84
Valparaíso|Valparaíso|Valparaíso|2002-2003|PLACILLA|2002-11-22|13:12|97.0|Sin alerta|No definido|Tránsito de personasvehículos o aeronaves|0.0|0.0|0.0|0.1|0.0|0.0|0.07|0.03|0.0|0.0|0.2|-33.10166666666667|-71.57722222222222|WGS84
Valparaíso|Valparaíso|Valparaíso|2002-2003|POBLACION LA ISLA|2002-11-22|14:50|73.0|Sin alerta|No definido|Tránsito de personasvehículos o aeronaves|0.0|0.0|0.0|0.0|0.0|0.0|0.01|0.02|0.0|0.0|0.03|-33.07416666666666|-71.58694444444444|WGS84
Valparaíso|Valparaíso|Valparaíso|2002-2003|PLACILLA 2|2002-11-22|15:47|92.0|Sin alerta|No definido|Tránsito de personasvehículos o aeronaves|0.0|0.0|0.0|0.01|0.0|0.0|0.01|0.03|0.0|0.0|0.05|-33.10166666666667|-71.5663888888889|WGS84
Valparaíso|Valparaíso|Casablanca|2002-2003|LA ROTUNDA|2002-11-23|12:00|111.0|Sin alerta|No definido|Incendios intencionales|0.0|0.0|0.0|0.0|0.0|0.08|0.0|0.12|0.0|0.0|0.2|-33.26694444444445|-71.42083333333333|WGS84
Valparaíso|Marga Marga|Villa Alemana|2002-2003|VILLA ALEMANA NORTE|2002-11-23|15:45|138.0|Sin alerta|No definido|Actividades recreativas|0.0|0.0|0.0|0.0|0.0|0.5|1.5|4.0|0.0|0.0|6.0|-33.01833333333333|-71.3825|WGS84
Valparaíso|Marga Marga|Quilpué|2002-2003|QUILPUE|2002-11-24|15:58|67.0|Sin alerta|No definido|Quema de desechos|0.0|0.0|0.0|0.0|0.0|0.0|0.02|0.06|0.0|0.0|0.08|-33.05861111111111|-71.46888888888888|WGS84
Valparaíso|Marga Marga|Villa Alemana|2002-2003|CUESTA LOS QUILLAYES|2002-11-24|18:43|87.0|Sin alerta|No definido|Tránsito de personasvehículos o aeronaves|0.0|0.0|0.0|0.0|0.0|0.0|0.02|0.04|0.0|0.0|0.06|-33.15138888888889|-71.34277777777778|WGS84
Valparaíso|Valparaíso|Viña del Mar|2002-2003|RHONA|2002-11-26|12:10|48.0|Sin alerta|No definido|Actividades recreativas|0.0|0.0|0.0|0.0|0.0|0.0|0.0|0.1|0.0|0.0|0.1|-33.05722222222222|-71.5436111111111|WGS84
Valparaíso|Valparaíso|Valparaíso|2002-2003|NUEVO PLACILLA|2002-11-26|13:06|114.0|Sin alerta|No definido|Tránsito de personasvehículos o aeronaves|0.0|0.0|0.0|0.13|0.0|0.0|0.0|0.0|0.0|0.0|0.13|-33.12027777777778|-71.54555555555555|WGS84
Valparaíso|Valparaíso|Valparaíso|2002-2003|TIERRAS ROJAS|2002-11-26|15:48|221.0|Sin alerta|No definido|Quema de desechos|0.0|0.0|0.0|0.0|0.0|0.0|0.0|0.03|0.0|0.0|0.03|-33.05638888888889|-71.57583333333334|WGS84
Valparaíso|Marga Marga|Quilpué|2002-2003|COLINAS DE ORO|2002-11-26|16:10|125.0|Sin alerta|No definido|Tránsito de personasvehículos o aeronaves|0.0|0.0|0.0|0.0|0.0|0.0|0.1|0.2|0.0|0.0|0.3|-33.077222222222225|-71.44777777777777|WGS84
Valparaíso|Petorca|La Ligua|2002-2003|LOS MOLLES|2002-11-26|18:16|1229.0|Sin alerta|No definido|Tránsito de personasvehículos o aeronaves|0.0|0.0|0.0|0.0|0.0|10.0|20.0|30.0|0.0|0.0|60.0|-32.183055555555555|-71.51916666666666|WGS84
Valparaíso|Valparaíso|Valparaíso|2002-2003|PEÑUELAS|2002-11-27|10:28|104.0|Sin alerta|No definido|Tránsito de personasvehículos o aeronaves|0.0|0.0|0.0|0.01|0.0|0.0|0.0|0.01|0.0|0.0|0.02|-33.15611111111111|-71.55722222222222|WGS84
Valparaíso|San Antonio|Cartagena|2002-2003|VISTA HERMOSA|2002-11-27|13:00|55.0|Sin alerta|No definido|Incendios intencionales|0.0|0.0|0.0|0.2|0.0|0.0|0.0|0.8|0.0|0.0|1.0|-33.54277777777778|-71.60083333333333|WGS84
Valparaíso|Marga Marga|Villa Alemana|2002-2003|LAS VEGAS|2002-11-27|13:23|133.0|Sin alerta|No definido|Tránsito de personasvehículos o aeronaves|0.0|0.0|0.0|0.0|0.0|0.0|0.1|0.1|0.0|0.0|0.2|-33.03305555555556|-71.39305555555555|WGS84
Valparaíso|Marga Marga|Villa Alemana|2002-2003|FUNDO SANTA GLORIA|2002-11-27|13:50|157.0|Sin alerta|No definido|Quema de desechos|0.0|0.0|0.0|0.3|0.0|0.0|0.1|0.6|0.0|0.0|1.0|-33.04416666666667|-71.27555555555556|WGS84
Valparaíso|Valparaíso|Viña del Mar|2002-2003|GLORIAS NAVALES|2002-11-27|15:05|104.0|Sin alerta|No definido|Quema de desechos|0.0|0.0|0.0|0.0|0.0|0.0|0.0|0.2|0.0|0.0|0.2|-32.98583333333333|-71.49888888888889|WGS84
Valparaíso|Marga Marga|Quilpué|2002-2003|EL REBAÑO|2002-11-27|16:28|107.0|Sin alerta|No definido|Tránsito de personasvehículos o aeronaves|0.0|0.0|0.0|0.0|0.0|0.0|0.1|0.1|0.0|0.0|0.2|-33.03138888888889|-71.4786111111111|WGS84
Valparaíso|Marga Marga|Villa Alemana|2002-2003|RECREO|2002-11-28|12:48|74.0|Sin alerta|No definido|Tránsito de personasvehículos o aeronaves|0.0|0.0|0.0|0.0|0.0|0.0|0.05|0.1|0.0|0.0|0.15|-33.06944444444444|-71.37277777777778|WGS84
Valparaíso|San Antonio|San Antonio|2002-2003|FUNDO LLO LLEO|2002-11-28|13:50|162.0|Sin alerta|No definido|Incendios intencionales|0.0|0.0|0.0|0.0|0.0|0.0|0.4|0.0|0.0|0.2|0.6000000000000001|-33.59722222222222|-71.59166666666667|WGS84
Valparaíso|Valparaíso|Viña del Mar|2002-2003|REÑACA ALTO|2002-11-28|14:55|110.0|Sin alerta|No definido|Quema de desechos|0.0|0.0|0.0|0.2|0.0|0.0|0.0|0.4|0.0|0.0|0.6000000000000001|-32.986111111111114|-71.48805555555556|WGS84
Valparaíso|Valparaíso|Valparaíso|2002-2003|LA PLANCHADA|2002-11-28|15:38|97.0|Sin alerta|No definido|Tránsito de personasvehículos o aeronaves|0.0|0.0|0.0|0.2|0.0|0.0|0.2|0.4|0.0|0.0|0.8|-33.047222222222224|-71.58611111111111|WGS84
Valparaíso|Marga Marga|Quilpué|2002-2003|BELLOTO|2002-11-28|16:46|34.0|Sin alerta|No definido|Actividades recreativas|0.0|0.0|0.0|0.0|0.0|0.0|0.0|0.02|0.0|0.0|0.02|-33.04138888888889|-71.42555555555556|WGS84
Valparaíso|Valparaíso|Viña del Mar|2002-2003|GLORIAS NAVALES|2002-11-28|17:54|39.0|Sin alerta|No definido|Tránsito de personasvehículos o aeronaves|0.0|0.0|0.0|0.0|0.0|0.0|0.0|0.03|0.0|0.0|0.03|-32.995|-71.49916666666667|WGS84
Valparaíso|Valparaíso|Valparaíso|2002-2003|POBLACION LAS PALMAS|2002-11-29|15:00|48.0|Sin alerta|No definido|Quema de desechos|0.0|0.0|0.0|0.0|0.0|0.0|0.0|0.01|0.0|0.0|0.01|-33.056666666666665|-71.565|WGS84
Valparaíso|Valparaíso|Viña del Mar|2002-2003|VILLA INDEPENDENCIA|2002-11-29|17:22|93.0|Sin alerta|No definido|Tránsito de personasvehículos o aeronaves|0.0|0.0|0.0|0.0|0.0|0.0|0.2|0.5|0.0|0.0|0.7|-33.0225|-71.4786111111111|WGS84
Valparaíso|Valparaíso|Valparaíso|2002-2003|EL PAJONAL|2002-11-30|09:45|243.0|Sin alerta|No definido|Tránsito de personasvehículos o aeronaves|0.0|0.0|0.0|0.7|0.0|0.0|0.0|0.0|0.0|0.0|0.7|-33.08277777777778|-71.60861111111112|WGS84
Valparaíso|San Antonio|Cartagena|2002-2003|VILLA MAR|2002-11-30|14:50|64.0|Sin alerta|No definido|Tránsito de personasvehículos o aeronaves|0.0|0.0|0.0|0.01|0.0|0.0|0.0|0.01|0.0|0.0|0.02|-33.52527777777778|-71.57888888888888|WGS84
Valparaíso|Marga Marga|Quilpué|2002-2003|COLINAS DE ORO|2002-12-01|15:04|119.0|Sin alerta|No definido|Actividades recreativas|0.0|0.0|0.0|0.1|0.0|0.0|0.1|0.15|0.0|0.0|0.35|-33.068333333333335|-71.43694444444445|WGS84
Valparaíso|Marga Marga|Villa Alemana|2002-2003|PALMILLA ALTA|2002-12-01|15:46|47.0|Sin alerta|No definido|Actividades recreativas|0.0|0.0|0.0|0.0|0.0|0.0|0.0|0.06|0.0|0.0|0.06|-33.05138888888889|-71.37222222222222|WGS84
Valparaíso|Marga Marga|Quilpué|2002-2003|QUILPUE|2002-12-02|14:45|54.0|Sin alerta|No definido|Quema de desechos|0.0|0.0|0.0|0.03|0.0|0.0|0.0|0.05|0.0|0.0|0.08|-33.041111111111114|-71.44694444444444|WGS84
Valparaíso|Marga Marga|Villa Alemana|2002-2003|LO MOSCOSO|2002-12-02|15:40|75.0|Sin alerta|No definido|Tránsito de personasvehículos o aeronaves|0.0|0.0|0.0|0.0|0.0|0.0|0.4|0.6|0.0|0.0|1.0|-33.076388888888886|-71.48|WGS84
Valparaíso|Valparaíso|Viña del Mar|2002-2003|EL OLIVAR|2002-12-02|15:56|32.0|Sin alerta|No definido|Quema de desechos|0.0|0.0|0.0|0.0|0.0|0.0|0.0|0.03|0.0|0.0|0.03|-33.03111111111111|-71.48944444444444|WGS84
Valparaíso|Marga Marga|Quilpué|2002-2003|FUNDO SAN JUAN|2002-12-02|16:43|117.0|Sin alerta|No definido|Actividades recreativas|0.0|0.0|0.0|0.1|0.0|0.0|0.1|0.0|0.0|0.0|0.2|-33.077777777777776|-71.41583333333334|WGS84
Valparaíso|Marga Marga|Villa Alemana|2002-2003|LAS AMERICAS|2002-12-03|22:22|74.0|Sin alerta|No definido|Tránsito de personasvehículos o aeronaves|0.0|0.0|0.0|0.02|0.0|0.0|0.08|0.1|0.0|0.0|0.2|-33.024166666666666|-71.39277777777778|WGS84
Valparaíso|Marga Marga|Villa Alemana|2002-2003|FUNDO EL MEMBRILLO|2002-12-04|13:13|87.0|Sin alerta|No definido|Tránsito de personasvehículos o aeronaves|0.0|0.0|0.0|0.0|0.0|0.0|0.08|0.12|0.0|0.0|0.2|-33.03388888888889|-71.35027777777778|WGS84
Valparaíso|Valparaíso|Viña del Mar|2002-2003|EXPRESOS VIÑA DEL MAR|2002-12-04|14:10|139.0|Sin alerta|No definido|Actividades recreativas|0.0|0.0|0.0|0.0|0.0|0.0|0.3|0.4|0.0|0.0|0.7|-32.995|-71.49916666666667|WGS84
Valparaíso|Marga Marga|Quilpué|2002-2003|VILLA OLIMPICA|2002-12-04|14:05|255.0|Sin alerta|No definido|Actividades recreativas|0.0|0.0|0.0|0.0|0.0|0.5|1.0|1.0|0.0|0.0|2.5|-33.06777777777778|-71.45833333333333|WGS84
Valparaíso|Marga Marga|Villa Alemana|2002-2003|FINAL LAS AMERICAS|2002-12-04|10:34|45.0|Sin alerta|No definido|Tránsito de personasvehículos o aeronaves|0.0|0.0|0.0|0.03|0.0|0.0|0.07|0.1|0.0|0.0|0.2|-33.024166666666666|-71.39277777777778|WGS84
Valparaíso|Valparaíso|Viña del Mar|2002-2003|LOS CORRALES|2002-12-05|10:54|171.0|Sin alerta|No definido|Tránsito de personasvehículos o aeronaves|0.2|0.0|0.0|0.0|0.0|0.0|0.3|0.7|0.0|0.0|1.2|-32.986111111111114|-71.48805555555556|WGS84
Valparaíso|San Antonio|San Antonio|2002-2003|CERRO LA VIRGEN|2002-12-05|13:55|61.0|Sin alerta|No definido|Tránsito de personasvehículos o aeronaves|0.0|0.0|0.0|0.0|0.0|0.0|0.0|0.4|0.0|0.0|0.4|-33.56944444444444|-71.62333333333333|WGS84
Valparaíso|San Antonio|Cartagena|2002-2003|CAPELLA NIA|2002-12-05|17:17|100.0|Sin alerta|No definido|Actividades recreativas|0.0|0.0|0.0|0.0|0.0|0.0|0.01|0.01|0.0|0.0|0.02|-33.54361111111111|-71.56861111111111|WGS84
Valparaíso|Valparaíso|Viña del Mar|2002-2003|EL OLIVAR|2002-12-05|18:40|49.0|Sin alerta|No definido|Tránsito de personasvehículos o aeronaves|0.0|0.0|0.0|0.0|0.0|0.0|0.01|0.02|0.0|0.0|0.03|-33.03111111111111|-71.5|WGS84
Valparaíso|Petorca|Papudo|2002-2003|AGUAS SALADAS|2002-12-06|13:03|52.0|Sin alerta|No definido|Tránsito de personasvehículos o aeronaves|0.0|0.0|0.0|0.0|0.0|0.0|0.0|0.01|0.0|0.0|0.01|-32.50944444444445|-71.42166666666667|WGS84
Valparaíso|Valparaíso|Viña del Mar|2002-2003|LOS CORRALES|2002-12-06|14:01|85.0|Sin alerta|No definido|Actividades recreativas|0.0|0.0|0.0|0.0|0.0|0.0|0.15|0.15|0.0|0.0|0.3|-32.986111111111114|-71.48805555555556|WGS84
Valparaíso|Valparaíso|Quintero|2002-2003|LAS GAVIOTAS|2002-12-06|16:20|107.0|Sin alerta|No definido|Tránsito de personasvehículos o aeronaves|0.0|0.0|0.0|1.0|0.0|0.0|0.0|1.5|0.0|0.0|2.5|-32.89666666666667|-71.45361111111112|WGS84
Valparaíso|Valparaíso|Valparaíso|2002-2003|PAJONAL|2002-12-06|17:03|237.0|Sin alerta|No definido|Tránsito de personasvehículos o aeronaves|0.0|0.0|0.0|1.0|0.0|0.0|0.0|0.0|0.0|0.0|1.0|-33.05638888888889|-71.58638888888889|WGS84
Valparaíso|San Antonio|San Antonio|2002-2003|FUNDO MIRAMAR 1|2002-12-06|18:20|78.0|Sin alerta|No definido|Incendios intencionales|0.0|0.0|0.0|0.01|0.0|0.0|0.0|0.03|0.0|0.0|0.04|-33.58833333333333|-71.58083333333333|WGS84
Valparaíso|San Antonio|San Antonio|2002-2003|MIRAMAR 2|2002-12-06|18:45|84.0|Sin alerta|No definido|Incendios intencionales|0.0|0.0|0.0|0.0|0.0|0.0|0.01|0.01|0.0|0.0|0.02|-33.60638888888889|-71.5813888888889|WGS84
Valparaíso|Petorca|La Ligua|2002-2003|EL PEUMO|2002-12-07|09:10|50.0|Sin alerta|No definido|Tránsito de personasvehículos o aeronaves|0.0|0.0|0.0|0.0|0.0|0.0|0.0|0.01|0.0|0.0|0.01|-32.435|-71.2286111111111|WGS84
Valparaíso|Marga Marga|Villa Alemana|2002-2003|SARGENTO ALDEA|2002-12-07|13:07|71.0|Sin alerta|No definido|Tránsito de personasvehículos o aeronaves|0.0|0.0|0.0|0.0|0.0|0.0|0.05|0.25|0.0|0.0|0.3|-33.0425|-71.37194444444444|WGS84
Valparaíso|San Antonio|San Antonio|2002-2003|FUNDO MIRAMAR|2002-12-07|13:19|91.0|Sin alerta|No definido|Incendios intencionales|0.0|0.0|0.01|0.0|0.0|0.0|0.0|0.01|0.0|0.0|0.02|-33.57888888888889|-71.60194444444444|WGS84
Valparaíso|Valparaíso|Valparaíso|2002-2003|PAJONAL|2002-12-07|15:57|169.0|Sin alerta|No definido|Tránsito de personasvehículos o aeronaves|0.0|0.0|0.0|1.0|0.0|0.0|0.0|0.0|0.0|0.0|1.0|-33.07388888888889|-71.60833333333333|WGS84
Valparaíso|Marga Marga|Villa Alemana|2002-2003|POB. JHON KENNEDY|2002-12-07|23:14|22.0|Sin alerta|No definido|Actividades recreativas|0.0|0.0|0.0|0.0|0.0|0.0|0.0|0.2|0.0|0.0|0.2|-33.05138888888889|-71.38305555555556|WGS84
Valparaíso|Marga Marga|Villa Alemana|2002-2003|POBLACION WILSON|2002-12-07|00:39|31.0|Sin alerta|No definido|Actividades recreativas|0.0|0.0|0.0|0.0|0.0|0.0|0.0|0.01|0.0|0.0|0.01|-33.04277777777778|-71.36138888888888|WGS84
Valparaíso|Valparaíso|Casablanca|2002-2003|LO VASQUEZ|2002-12-08|13:57|15.0|Sin alerta|No definido|Actividades recreativas|0.0|0.0|0.0|0.0|0.0|0.0|0.0|0.02|0.0|0.0|0.02|-33.24888888888889|-71.43111111111111|WGS84
Valparaíso|Valparaíso|Casablanca|2002-2003|LO VASQUEZ 2|2002-12-08|14:23|17.0|Sin alerta|No definido|Actividades recreativas|0.0|0.0|0.0|0.0|0.0|0.0|0.0|0.01|0.0|0.0|0.01|-33.24888888888889|-71.43111111111111|WGS84
Valparaíso|San Antonio|Cartagena|2002-2003|SANTA ELIDA|2002-12-09|14:11|65.0|Sin alerta|No definido|Tránsito de personasvehículos o aeronaves|0.0|0.0|0.0|0.0|0.0|0.0|0.2|0.8|0.0|0.0|1.0|-33.534166666666664|-71.59|WGS84
Valparaíso|Marga Marga|Villa Alemana|2002-2003|NORTE DE VILLA ALEMANA|2002-12-09|17:09|75.0|Sin alerta|No definido|Tránsito de personasvehículos o aeronaves|0.0|0.0|0.0|0.0|0.0|0.0|0.01|0.04|0.0|0.0|0.05|-33.01833333333333|-71.3825|WGS84
Valparaíso|Valparaíso|Viña del Mar|2002-2003|SAUSALITO|2002-12-09|18:03|58.0|Sin alerta|No definido|Tránsito de personasvehículos o aeronaves|0.0|0.0|0.0|0.0|0.0|0.0|0.05|0.1|0.0|0.0|0.15|-33.021388888888886|-71.53194444444445|WGS84
Valparaíso|Valparaíso|Valparaíso|2002-2003|LA VENTOLERA|2002-12-10|14:32|109.0|Sin alerta|No definido|Tránsito de personasvehículos o aeronaves|0.0|0.0|0.0|0.0|0.0|0.0|0.0|0.03|0.0|0.0|0.03|-33.09222222222222|-71.59833333333333|WGS84
Valparaíso|Valparaíso|Valparaíso|2002-2003|PARQUE INDUSTRIAL CURAUMA|2002-12-10|15:28|108.0|Sin alerta|No definido|Tránsito de personasvehículos o aeronaves|0.01|0.0|0.0|0.0|0.0|0.0|0.0|0.01|0.0|0.0|0.02|-33.13805555555555|-71.55666666666667|WGS84
Valparaíso|Marga Marga|Villa Alemana|2002-2003|PROGRESO AL FINAL|2002-12-10|16:31|87.0|Sin alerta|No definido|Tránsito de personasvehículos o aeronaves|0.0|0.0|0.0|0.0|0.0|0.0|0.0|2.5|0.0|0.0|2.5|-33.033611111111114|-71.37166666666667|WGS84
Valparaíso|San Antonio|San Antonio|2002-2003|CERRO LA VIRGEN|2002-12-11|12:20|103.0|Sin alerta|No definido|Incendios de causa desconocida|0.0|0.0|0.0|0.0|0.0|0.0|0.0|3.0|0.0|0.0|3.0|-33.569722222222225|-71.6125|WGS84
Valparaíso|San Antonio|San Antonio|2002-2003|QUEBRADA HOLANDA|2002-12-11|12:50|35.0|Sin alerta|No definido|Actividades recreativas|0.0|0.0|0.0|0.0|0.0|0.0|0.0|0.09|0.0|0.0|0.09|-33.56138888888889|-71.58|WGS84
Valparaíso|Marga Marga|Quilpué|2002-2003|EL REBAÑO|2002-12-11|13:40|79.0|Sin alerta|No definido|Tránsito de personasvehículos o aeronaves|0.0|0.0|0.0|0.0|0.0|0.0|0.3|0.4|0.0|0.0|0.7|-33.03138888888889|-71.4786111111111|WGS84
Valparaíso|Marga Marga|Villa Alemana|2002-2003|EL MIRADOR|2002-12-11|13:44|82.0|Sin alerta|No definido|Tránsito de personasvehículos o aeronaves|0.0|0.0|0.0|0.1|0.0|0.0|0.1|0.2|0.0|0.0|0.4|-33.06111111111111|-71.34027777777777|WGS84
Valparaíso|Marga Marga|Villa Alemana|2002-2003|EL MIRADOR 2|2002-12-11|13:50|87.0|Sin alerta|No definido|Actividades recreativas|0.0|0.0|0.0|0.0|0.0|0.0|0.03|0.07|0.0|0.0|0.1|-33.01833333333333|-71.3825|WGS84
Valparaíso|Marga Marga|Villa Alemana|2002-2003|POB. PRAT|2002-12-11|15:18|26.0|Sin alerta|No definido|Actividades recreativas|0.0|0.0|0.0|0.0|0.0|0.0|0.0|0.01|0.0|0.0|0.01|-33.069722222222225|-71.36194444444445|WGS84
Valparaíso|Valparaíso|Valparaíso|2002-2003|CURAUMILLA|2002-12-11|14:52|245.0|Sin alerta|No definido|Tránsito de personasvehículos o aeronaves|0.4|0.0|0.0|0.0|0.0|0.0|0.0|0.0|0.0|0.0|0.4|-33.12638888888889|-71.685|WGS84
Valparaíso|San Antonio|Santo Domingo|2002-2003|HUERTOS DE CHILE|2002-12-11|15:18|22.0|Sin alerta|No definido|Tránsito de personasvehículos o aeronaves|0.0|0.0|0.0|0.0|0.0|0.0|0.0|0.01|0.0|0.0|0.01|-33.65083333333333|-71.60416666666667|WGS84
Valparaíso|Marga Marga|Villa Alemana|2002-2003|VALLE EL DORADO|2002-12-11|16:16|1321.0|Sin alerta|No definido|Tránsito de personasvehículos o aeronaves|0.0|0.0|0.0|7.0|0.0|3.0|10.0|25.0|0.0|0.0|45.0|-33.033611111111114|-71.37166666666667|WGS84
Valparaíso|San Antonio|Santo Domingo|2002-2003|FUNDO SAN JORGE|2002-12-11|14:55|118.0|Sin alerta|No definido|Incendios de causa desconocida|0.0|0.0|0.0|0.0|0.0|0.0|0.2|0.8|0.0|0.0|1.0|-33.8575|-71.64277777777778|WGS84
Valparaíso|Valparaíso|Valparaíso|2002-2003|LAS CENIZAS|2002-12-11|18:02|178.0|Sin alerta|No definido|Tránsito de personasvehículos o aeronaves|0.0|0.0|0.0|0.7|0.0|0.0|0.0|0.3|0.0|0.0|1.0|-33.093333333333334|-71.53416666666666|WGS84
Valparaíso|Petorca|La Ligua|2002-2003|VILLA FUTURO|2002-12-11|16:43|42.0|Sin alerta|No definido|Tránsito de personasvehículos o aeronaves|0.0|0.0|0.0|0.0|0.0|0.0|0.03|0.07|0.0|0.0|0.1|-32.435|-71.2286111111111|WGS84
Valparaíso|San Antonio|El Tabo|2002-2003|EL MEMBRILLO|2002-12-12|12:10|138.0|Sin alerta|No definido|Incendios intencionales|0.0|0.0|0.0|0.0|0.0|0.0|0.1|1.0|0.0|0.9|2.0|-33.47083333333333|-71.5988888888889|WGS84
Valparaíso|Marga Marga|Quilpué|2002-2003|BELLOTO|2002-12-12|14:05|111.0|Sin alerta|No definido|Actividades recreativas|0.0|0.0|0.0|0.0|0.0|0.0|0.04|0.06|0.0|0.0|0.1|-33.04194444444445|-71.40416666666667|WGS84
Valparaíso|Marga Marga|Villa Alemana|2002-2003|FUNDO EL MEMBRILLO|2002-12-12|14:35|58.0|Sin alerta|No definido|Tránsito de personasvehículos o aeronaves|0.0|0.0|0.0|0.0|0.0|0.0|0.1|0.2|0.0|0.0|0.3|-33.04277777777778|-71.35055555555556|WGS84
Valparaíso|Quillota|La Cruz|2002-2003|POCOCHAY|2002-12-12|15:10|101.0|Sin alerta|No definido|Quema de desechos|0.0|0.0|0.0|0.0|0.0|0.05|0.05|0.1|0.0|0.0|0.2|-32.82888888888889|-71.21666666666667|WGS84
Valparaíso|Valparaíso|Valparaíso|2002-2003|LA LAGUNA|2002-12-12|16:57|53.0|Sin alerta|No definido|Tránsito de personasvehículos o aeronaves|0.0|0.0|0.0|0.0|0.0|0.0|0.08|0.03|0.0|0.0|0.11|-33.056666666666665|-71.565|WGS84
Valparaíso|Valparaíso|Valparaíso|2002-2003|PAJONAL|2002-12-12|17:15|138.0|Sin alerta|No definido|Tránsito de personasvehículos o aeronaves|0.0|0.0|0.0|0.2|0.0|0.0|0.0|0.0|0.0|0.0|0.2|-33.07416666666666|-71.59777777777778|WGS84
Valparaíso|Marga Marga|Limache|2002-2003|FUNDO CANEPA|2002-12-12|18:14|148.0|Sin alerta|No definido|Tránsito de personasvehículos o aeronaves|0.0|0.0|0.0|0.0|0.0|1.0|1.0|3.0|0.0|0.0|5.0|-33.03388888888889|-71.35027777777778|WGS84
Valparaíso|Marga Marga|Quilpué|2002-2003|FUNDO RECREO|2002-12-12|18:39|69.0|Sin alerta|No definido|Tránsito de personasvehículos o aeronaves|0.0|0.0|0.0|0.0|0.0|0.0|0.2|0.3|0.0|0.0|0.5|-33.07833333333333|-71.38361111111111|WGS84
Valparaíso|San Antonio|San Antonio|2002-2003|PELANCURA|2002-12-12|19:05|61.0|Sin alerta|No definido|Incendios intencionales|0.0|0.0|0.0|0.2|0.0|0.0|0.0|0.6|0.0|0.0|0.8|-33.56027777777778|-71.62305555555555|WGS84
Valparaíso|San Antonio|San Antonio|2002-2003|POBLACION BELLAVISTA|2002-12-12|19:55|17.0|Sin alerta|No definido|Actividades recreativas|0.0|0.0|0.0|0.0|0.0|0.0|0.0|0.01|0.0|0.0|0.01|-33.560833333333335|-71.60138888888889|WGS84
Valparaíso|Marga Marga|Limache|2002-2003|FORESTAL ACE|2002-12-13|10:53|264.0|Sin alerta|No definido|Tránsito de personasvehículos o aeronaves|0.0|0.0|0.0|0.3|0.0|1.5|0.7|1.0|0.0|0.0|3.5|-33.02444444444444|-71.37138888888889|WGS84
Valparaíso|Marga Marga|Villa Alemana|2002-2003|RUMIE|2002-12-13|14:52|50.0|Sin alerta|No definido|Actividades recreativas|0.0|0.0|0.0|0.0|0.0|0.0|0.01|0.03|0.0|0.0|0.04|-33.04222222222222|-71.39333333333333|WGS84
Valparaíso|Valparaíso|Valparaíso|2002-2003|CUESTA COLORADA|2002-12-13|15:05|63.0|Sin alerta|No definido|Actividades recreativas|0.0|0.0|0.0|0.01|0.0|0.0|0.0|0.01|0.0|0.0|0.02|-33.056111111111115|-71.59722222222223|WGS84
Valparaíso|Marga Marga|Quilpué|2002-2003|HIPERMERCADO EXTRA|2002-12-13|15:51|67.0|Sin alerta|No definido|Tránsito de personasvehículos o aeronaves|0.0|0.0|0.0|0.0|0.02|0.0|0.0|0.04|0.0|0.0|0.06|-33.050555555555555|-71.42583333333333|WGS84
Valparaíso|Valparaíso|Valparaíso|2002-2003|POBLACION BASICA|2002-12-13|17:30|61.0|Sin alerta|No definido|Actividades recreativas|0.0|0.0|0.0|0.07|0.0|0.0|0.0|0.03|0.0|0.0|0.1|-33.056666666666665|-71.565|WGS84
Valparaíso|Marga Marga|Villa Alemana|2002-2003|PARADERO 12|2002-12-13|19:07|68.0|Sin alerta|No definido|Tránsito de personasvehículos o aeronaves|0.0|0.0|0.0|0.0|0.0|0.0|0.0|0.03|0.0|0.0|0.03|-33.04194444444445|-71.40416666666667|WGS84
Valparaíso|Valparaíso|Viña del Mar|2002-2003|VILLA HERMOSA|2002-12-13|22:21|44.0|Sin alerta|No definido|Actividades recreativas|0.0|0.0|0.0|0.0|0.0|0.0|0.01|0.01|0.0|0.0|0.02|-33.03138888888889|-71.4786111111111|WGS84
Valparaíso|San Antonio|San Antonio|2002-2003|CERRO LAVIRGEN|2002-12-13|22:25|35.0|Sin alerta|No definido|Incendios intencionales|0.0|0.0|0.0|0.0|0.0|0.0|0.0|0.03|0.0|0.0|0.03|-33.569722222222225|-71.6125|WGS84
Valparaíso|Marga Marga|Quilpué|2002-2003|POBLACION ARGENTINA|2002-12-14|13:15|141.0|Sin alerta|No definido|Actividades recreativas|0.0|0.0|0.0|0.0|0.0|0.0|0.3|0.2|0.0|0.0|0.5|-33.05833333333333|-71.47944444444444|WGS84
Valparaíso|Valparaíso|Valparaíso|2002-2003|RODELILLO|2002-12-14|14:45|107.0|Sin alerta|No definido|Quema de desechos|0.0|0.0|0.0|0.0|0.0|0.0|0.1|0.1|0.0|0.0|0.2|-33.056666666666665|-71.565|WGS84
Valparaíso|Marga Marga|Limache|2002-2003|HUALCAPO|2002-12-14|16:28|142.0|Sin alerta|No definido|Actividades recreativas|0.0|0.0|0.0|1.0|0.0|0.0|0.0|0.0|0.0|0.0|1.0|-32.89416666666666|-71.10083333333333|WGS84
Valparaíso|Valparaíso|Valparaíso|2002-2003|PORVENIR ALTO|2002-12-14|16:52|79.0|Sin alerta|No definido|Quema de desechos|0.0|0.0|0.0|0.0|0.0|0.0|0.05|0.05|0.0|0.0|0.1|-33.036944444444444|-71.65027777777777|WGS84
Valparaíso|Marga Marga|Limache|2002-2003|PARCELA EL CONDOR|2002-12-15|14:50|125.0|Sin alerta|No definido|Tránsito de personasvehículos o aeronaves|0.0|0.0|0.0|0.0|0.0|0.0|0.1|0.3|0.0|0.0|0.4|-33.035555555555554|-71.25416666666666|WGS84
Valparaíso|Marga Marga|Villa Alemana|2002-2003|SAN ENRIQUE|2002-12-15|15:07|83.0|Sin alerta|No definido|Actividades recreativas|0.0|0.0|0.0|0.0|0.0|0.0|0.03|0.07|0.0|0.0|0.1|-33.06055555555555|-71.3725|WGS84
Valparaíso|Valparaíso|Quintero|2002-2003|LAS GAVIOTAS|2002-12-15|15:09|118.0|Sin alerta|No definido|Quema de desechos|0.0|0.0|0.0|0.0|0.0|0.0|0.3|0.7|0.0|0.0|1.0|-32.89666666666667|-71.45361111111112|WGS84
Valparaíso|Marga Marga|Limache|2002-2003|FUNDO SANTA  ENRIQUETA|2002-12-15|17:03|203.0|Sin alerta|No definido|Tránsito de personasvehículos o aeronaves|0.0|0.0|0.0|0.0|0.0|0.0|1.0|2.0|0.0|0.0|3.0|-33.044444444444444|-71.265|WGS84
Valparaíso|Valparaíso|Valparaíso|2002-2003|LA PLANTACION|2002-12-15|19:27|76.0|Sin alerta|No definido|Tránsito de personasvehículos o aeronaves|0.0|0.0|0.0|0.01|0.0|0.0|0.0|0.0|0.0|0.0|0.01|-33.068333333333335|-71.58722222222222|WGS84
Valparaíso|Petorca|Zapallar|2002-2003|FDO LA FORESTA|2002-12-15|19:50|77.0|Sin alerta|No definido|Tránsito de personasvehículos o aeronaves|0.0|0.0|0.0|0.0|0.0|0.0|1.0|2.0|0.0|0.0|3.0|-32.53055555555556|-71.2625|WGS84
Valparaíso|Valparaíso|Valparaíso|2002-2003|EL MANZANO|2002-12-15|21:30|117.0|Sin alerta|No definido|Tránsito de personasvehículos o aeronaves|0.0|0.0|0.0|0.55|0.0|0.0|0.0|0.0|0.0|0.0|0.55|-33.09222222222222|-71.5875|WGS84
Valparaíso|Valparaíso|Valparaíso|2002-2003|LA PLANTACION|2002-12-15|22:36|47.0|Sin alerta|No definido|Quema de desechos|0.0|0.0|0.0|0.4|0.0|0.0|0.0|0.0|0.0|0.0|0.4|-33.068333333333335|-71.58722222222222|WGS84
Valparaíso|Valparaíso|Viña del Mar|2002-2003|VILLA DULCE|2002-12-16|15:18|102.0|Sin alerta|No definido|Quema de desechos|0.0|0.0|0.0|0.0|0.0|0.0|0.3|0.4|0.0|0.0|0.7|-33.02194444444444|-71.485|WGS84
Valparaíso|Marga Marga|Villa Alemana|2002-2003|POBLACION DINAMARCA|2002-12-16|15:41|23.0|Sin alerta|No definido|Tránsito de personasvehículos o aeronaves|0.0|0.0|0.0|0.0|0.0|0.0|0.0|0.01|0.0|0.0|0.01|-33.06944444444444|-71.38333333333334|WGS84
Valparaíso|Marga Marga|Villa Alemana|2002-2003|VIÑA DEL BOSQUE|2002-12-16|16:49|41.0|Sin alerta|No definido|Quema de desechos|0.0|0.0|0.0|0.0|0.0|0.0|0.0|0.01|0.0|0.0|0.01|-33.03305555555556|-71.39305555555555|WGS84
Valparaíso|Valparaíso|Valparaíso|2002-2003|EL PAJONAL|2002-12-16|17:18|80.0|Sin alerta|No definido|Actividades recreativas|0.0|0.0|0.0|0.3|0.0|0.0|0.0|0.1|0.0|0.0|0.4|-33.065|-71.5975|WGS84
Valparaíso|Marga Marga|Quilpué|2002-2003|EL RETIRO|2002-12-16|18:07|42.0|Sin alerta|No definido|Actividades recreativas|0.0|0.0|0.0|0.01|0.0|0.0|0.0|0.01|0.0|0.0|0.02|-33.032222222222224|-71.43583333333333|WGS84
Valparaíso|Marga Marga|Quilpué|2002-2003|POBLACION ARGENTINA|2002-12-16|19:08|31.0|Sin alerta|No definido|Actividades recreativas|0.0|0.0|0.0|0.0|0.0|0.0|0.0|0.03|0.0|0.0|0.03|-33.04972222222222|-71.46861111111112|WGS84
Valparaíso|Valparaíso|Viña del Mar|2002-2003|RHONA|2002-12-16|19:10|33.0|Sin alerta|No definido|Actividades recreativas|0.0|0.0|0.0|0.0|0.0|0.0|0.0|0.02|0.0|0.0|0.02|-33.05694444444445|-71.55444444444444|WGS84
Valparaíso|Marga Marga|Quilpué|2002-2003|BELLOTO NORTE|2002-12-17|09:20|143.0|Sin alerta|No definido|Tránsito de personasvehículos o aeronaves|0.0|0.0|0.0|0.0|0.0|0.0|0.3|0.4|0.0|0.0|0.7|-33.0325|-71.42527777777778|WGS84
Valparaíso|San Antonio|El Quisco|2002-2003|LOS LOBOS|2002-12-17|12:55|48.0|Sin alerta|No definido|Incendios intencionales|0.0|0.0|0.0|0.01|0.0|0.0|0.0|0.02|0.0|0.0|0.03|-33.38777777777778|-71.68222222222222|WGS84
Valparaíso|Valparaíso|Valparaíso|2002-2003|LAS CENIZAS|2002-12-17|14:49|72.0|Sin alerta|No definido|Tránsito de personasvehículos o aeronaves|0.0|0.0|0.0|0.03|0.0|0.0|0.0|0.0|0.0|0.0|0.03|-33.111111111111114|-71.55583333333334|WGS84
Valparaíso|Valparaíso|Viña del Mar|2002-2003|VIÑA DEL MAR ALTO|2002-12-17|15:23|55.0|Sin alerta|No definido|Tránsito de personasvehículos o aeronaves|0.0|0.0|0.0|0.0|0.0|0.0|0.02|0.04|0.0|0.0|0.06|-33.03888888888889|-71.55388888888889|WGS84
Valparaíso|Marga Marga|Quilpué|2002-2003|VALENCIA|2002-12-17|15:53|28.0|Sin alerta|No definido|Actividades recreativas|0.0|0.0|0.0|0.0|0.0|0.0|0.0|0.02|0.0|0.0|0.02|-33.04944444444445|-71.47916666666667|WGS84
Valparaíso|San Antonio|Cartagena|2002-2003|PARCELAS CAPELLANIA|2002-12-17|16:00|41.0|Sin alerta|No definido|Tránsito de personasvehículos o aeronaves|0.0|0.0|0.0|0.0|0.0|0.0|0.0|0.01|0.0|0.0|0.01|-33.55222222222222|-71.57972222222222|WGS84
Valparaíso|Quillota|Quillota|2002-2003|LOS PARRONES|2002-12-17|16:26|100.0|Sin alerta|No definido|Tránsito de personasvehículos o aeronaves|0.0|0.0|0.0|0.0|0.0|0.0|0.1|0.1|0.0|0.0|0.2|-32.86472222222222|-71.2388888888889|WGS84
Valparaíso|Marga Marga|Quilpué|2002-2003|TENIENTE SERRANO|2002-12-17|17:01|63.0|Sin alerta|No definido|Actividades recreativas|0.0|0.0|0.0|0.01|0.0|0.0|0.03|0.06|0.0|0.0|0.1|-33.06861111111111|-71.41555555555556|WGS84
Valparaíso|Petorca|La Ligua|2002-2003|VILLA FUTURO|2002-12-17|15:20|95.0|Sin alerta|No definido|Tránsito de personasvehículos o aeronaves|0.0|0.0|0.0|0.0|0.0|0.0|0.0|0.3|0.0|0.0|0.3|-32.449444444444445|-71.26055555555556|WGS84
Valparaíso|Petorca|La Ligua|2002-2003|VILLA FERTIL|2002-12-17|15:55|65.0|Sin alerta|No definido|Tránsito de personasvehículos o aeronaves|0.0|0.0|0.0|0.0|0.0|0.0|0.05|0.15|0.0|0.0|0.2|-32.458333333333336|-71.26083333333334|WGS84
Valparaíso|Petorca|La Ligua|2002-2003|LA HIGUERA|2002-12-17|14:00|1240.0|Sin alerta|No definido|Incendios de causa desconocida|0.0|0.0|0.0|0.0|0.0|0.0|0.8|1.2|0.0|0.0|2.0|-32.449444444444445|-71.26055555555556|WGS84
Valparaíso|Valparaíso|Concón|2002-2003|LAS GAVIOTAS|2002-12-17|16:54|115.0|Sin alerta|No definido|Actividades recreativas|0.1|0.0|0.0|0.0|0.0|0.0|0.0|0.0|0.0|0.0|0.1|-32.940555555555555|-71.5188888888889|WGS84
Valparaíso|Valparaíso|Valparaíso|2002-2003|FUNDO LAS CENIZAS|2002-12-17|17:32|144.0|Sin alerta|No definido|Tránsito de personasvehículos o aeronaves|0.4|0.0|0.0|0.6|0.0|0.0|0.2|0.3|0.0|0.0|1.5|-33.093333333333334|-71.53416666666666|WGS84
Valparaíso|Valparaíso|Viña del Mar|2002-2003|LOMA DE SPORTING|2002-12-17|17:42|107.0|Sin alerta|No definido|Tránsito de personasvehículos o aeronaves|0.0|0.0|0.0|0.1|0.0|0.0|0.3|0.1|0.0|0.0|0.5|-33.021388888888886|-71.53194444444445|WGS84
Valparaíso|Valparaíso|Valparaíso|2002-2003|LA LAGUNA|2002-12-17|18:14|93.0|Sin alerta|No definido|Tránsito de personasvehículos o aeronaves|0.0|0.0|0.0|0.0|0.0|0.0|0.05|0.1|0.0|0.0|0.15|-33.065555555555555|-71.57611111111112|WGS84
Valparaíso|San Antonio|San Antonio|2002-2003|FUNDO LLO LLEO|2002-12-17|18:15|42.0|Sin alerta|No definido|Tránsito de personasvehículos o aeronaves|0.0|0.0|0.0|0.0|0.0|0.0|0.0|0.01|0.0|0.0|0.01|-33.61527777777778|-71.58166666666666|WGS84
Valparaíso|Valparaíso|Valparaíso|2002-2003|CUESTA COLORADA|2002-12-17|19:07|93.0|Sin alerta|No definido|Actividades recreativas|0.0|0.0|0.0|0.01|0.0|0.0|0.0|0.04|0.0|0.0|0.05|-33.07388888888889|-71.60833333333333|WGS84
Valparaíso|Marga Marga|Quilpué|2002-2003|BELLOTO SUR|2002-12-17|19:25|78.0|Sin alerta|No definido|Tránsito de personasvehículos o aeronaves|0.0|0.0|0.0|0.0|0.0|0.0|0.05|0.1|0.0|0.0|0.15|-33.06916666666667|-71.39416666666666|WGS84
Valparaíso|San Antonio|San Antonio|2002-2003|VISTA HERMOSA|2002-12-17|19:55|32.0|Sin alerta|No definido|Tránsito de personasvehículos o aeronaves|0.0|0.0|0.0|0.01|0.0|0.0|0.0|0.01|0.0|0.0|0.02|-33.569722222222225|-71.6125|WGS84
Valparaíso|Valparaíso|Viña del Mar|2002-2003|VILLA DULCE NORTE|2002-12-17|21:33|54.0|Sin alerta|No definido|Actividades recreativas|0.0|0.0|0.0|0.0|0.0|0.0|0.1|0.2|0.0|0.0|0.3|-33.03111111111111|-71.5|WGS84
Valparaíso|Marga Marga|Quilpué|2002-2003|VILLA HERMOSA LAS TORRES|2002-12-17|23:46|81.0|Sin alerta|No definido|Tránsito de personasvehículos o aeronaves|0.0|0.0|0.0|0.0|0.0|0.0|0.15|0.25|0.0|0.0|0.4|-33.0225|-71.4786111111111|WGS84
Valparaíso|San Antonio|San Antonio|2002-2003|VISTA HERMOSA|2002-12-18|10:48|45.0|Sin alerta|No definido|Tránsito de personasvehículos o aeronaves|0.0|0.0|0.0|0.02|0.0|0.0|0.0|0.13|0.0|0.0|0.15|-33.560833333333335|-71.60138888888889|WGS84
Valparaíso|Valparaíso|Valparaíso|2002-2003|EL VERGEL|2002-12-18|12:32|150.0|Sin alerta|No definido|Incendios intencionales|0.0|0.0|0.0|0.5|0.0|0.0|0.0|0.0|0.0|0.0|0.5|-33.07388888888889|-71.60833333333333|WGS84
Valparaíso|Marga Marga|Villa Alemana|2002-2003|ESTACION PEÑABLANCA|2002-12-18|14:06|33.0|Sin alerta|No definido|Actividades recreativas|0.0|0.0|0.0|0.0|0.0|0.0|0.0|0.03|0.0|0.0|0.03|-33.0425|-71.37194444444444|WGS84
Valparaíso|Marga Marga|Villa Alemana|2002-2003|CERRO LA VIRGEN|2002-12-18|14:51|108.0|Sin alerta|No definido|Tránsito de personasvehículos o aeronaves|0.0|0.0|0.0|0.0|0.0|0.0|0.4|0.6|0.0|0.0|1.0|-33.0425|-71.37194444444444|WGS84
Valparaíso|San Antonio|Cartagena|2002-2003|EL TURCO|2002-12-18|15:30|177.0|Sin alerta|No definido|Accidentes eléctricos|0.0|0.0|0.0|2.5|0.0|0.0|4.5|8.0|0.0|0.0|15.0|-33.55416666666667|-71.49361111111111|WGS84
Valparaíso|Valparaíso|Valparaíso|2002-2003|LA POLVORA|2002-12-18|16:55|115.0|Sin alerta|No definido|Tránsito de personasvehículos o aeronaves|0.0|0.0|0.0|0.0|0.0|0.0|0.04|0.06|0.0|0.0|0.1|-33.09222222222222|-71.5875|WGS84
Valparaíso|San Antonio|San Antonio|2002-2003|VISTA HERMOSA|2002-12-18|19:05|35.0|Sin alerta|No definido|Incendios de causa desconocida|0.0|0.0|0.0|0.01|0.0|0.0|0.0|0.02|0.0|0.0|0.03|-33.560833333333335|-71.60138888888889|WGS84
Valparaíso|San Antonio|San Antonio|2002-2003|VISTA HERMOSA 2|2002-12-18|19:25|17.0|Sin alerta|No definido|Incendios de causa desconocida|0.0|0.0|0.0|0.0|0.0|0.0|0.0|0.01|0.0|0.0|0.01|-33.560833333333335|-71.60138888888889|WGS84
Valparaíso|Valparaíso|Valparaíso|2002-2003|LAGUNA VERDE|2002-12-19|11:52|110.0|Sin alerta|No definido|Tránsito de personasvehículos o aeronaves|0.0|0.0|0.0|0.0|0.0|0.0|0.02|0.01|0.0|0.0|0.03|-33.117777777777775|-71.66333333333333|WGS84
Valparaíso|San Antonio|El Quisco|2002-2003|HUALLILLEMU|2002-12-19|12:40|105.0|Sin alerta|No definido|Incendios intencionales|0.1|0.0|0.0|0.0|0.0|0.0|0.2|0.7|0.0|0.0|1.0|-33.397222222222226|-71.67166666666667|WGS84
Valparaíso|Valparaíso|Valparaíso|2002-2003|NUEVO PLACILLA|2002-12-19|13:18|52.0|Sin alerta|No definido|Tránsito de personasvehículos o aeronaves|0.01|0.0|0.0|0.0|0.0|0.0|0.0|0.01|0.0|0.0|0.02|-33.12888888888889|-71.55638888888889|WGS84
Valparaíso|Quillota|La Cruz|2002-2003|LA PALMILLA|2002-12-19|12:08|232.0|Sin alerta|No definido|Tránsito de personasvehículos o aeronaves|0.0|0.0|0.0|4.0|0.0|10.0|16.0|60.0|0.0|0.0|90.0|-32.80222222222222|-71.20527777777778|WGS84
Valparaíso|San Antonio|San Antonio|2002-2003|QUEBRADA HUALLIPEN|2002-12-19|13:43|25.0|Sin alerta|No definido|Incendios de causa desconocida|0.0|0.0|0.0|0.0|0.0|0.0|0.0|0.01|0.0|0.0|0.01|-33.57888888888889|-71.60194444444444|WGS84
Valparaíso|Marga Marga|Quilpué|2002-2003|VILLA HERMOSA|2002-12-19|13:59|73.0|Sin alerta|No definido|Actividades recreativas|0.0|0.0|0.0|0.0|0.0|0.0|0.03|0.12|0.0|0.0|0.15|-33.040277777777774|-71.48972222222223|WGS84
Valparaíso|Valparaíso|Casablanca|2002-2003|FUNDO CHIVATO|2002-12-19|14:18|156.0|Sin alerta|No definido|Tránsito de personasvehículos o aeronaves|0.0|0.0|0.0|0.5|0.0|0.0|1.5|2.0|0.0|0.0|4.0|-33.385|-71.38111111111111|WGS84
Valparaíso|San Antonio|San Antonio|2002-2003|BRUCELAS|2002-12-19|14:18|30.0|Sin alerta|No definido|Incendios de causa desconocida|0.0|0.0|0.0|0.0|0.0|0.0|0.0|0.01|0.0|0.0|0.01|-33.57888888888889|-71.60194444444444|WGS84
Valparaíso|Marga Marga|Limache|2002-2003|MAITENES ALTO|2002-12-19|14:20|143.0|Sin alerta|No definido|Actividades recreativas|0.0|0.0|0.0|0.0|0.0|0.1|0.4|1.0|0.0|0.0|1.5|-32.98166666666667|-71.24194444444444|WGS84
Valparaíso|San Antonio|San Antonio|2002-2003|EL PEÑON|2002-12-19|14:50|50.0|Sin alerta|No definido|Actividades recreativas|0.0|0.0|0.0|0.0|0.0|0.0|0.0|0.02|0.0|0.0|0.02|-33.60583333333334|-71.60277777777777|WGS84
Valparaíso|Valparaíso|Viña del Mar|2002-2003|REÑACA ALTO|2002-12-19|15:10|53.0|Sin alerta|No definido|Quema de desechos|0.0|0.0|0.0|0.02|0.0|0.0|0.0|0.03|0.0|0.0|0.05|-32.995|-71.49916666666667|WGS84
Valparaíso|Valparaíso|Viña del Mar|2002-2003|VILLA DULCE NORTE|2002-12-19|16:07|41.0|Sin alerta|No definido|Quema de desechos|0.0|0.0|0.0|0.0|0.0|0.0|0.0|0.06|0.0|0.0|0.06|-33.030833333333334|-71.51083333333334|WGS84
Valparaíso|San Antonio|Santo Domingo|2002-2003|SANTA ROSA DE BUCALEMU|2002-12-19|15:55|1290.0|Sin alerta|No definido|Tránsito de personasvehículos o aeronaves|0.0|0.0|2.18|6.7|0.0|4.58|18.78|5.96|0.0|9.25|47.45|-33.865|-71.71861111111112|WGS84
Valparaíso|Valparaíso|Viña del Mar|2002-2003|MIRADOR DE REÑACA|2002-12-19|16:46|31.0|Sin alerta|No definido|Tránsito de personasvehículos o aeronaves|0.0|0.0|0.0|0.0|0.0|0.0|0.0|0.04|0.0|0.0|0.04|-33.00388888888889|-71.49944444444445|WGS84
Valparaíso|Valparaíso|Viña del Mar|2002-2003|ACHUPALLAS|2002-12-19|16:51|51.0|Sin alerta|No definido|Actividades recreativas|0.0|0.0|0.0|0.0|0.0|0.0|0.0|0.02|0.0|0.0|0.02|-33.00388888888889|-71.49944444444445|WGS84
Valparaíso|Valparaíso|Valparaíso|2002-2003|EL VERGEL|2002-12-19|17:02|103.0|Sin alerta|No definido|Tránsito de personasvehículos o aeronaves|0.0|0.0|0.0|0.2|0.0|0.0|0.0|0.1|0.0|0.0|0.3|-33.06472222222222|-71.60805555555555|WGS84
Valparaíso|Valparaíso|Concón|2002-2003|VILLA PRIMAVERA|2002-12-19|17:39|64.0|Sin alerta|No definido|Tránsito de personasvehículos o aeronaves|0.02|0.0|0.0|0.0|0.0|0.0|0.0|0.0|0.0|0.0|0.02|-32.940555555555555|-71.5188888888889|WGS84
Valparaíso|San Antonio|San Antonio|2002-2003|POBLACION EL CARMEN|2002-12-19|17:45|55.0|Sin alerta|No definido|Incendios intencionales|0.0|0.0|0.0|0.0|0.0|0.0|0.0|0.5|0.0|0.0|0.5|-33.560833333333335|-71.60138888888889|WGS84
Valparaíso|Valparaíso|Valparaíso|2002-2003|CERRO ALEGRE|2002-12-19|19:18|101.0|Sin alerta|No definido|Actividades recreativas|0.0|0.0|0.0|0.0|0.0|0.0|0.2|0.8|0.0|0.0|1.0|-33.04611111111111|-71.63972222222222|WGS84
Valparaíso|Valparaíso|Viña del Mar|2002-2003|LOS CORRALES|2002-12-19|23:33|81.0|Sin alerta|No definido|Actividades recreativas|0.05|0.0|0.0|0.0|0.0|0.0|0.15|0.3|0.0|0.0|0.5|-32.99527777777778|-71.47777777777777|WGS84
Valparaíso|Valparaíso|Viña del Mar|2002-2003|REÑACA ALTO|2002-12-20|13:18|72.0|Sin alerta|No definido|Tránsito de personasvehículos o aeronaves|0.0|0.0|0.0|0.0|0.0|0.0|0.01|0.01|0.0|0.0|0.02|-32.98583333333333|-71.49888888888889|WGS84
Valparaíso|Valparaíso|Viña del Mar|2002-2003|REÑAVCA ALTO 2|2002-12-20|12:03|35.0|Sin alerta|No definido|Actividades recreativas|0.0|0.0|0.0|0.2|0.0|0.0|0.0|0.2|0.0|0.0|0.4|-32.99527777777778|-71.48833333333333|WGS84
Valparaíso|Valparaíso|Valparaíso|2002-2003|LAGUNA VERDE|2002-12-20|14:37|153.0|Sin alerta|No definido|Tránsito de personasvehículos o aeronaves|0.0|0.0|0.0|0.0|0.0|0.0|0.03|0.07|0.0|0.0|0.1|-33.099444444444444|-71.67333333333333|WGS84
Valparaíso|Valparaíso|Valparaíso|2002-2003|LAGUNA VERDE 2|2002-12-20|14:45|150.0|Sin alerta|No definido|Tránsito de personasvehículos o aeronaves|0.0|0.0|0.0|0.0|0.0|0.0|0.3|0.7|0.0|0.0|1.0|-33.10861111111111|-71.67361111111111|WGS84
Valparaíso|Marga Marga|Quilpué|2002-2003|FRUTILLAR|2002-12-20|14:55|48.0|Sin alerta|No definido|Actividades recreativas|0.0|0.0|0.0|0.0|0.0|0.0|0.02|0.04|0.0|0.0|0.06|-33.03194444444444|-71.45722222222223|WGS84
Valparaíso|Valparaíso|Viña del Mar|2002-2003|MIRAFLORES|2002-12-20|15:10|61.0|Sin alerta|No definido|Quema de desechos|0.0|0.0|0.0|0.0|0.0|0.0|0.0|0.02|0.0|0.0|0.02|-33.02166666666667|-71.5213888888889|WGS84
Valparaíso|Valparaíso|Viña del Mar|2002-2003|REÑACA ALTO 3|2002-12-20|15:31|89.0|Sin alerta|No definido|Tránsito de personasvehículos o aeronaves|0.0|0.0|0.0|0.01|0.0|0.02|0.06|0.0|0.0|0.0|0.09|-32.995|-71.49916666666667|WGS84
Valparaíso|Valparaíso|Viña del Mar|2002-2003|EL OLIVAR|2002-12-20|17:40|23.0|Sin alerta|No definido|Actividades recreativas|0.0|0.0|0.0|0.0|0.0|0.0|0.0|0.02|0.0|0.0|0.02|-33.04|-71.50027777777778|WGS84
Valparaíso|Valparaíso|Viña del Mar|2002-2003|EXPRESOS VIÑA DEL MAR|2002-12-20|17:59|113.0|Sin alerta|No definido|Tránsito de personasvehículos o aeronaves|0.0|0.0|0.0|0.05|0.0|0.0|0.15|0.8|0.0|0.0|1.0|-32.995|-71.49916666666667|WGS84
Valparaíso|Valparaíso|Valparaíso|2002-2003|EL VERGEL|2002-12-20|17:40|228.0|Sin alerta|No definido|Actividades recreativas|0.0|0.0|0.0|1.2|0.0|0.0|0.2|0.1|0.0|0.0|1.5|-33.06472222222222|-71.60805555555555|WGS84
Valparaíso|San Antonio|San Antonio|2002-2003|FUNDO MIRAMAR|2002-12-20|18:45|101.0|Sin alerta|No definido|Incendios intencionales|0.0|0.0|0.0|0.2|0.0|0.0|0.0|0.3|0.0|0.0|0.5|-33.57944444444445|-71.56972222222223|WGS84
Valparaíso|Valparaíso|Concón|2002-2003|VILLA PRIMAVERA|2002-12-20|19:18|80.0|Sin alerta|No definido|Actividades recreativas|0.1|0.0|0.0|0.0|0.0|0.0|0.0|0.0|0.0|0.0|0.1|-32.9225|-71.50777777777778|WGS84
Valparaíso|San Antonio|San Antonio|2002-2003|CAMINO VIEJO A CARTAGENA|2002-12-20|19:20|30.0|Sin alerta|No definido|Incendios intencionales|0.0|0.0|0.0|0.0|0.0|0.0|0.0|0.02|0.0|0.0|0.02|-33.56111111111111|-71.59055555555555|WGS84
Valparaíso|Valparaíso|Viña del Mar|2002-2003|LAJARILLA|2002-12-20|20:07|75.0|Sin alerta|No definido|Actividades recreativas|0.0|0.0|0.0|0.0|0.0|0.0|0.3|0.5|0.0|0.0|0.8|-32.95944444444444|-71.47666666666667|WGS84
Valparaíso|Valparaíso|Viña del Mar|2002-2003|LOS CORRALES|2002-12-21|00:40|107.0|Sin alerta|No definido|Tránsito de personasvehículos o aeronaves|0.0|0.0|0.0|0.0|0.0|0.0|0.4|0.6|0.0|0.0|1.0|-32.977222222222224|-71.48777777777778|WGS84
Valparaíso|Valparaíso|Valparaíso|2002-2003|CERRO JIMENEZ|2002-12-21|14:23|90.0|Sin alerta|No definido|Tránsito de personasvehículos o aeronaves|0.0|0.0|0.0|0.01|0.0|0.0|0.0|0.01|0.0|0.0|0.02|-33.06444444444445|-71.62944444444445|WGS84
Valparaíso|Valparaíso|Valparaíso|2002-2003|SEXTO SECTOR CORVI|2002-12-21|16:03|28.0|Sin alerta|No definido|Actividades recreativas|0.0|0.0|0.0|0.0|0.0|0.0|0.0|0.01|0.0|0.0|0.01|-33.055|-71.65083333333334|WGS84
Valparaíso|San Antonio|San Antonio|2002-2003|CEMENTERIO PARROQUIAL|2002-12-21|16:28|37.0|Sin alerta|No definido|Actividades recreativas|0.0|0.0|0.0|0.0|0.0|0.0|0.0|0.02|0.0|0.0|0.02|-33.569722222222225|-71.6125|WGS84
Valparaíso|Valparaíso|Concón|2002-2003|CON CON|2002-12-21|16:18|125.0|Sin alerta|No definido|Tránsito de personasvehículos o aeronaves|0.02|0.0|0.0|0.0|0.0|0.0|0.0|0.02|0.0|0.0|0.04|-32.940555555555555|-71.5188888888889|WGS84
Valparaíso|Petorca|La Ligua|2002-2003|EL RAYADO|2002-12-21|16:19|126.0|Sin alerta|No definido|Tránsito de personasvehículos o aeronaves|0.0|0.0|0.0|0.0|0.0|0.0|2.0|4.0|0.0|0.0|6.0|-32.45861111111111|-71.25027777777778|WGS84
Valparaíso|Valparaíso|Viña del Mar|2002-2003|VIÑA DEL MAR ALTO|2002-12-21|17:26|81.0|Sin alerta|No definido|Quema de desechos|0.0|0.0|0.0|0.0|0.0|0.0|0.01|0.03|0.0|0.0|0.04|-33.03888888888889|-71.55388888888889|WGS84
Valparaíso|Valparaíso|Valparaíso|2002-2003|CERRO JIMENEZ|2002-12-21|17:36|48.0|Sin alerta|No definido|Tránsito de personasvehículos o aeronaves|0.0|0.0|0.0|0.02|0.0|0.0|0.0|0.0|0.0|0.0|0.02|-33.06444444444445|-71.62944444444445|WGS84
Valparaíso|San Antonio|El Quisco|2002-2003|LOS COPIHUES|2002-12-21|19:20|85.0|Sin alerta|No definido|Tránsito de personasvehículos o aeronaves|0.0|0.0|0.0|0.2|0.0|0.0|0.0|1.0|0.0|0.4|1.6|-33.415|-71.68305555555555|WGS84
Valparaíso|San Antonio|San Antonio|2002-2003|LLANOS DE BELLAVISTA|2002-12-21|21:14|21.0|Sin alerta|No definido|Quema de desechos|0.0|0.0|0.0|0.01|0.0|0.0|0.0|0.04|0.0|0.0|0.05|-33.560833333333335|-71.60138888888889|WGS84
Valparaíso|Valparaíso|Viña del Mar|2002-2003|VILLA ARAUCO|2002-12-22|12:06|81.0|Sin alerta|No definido|Actividades recreativas|0.0|0.0|0.0|0.0|0.0|0.0|0.3|0.7|0.0|0.0|1.0|-33.022222222222226|-71.48916666666666|WGS84
Valparaíso|San Antonio|San Antonio|2002-2003|CERRO LA VIRGEN|2002-12-22|12:32|73.0|Sin alerta|No definido|Incendios de causa desconocida|0.0|0.0|0.0|0.0|0.0|0.0|0.0|1.5|0.0|0.0|1.5|-33.569722222222225|-71.6125|WGS84
Valparaíso|Petorca|La Ligua|2002-2003|LA GRUTA|2002-12-22|12:48|46.0|Sin alerta|No definido|Tránsito de personasvehículos o aeronaves|0.0|0.0|0.0|0.0|0.0|0.0|0.1|0.4|0.0|0.0|0.5|-32.44972222222222|-71.235|WGS84
Valparaíso|San Antonio|San Antonio|2002-2003|PLANICIES DE BELLAVISTA|2002-12-22|15:43|18.0|Sin alerta|No definido|Incendios de causa desconocida|0.0|0.0|0.0|0.0|0.0|0.0|0.0|0.01|0.0|0.0|0.01|-33.560833333333335|-71.60138888888889|WGS84
Valparaíso|San Antonio|San Antonio|2002-2003|FDO MIRAMAR|2002-12-22|15:30|54.0|Sin alerta|No definido|Incendios de causa desconocida|0.0|0.0|0.0|0.0|0.0|0.0|0.0|0.01|0.0|0.0|0.01|-33.579166666666666|-71.5911111111111|WGS84
Valparaíso|San Antonio|San Antonio|2002-2003|CERRO LA VIRGEN|2002-12-22|16:35|43.0|Sin alerta|No definido|Incendios de causa desconocida|0.0|0.0|0.1|0.0|0.0|0.0|0.0|1.4|0.0|0.0|1.5|-33.56944444444444|-71.62333333333333|WGS84
Valparaíso|Marga Marga|Villa Alemana|2002-2003|LAS VEGAS|2002-12-22|17:34|28.0|Sin alerta|No definido|Actividades recreativas|0.0|0.0|0.0|0.0|0.0|0.0|0.01|0.04|0.0|0.0|0.05|-33.04194444444445|-71.40416666666667|WGS84
Valparaíso|San Antonio|San Antonio|2002-2003|VIUDA VI|2002-12-22|17:44|36.0|Sin alerta|No definido|Incendios de causa desconocida|0.0|0.0|0.0|0.0|0.0|0.0|0.01|0.04|0.0|0.0|0.05|-33.61527777777778|-71.59222222222222|WGS84
Valparaíso|Valparaíso|Concón|2002-2003|LAS GAVIOTAS|2002-12-22|18:59|70.0|Sin alerta|No definido|Actividades recreativas|0.01|0.0|0.0|0.0|0.0|0.0|0.0|0.0|0.0|0.0|0.01|-32.940555555555555|-71.5188888888889|WGS84
Valparaíso|San Antonio|San Antonio|2002-2003|VIUDA VI|2002-12-23|12:42|45.0|Sin alerta|No definido|Actividades recreativas|0.0|0.0|0.0|0.0|0.0|0.0|0.0|0.03|0.0|0.0|0.03|-33.61527777777778|-71.58166666666666|WGS84
Valparaíso|San Antonio|El Quisco|2002-2003|PINARES|2002-12-23|15:15|237.0|Sin alerta|No definido|Incendios intencionales|0.1|0.0|0.0|0.0|0.0|0.0|0.3|1.2|0.0|0.0|1.6|-33.38861111111111|-71.65|WGS84
Valparaíso|Valparaíso|Concón|2002-2003|LAS GAVIOTAS|2002-12-23|15:31|85.0|Sin alerta|No definido|Actividades recreativas|0.02|0.0|0.0|0.0|0.0|0.0|0.0|0.01|0.0|0.0|0.03|-32.940555555555555|-71.5188888888889|WGS84
Valparaíso|San Antonio|San Antonio|2002-2003|CERRO LA VIRGEN|2002-12-23|15:30|173.0|Sin alerta|No definido|Actividades recreativas|0.0|0.5|0.0|0.0|0.0|0.0|0.0|4.0|0.0|0.0|4.5|-33.569722222222225|-71.6125|WGS84
Valparaíso|San Antonio|San Antonio|2002-2003|VISTA HERMOSA|2002-12-23|15:30|40.0|Sin alerta|No definido|Incendios de causa desconocida|0.0|0.0|0.0|0.01|0.0|0.0|0.0|0.01|0.0|0.0|0.02|-33.551944444444445|-71.60111111111111|WGS84
Valparaíso|San Antonio|Cartagena|2002-2003|SANTA ELIDA|2002-12-23|16:00|22.0|Sin alerta|No definido|Incendios intencionales|0.0|0.0|0.0|0.0|0.0|0.0|0.0|0.05|0.0|0.0|0.05|-33.54333333333334|-71.57944444444445|WGS84
Valparaíso|San Antonio|El Quisco|2002-2003|FUNDO MAQUEHUANO|2002-12-23|16:15|139.0|Sin alerta|No definido|Tránsito de personasvehículos o aeronaves|0.0|0.0|0.1|0.0|0.0|0.0|0.1|0.0|0.0|0.2|0.4|-33.405833333333334|-71.68277777777777|WGS84
Valparaíso|San Antonio|San Antonio|2002-2003|PERLA DACAUD|2002-12-23|16:42|62.0|Sin alerta|No definido|Actividades recreativas|0.0|0.0|0.0|0.0|0.0|0.0|0.0|0.02|0.0|0.0|0.02|-33.56111111111111|-71.59055555555555|WGS84
Valparaíso|Valparaíso|Valparaíso|2002-2003|VERGEL|2002-12-23|16:46|139.0|Sin alerta|No definido|Actividades recreativas|0.0|0.0|0.0|0.06|0.0|0.0|0.0|0.0|0.0|0.0|0.06|-33.07388888888889|-71.60833333333333|WGS84
Valparaíso|Valparaíso|Valparaíso|2002-2003|LAS CENIZAS|2002-12-23|17:10|64.0|Sin alerta|No definido|Tránsito de personasvehículos o aeronaves|0.0|0.0|0.0|0.02|0.0|0.0|0.0|0.01|0.0|0.0|0.03|-33.111111111111114|-71.54527777777778|WGS84
Valparaíso|Valparaíso|Viña del Mar|2002-2003|EL PALTO|2002-12-23|18:55|64.0|Sin alerta|No definido|Actividades recreativas|0.0|0.0|0.0|0.0|0.0|0.0|0.04|0.06|0.0|0.0|0.1|-33.02194444444444|-71.485|WGS84
Valparaíso|San Antonio|San Antonio|2002-2003|PERLA DACOUD|2002-12-23|21:00|24.0|Sin alerta|No definido|Incendios de causa desconocida|0.0|0.0|0.0|0.0|0.0|0.0|0.0|0.2|0.0|0.0|0.2|-33.56111111111111|-71.59055555555555|WGS84
Valparaíso|Valparaíso|Viña del Mar|2002-2003|GLORIAS NAVALES|2002-12-24|13:42|48.0|Sin alerta|No definido|Tránsito de personasvehículos o aeronaves|0.0|0.0|0.0|0.0|0.0|0.0|0.0|0.02|0.0|0.0|0.02|-32.995|-71.49916666666667|WGS84
Valparaíso|San Antonio|San Antonio|2002-2003|POBLACION BRUCELAS|2002-12-24|14:00|34.0|Sin alerta|No definido|Incendios intencionales|0.0|0.0|0.0|0.0|0.0|0.0|0.0|0.4|0.0|0.0|0.4|-33.560833333333335|-71.60138888888889|WGS84
Valparaíso|Marga Marga|Villa Alemana|2002-2003|EL PEUMO|2002-12-24|14:17|71.0|Sin alerta|No definido|Actividades recreativas|0.0|0.0|0.0|0.0|0.0|0.0|0.01|0.09|0.0|0.0|0.0999999999999999|-33.07861111111111|-71.37305555555555|WGS84
Valparaíso|Valparaíso|Concón|2002-2003|LAJARILLA|2002-12-24|14:38|93.0|Sin alerta|No definido|Actividades recreativas|0.05|0.0|0.0|0.0|0.0|0.0|0.0|0.15|0.0|0.0|0.2|-32.98583333333333|-71.49888888888889|WGS84
Valparaíso|Petorca|La Ligua|2002-2003|PLACILLA|2002-12-24|14:15|43.0|Sin alerta|No definido|Incendios intencionales|0.0|0.0|0.0|0.0|0.0|0.0|0.0|0.2|0.0|0.0|0.2|-32.44916666666666|-71.27111111111111|WGS84
Valparaíso|Valparaíso|Valparaíso|2002-2003|CERRO ESPERANZA|2002-12-24|15:24|63.0|Sin alerta|No definido|Actividades recreativas|0.0|0.0|0.0|0.0|0.0|0.0|0.0|0.03|0.0|0.0|0.03|-33.047777777777775|-71.56472222222222|WGS84
Valparaíso|Valparaíso|Valparaíso|2002-2003|LAS DOCAS LAGUNA VERDE|2002-12-24|15:51|75.0|Sin alerta|No definido|Actividades recreativas|0.01|0.0|0.0|0.0|0.0|0.0|0.03|0.04|0.0|0.0|0.08|-33.117777777777775|-71.66333333333333|WGS84
Valparaíso|Marga Marga|Villa Alemana|2002-2003|POBLACION PRAT|2002-12-24|16:21|80.0|Sin alerta|No definido|Tránsito de personasvehículos o aeronaves|0.0|0.0|0.0|0.01|0.0|0.0|0.24|0.75|0.0|0.0|1.0|-33.07416666666666|-71.58694444444444|WGS84
Valparaíso|San Antonio|San Antonio|2002-2003|FUNDO LLO LLEO|2002-12-24|17:00|32.0|Sin alerta|No definido|Incendios de causa desconocida|0.0|0.0|0.0|0.1|0.0|0.0|0.0|0.5|0.0|0.0|0.6|-33.60611111111111|-71.59194444444445|WGS84
Valparaíso|Marga Marga|Quilpué|2002-2003|FUNDO FRUTILLAR|2002-12-24|17:28|125.0|Sin alerta|No definido|Tránsito de personasvehículos o aeronaves|0.0|0.0|0.0|0.0|0.0|0.0|0.4|0.5|0.0|0.0|0.9|-33.024166666666666|-71.39277777777778|WGS84
Valparaíso|Marga Marga|Villa Alemana|2002-2003|CUESTA EL PANGAL|2002-12-24|18:07|127.0|Sin alerta|No definido|Tránsito de personasvehículos o aeronaves|0.0|0.0|0.0|0.0|0.0|0.3|0.4|0.8|0.0|0.0|1.5|-33.035|-71.28611111111111|WGS84
Valparaíso|Valparaíso|Viña del Mar|2002-2003|REÑACA ALTO|2002-12-24|18:40|104.0|Sin alerta|No definido|Actividades recreativas|0.0|0.0|0.0|0.0|0.0|0.0|0.1|0.2|0.0|0.0|0.3|-33.004444444444445|-71.47805555555556|WGS84
Valparaíso|Valparaíso|Valparaíso|2002-2003|ROCUANT|2002-12-24|21:11|108.0|Sin alerta|No definido|Tránsito de personasvehículos o aeronaves|0.0|0.0|0.0|0.0|0.0|0.0|0.1|0.1|0.0|0.0|0.2|-33.068333333333335|-71.58722222222222|WGS84
Valparaíso|Petorca|La Ligua|2002-2003|LA LIGUA|2002-12-25|08:18|72.0|Sin alerta|No definido|Incendios intencionales|0.0|0.0|0.0|0.0|0.0|0.0|0.0|1.0|0.0|0.0|1.0|-32.431666666666665|-71.24944444444445|WGS84
Valparaíso|Petorca|La Ligua|2002-2003|VILLA LUA|2002-12-25|08:19|81.0|Sin alerta|No definido|Incendios intencionales|0.0|0.0|0.0|0.04|0.0|0.0|0.36|0.6|0.0|0.0|1.0|-32.44972222222222|-71.235|WGS84
Valparaíso|San Antonio|San Antonio|2002-2003|CAMPIÑA 2|2002-12-25|12:50|63.0|Sin alerta|No definido|Incendios de causa desconocida|0.0|0.0|0.0|0.0|0.0|0.0|0.0|1.0|0.0|0.0|1.0|-33.61527777777778|-71.59222222222222|WGS84
Valparaíso|Valparaíso|Viña del Mar|2002-2003|REÑACA ALTO|2002-12-25|14:05|163.0|Sin alerta|No definido|Actividades recreativas|0.0|0.0|0.0|0.0|0.0|0.0|1.0|1.5|0.0|0.0|2.5|-33.004444444444445|-71.47805555555556|WGS84
Valparaíso|Quillota|Quillota|2002-2003|EL BOCO|2002-12-25|15:12|260.0|Sin alerta|No definido|Tránsito de personasvehículos o aeronaves|0.0|0.0|0.0|2.0|0.0|1.0|2.0|5.0|0.0|0.0|10.0|-32.88194444444444|-71.2713888888889|WGS84
Valparaíso|Marga Marga|Villa Alemana|2002-2003|POBLACION WILSON|2002-12-25|15:21|39.0|Sin alerta|No definido|Actividades recreativas|0.0|0.0|0.0|0.0|0.0|0.0|0.0|0.02|0.0|0.0|0.02|-33.051944444444445|-71.35083333333333|WGS84
Valparaíso|San Antonio|San Antonio|2002-2003|VISTA HERMOSA|2002-12-25|15:37|269.0|Sin alerta|No definido|Incendios de causa desconocida|0.0|0.0|0.0|0.2|0.0|0.0|0.0|0.8|0.0|0.0|1.0|-33.56055555555555|-71.61222222222223|WGS84
Valparaíso|San Antonio|Cartagena|2002-2003|LO ZARATE|2002-12-25|16:00|190.0|Sin alerta|No definido|Incendios intencionales|0.0|0.0|0.0|0.3|0.0|0.0|1.5|7.2|0.0|0.0|9.0|-33.52638888888889|-71.525|WGS84
Valparaíso|Marga Marga|Olmué|2002-2003|PARADERO 25 OLMUE|2002-12-25|17:37|116.0|Sin alerta|No definido|Tránsito de personasvehículos o aeronaves|0.0|0.0|0.0|0.0|0.0|0.0|0.01|0.01|0.0|0.0|0.02|-32.98305555555555|-71.17777777777778|WGS84
Valparaíso|Valparaíso|Viña del Mar|2002-2003|EL PALTO|2002-12-25|17:59|48.0|Sin alerta|No definido|Quema de desechos|0.0|0.0|0.0|0.0|0.0|0.0|0.0|0.03|0.0|0.0|0.03|-33.02166666666667|-71.5213888888889|WGS84
Valparaíso|Valparaíso|Viña del Mar|2002-2003|EO OLIVAR|2002-12-25|18:40|53.0|Sin alerta|No definido|Quema de desechos|0.0|0.0|0.0|0.0|0.0|0.0|0.0|0.04|0.0|0.0|0.04|-33.03111111111111|-71.5|WGS84
Valparaíso|Marga Marga|Villa Alemana|2002-2003|LAS PARCELAS|2002-12-25|18:51|82.0|Sin alerta|No definido|Tránsito de personasvehículos o aeronaves|0.0|0.0|0.0|0.0|0.0|0.0|0.3|1.0|0.0|0.0|1.3|-33.07|-71.35138888888889|WGS84
Valparaíso|Valparaíso|Valparaíso|2002-2003|MONTEDONICO|2002-12-25|18:49|72.0|Sin alerta|No definido|Quema de desechos|0.0|0.0|0.0|0.0|0.0|0.0|0.01|0.02|0.0|0.0|0.03|-33.055277777777775|-71.64|WGS84
Valparaíso|San Antonio|San Antonio|2002-2003|CERRO LA VIRGEN|2002-12-25|18:50|54.0|Sin alerta|No definido|Incendios intencionales|0.0|0.0|0.0|0.0|0.0|0.0|0.0|0.2|0.0|0.0|0.2|-33.569722222222225|-71.6125|WGS84
Valparaíso|Marga Marga|Limache|2002-2003|CAMINO LOS MOLLES|2002-12-25|19:44|80.0|Sin alerta|No definido|Tránsito de personasvehículos o aeronaves|0.0|0.0|0.0|0.0|0.0|0.0|1.5|3.0|0.0|0.0|4.5|-33.05444444444444|-71.21166666666667|WGS84
Valparaíso|Valparaíso|Viña del Mar|2002-2003|LOMAS DE SPORTING|2002-12-25|20:02|77.0|Sin alerta|No definido|Quema de desechos|0.0|0.0|0.0|0.0|0.0|0.0|0.2|0.3|0.0|0.0|0.5|-33.02166666666667|-71.5213888888889|WGS84
Valparaíso|Valparaíso|Valparaíso|2002-2003|PLACILLA|2002-12-25|22:40|123.0|Sin alerta|No definido|Tránsito de personasvehículos o aeronaves|0.05|0.0|0.0|0.0|0.0|0.0|0.0|0.1|0.0|0.0|0.15|-33.12888888888889|-71.55638888888889|WGS84
Valparaíso|Marga Marga|Villa Alemana|2002-2003|TRANQUE RECREO|2002-12-26|14:52|43.0|Sin alerta|No definido|Quema de desechos|0.0|0.0|0.0|0.0|0.0|0.0|0.01|0.03|0.0|0.0|0.04|-33.07888888888889|-71.36222222222223|WGS84
Valparaíso|Valparaíso|Valparaíso|2002-2003|LA ISLA|2002-12-26|14:57|57.0|Sin alerta|No definido|Tránsito de personasvehículos o aeronaves|0.0|0.0|0.0|0.0|0.0|0.0|0.0|0.01|0.0|0.0|0.01|-33.068333333333335|-71.58722222222222|WGS84
Valparaíso|Valparaíso|Valparaíso|2002-2003|PLACILLA|2002-12-26|16:44|44.0|Sin alerta|No definido|Tránsito de personasvehículos o aeronaves|0.02|0.0|0.0|0.0|0.0|0.0|0.0|0.02|0.0|0.0|0.04|-33.12888888888889|-71.55638888888889|WGS84
Valparaíso|San Antonio|San Antonio|2002-2003|PERLA DACOUT|2002-12-26|16:42|21.0|Sin alerta|No definido|Incendios de causa desconocida|0.0|0.0|0.0|0.1|0.0|0.0|0.0|0.1|0.0|0.0|0.2|-33.56138888888889|-71.58|WGS84
Valparaíso|Marga Marga|Limache|2002-2003|QUERONQUE|2002-12-26|17:34|106.0|Sin alerta|No definido|Tránsito de personasvehículos o aeronaves|0.0|0.0|0.0|0.0|0.0|0.0|0.3|1.2|0.0|0.0|1.5|-32.97083333333333|-71.34861111111111|WGS84
Valparaíso|San Antonio|Cartagena|2002-2003|TUMBA EL POETA|2002-12-26|17:32|28.0|Sin alerta|No definido|Incendios de causa desconocida|0.0|0.0|0.0|0.0|0.0|0.0|0.0|0.3|0.0|0.0|0.3|-33.551944444444445|-71.60111111111111|WGS84
Valparaíso|Valparaíso|Valparaíso|2002-2003|PAJONAL|2002-12-26|18:00|108.0|Sin alerta|No definido|Tránsito de personasvehículos o aeronaves|0.0|0.0|0.0|0.01|0.0|0.0|0.01|0.01|0.0|0.0|0.03|-33.065|-71.5975|WGS84
Valparaíso|Marga Marga|Villa Alemana|2002-2003|LAS VEGAS|2002-12-26|18:17|44.0|Sin alerta|No definido|Quema de desechos|0.0|0.0|0.0|0.0|0.0|0.0|0.0|0.02|0.0|0.0|0.02|-33.04194444444445|-71.40416666666667|WGS84
Valparaíso|San Antonio|San Antonio|2002-2003|CAMINO VIEJO A CARTAGENA|2002-12-26|19:49|23.0|Sin alerta|No definido|Incendios de causa desconocida|0.0|0.0|0.0|0.0|0.0|0.0|0.0|0.05|0.0|0.0|0.05|-33.560833333333335|-71.60138888888889|WGS84
Valparaíso|Marga Marga|Quilpué|2002-2003|FDO EL REBAÑO|2002-12-26|21:13|127.0|Sin alerta|No definido|Tránsito de personasvehículos o aeronaves|0.0|0.0|0.0|0.0|0.0|0.0|0.7|0.8|0.0|0.0|1.5|-33.0225|-71.4786111111111|WGS84
Valparaíso|San Antonio|San Antonio|2002-2003|VIUDA VI|2002-12-27|13:48|62.0|Sin alerta|No definido|Incendios de causa desconocida|0.0|0.0|0.0|0.0|0.0|0.0|0.0|0.8|0.0|0.0|0.8|-33.60611111111111|-71.59194444444445|WGS84
Valparaíso|San Antonio|San Antonio|2002-2003|PLANICIES DE BELLAVISTA|2002-12-27|15:00|66.0|Sin alerta|No definido|Incendios de causa desconocida|0.0|0.0|0.0|0.0|0.0|0.0|0.0|1.0|0.0|0.0|1.0|-33.560833333333335|-71.60138888888889|WGS84
Valparaíso|Petorca|La Ligua|2002-2003|JAURURO|2002-12-27|17:35|40.0|Sin alerta|No definido|Tránsito de personasvehículos o aeronaves|0.0|0.0|0.0|0.0|0.0|0.0|0.0|0.01|0.0|0.0|0.01|-32.45777777777778|-71.29277777777777|WGS84
Valparaíso|Valparaíso|Viña del Mar|2002-2003|GRANADILLA|2002-12-27|18:10|81.0|Sin alerta|No definido|Tránsito de personasvehículos o aeronaves|0.0|0.0|0.0|0.0|0.0|0.0|0.1|0.1|0.0|0.0|0.2|-33.0125|-71.52111111111111|WGS84
Valparaíso|Valparaíso|Valparaíso|2002-2003|EL VERGEL|2002-12-27|18:43|68.0|Sin alerta|No definido|Tránsito de personasvehículos o aeronaves|0.0|0.0|0.0|0.0|0.0|0.0|0.05|0.0|0.0|0.0|0.05|-33.06472222222222|-71.60805555555555|WGS84
Valparaíso|San Antonio|San Antonio|2002-2003|PUERTO NUEVO|2002-12-27|18:50|45.0|Sin alerta|No definido|Incendios de causa desconocida|0.0|0.0|0.0|0.0|0.0|0.0|0.0|0.01|0.0|0.0|0.01|-33.551944444444445|-71.60111111111111|WGS84
Valparaíso|San Antonio|Cartagena|2002-2003|TUMBA EL POETA|2002-12-27|19:09|41.0|Sin alerta|No definido|Incendios de causa desconocida|0.0|0.0|0.0|0.0|0.0|0.0|0.0|0.03|0.0|0.0|0.03|-33.54277777777778|-71.60083333333333|WGS84
Valparaíso|San Antonio|El Quisco|2002-2003|SUBIDA LAS MONJAS|2002-12-27|20:04|51.0|Sin alerta|No definido|Tránsito de personasvehículos o aeronaves|0.0|0.01|0.0|0.0|0.0|0.0|0.0|0.02|0.0|0.0|0.03|-33.415|-71.68305555555555|WGS84
Valparaíso|Marga Marga|Quilpué|2002-2003|TENIENTE SERRANO|2002-12-27|22:35|97.0|Sin alerta|No definido|Quema de desechos|0.0|0.0|0.0|0.0|0.0|0.0|0.2|0.3|0.0|0.0|0.5|-33.077777777777776|-71.41583333333334|WGS84
Valparaíso|San Antonio|San Antonio|2002-2003|VIUDA VI|2002-12-28|14:19|36.0|Sin alerta|No definido|Incendios de causa desconocida|0.0|0.0|0.0|0.0|0.0|0.0|0.0|0.06|0.0|0.0|0.06|-33.60611111111111|-71.59194444444445|WGS84
Valparaíso|Valparaíso|Valparaíso|2002-2003|CERRO LA TORRE|2002-12-28|14:43|108.0|Sin alerta|No definido|Actividades recreativas|0.0|0.0|0.0|0.0|0.0|0.1|0.2|0.7|0.0|0.0|1.0|-33.06472222222222|-71.61888888888889|WGS84
Valparaíso|Valparaíso|Casablanca|2002-2003|LO OVALLE|2002-12-28|16:07|107.0|Sin alerta|No definido|Tránsito de personasvehículos o aeronaves|0.0|0.0|0.0|0.0|0.0|0.0|1.0|3.0|0.0|0.0|4.0|-33.303333333333335|-71.40055555555556|WGS84
Valparaíso|Valparaíso|Valparaíso|2002-2003|PAJONAL|2002-12-28|16:38|154.0|Sin alerta|No definido|Tránsito de personasvehículos o aeronaves|0.0|0.0|0.0|0.6|0.0|0.0|0.1|0.1|0.0|0.0|0.7999999999999999|-33.065|-71.5975|WGS84
Valparaíso|Valparaíso|Valparaíso|2002-2003|SANTA ROSA DE PAJONAL|2002-12-28|17:30|131.0|Sin alerta|No definido|Actividades recreativas|0.0|0.0|0.0|1.2|0.0|0.0|0.0|0.0|0.0|0.0|1.2|-33.06472222222222|-71.60805555555555|WGS84
Valparaíso|Valparaíso|Valparaíso|2002-2003|CERRO LA MERCED|2002-12-28|18:29|85.0|Sin alerta|No definido|Tránsito de personasvehículos o aeronaves|0.0|0.0|0.0|0.2|0.0|0.0|0.6|0.0|0.0|0.0|0.8|-33.06472222222222|-71.60805555555555|WGS84
Valparaíso|Valparaíso|Valparaíso|2002-2003|RODELILLO|2002-12-28|18:20|36.0|Sin alerta|No definido|Actividades recreativas|0.0|0.0|0.0|0.0|0.0|0.0|0.0|0.01|0.0|0.0|0.01|-33.047222222222224|-71.58611111111111|WGS84
Valparaíso|San Antonio|San Antonio|2002-2003|PERLA DACOUD|2002-12-28|18:20|57.0|Sin alerta|No definido|Incendios de causa desconocida|0.0|0.0|0.0|0.1|0.0|0.0|0.0|0.2|0.0|0.0|0.3|-33.56111111111111|-71.59055555555555|WGS84
Valparaíso|Valparaíso|Valparaíso|2002-2003|LA ISLA|2002-12-28|19:10|34.0|Sin alerta|No definido|Actividades recreativas|0.0|0.0|0.0|0.0|0.0|0.0|0.01|0.0|0.0|0.0|0.01|-33.08361111111111|-71.57666666666667|WGS84
Valparaíso|San Antonio|San Antonio|2002-2003|FUNDO MIRAMAR|2002-12-28|19:25|50.0|Sin alerta|No definido|Incendios de causa desconocida|0.0|0.0|0.0|0.02|0.0|0.0|0.0|0.04|0.0|0.0|0.06|-33.58833333333333|-71.58083333333333|WGS84
Valparaíso|Marga Marga|Quilpué|2002-2003|VISTA HERMOSA|2002-12-28|19:38|85.0|Sin alerta|No definido|Tránsito de personasvehículos o aeronaves|0.0|0.0|0.0|0.0|0.0|0.0|0.5|1.0|0.0|0.0|1.5|-33.022222222222226|-71.48916666666666|WGS84
Valparaíso|San Antonio|San Antonio|2002-2003|CAMPIÑA 2|2002-12-28|19:50|32.0|Sin alerta|No definido|Incendios de causa desconocida|0.0|0.0|0.0|0.0|0.0|0.0|0.0|0.02|0.0|0.0|0.02|-33.61527777777778|-71.59222222222222|WGS84
Valparaíso|San Antonio|San Antonio|2002-2003|COLINAS DEL MAR|2002-12-28|20:55|100.0|Sin alerta|No definido|Quema de desechos|0.0|0.0|0.0|0.0|0.0|0.0|0.0|1.0|0.0|0.0|1.0|-33.58805555555556|-71.59138888888889|WGS84
Valparaíso|San Antonio|San Antonio|2002-2003|QUEBRADA BRUCELAS|2002-12-29|12:10|40.0|Sin alerta|No definido|Actividades recreativas|0.0|0.0|0.0|0.0|0.0|0.0|0.0|0.05|0.0|0.0|0.05|-33.56111111111111|-71.59055555555555|WGS84
Valparaíso|Marga Marga|Villa Alemana|2002-2003|LAS CABRAS|2002-12-29|12:42|99.0|Sin alerta|No definido|Tránsito de personasvehículos o aeronaves|0.0|0.0|0.0|0.0|0.0|0.0|0.05|0.2|0.0|0.0|0.25|-33.024166666666666|-71.39277777777778|WGS84
Valparaíso|Valparaíso|Viña del Mar|2002-2003|EL OLIVAR|2002-12-29|13:55|53.0|Sin alerta|No definido|Tránsito de personasvehículos o aeronaves|0.0|0.0|0.0|0.0|0.0|0.0|0.03|0.07|0.0|0.0|0.1|-33.03111111111111|-71.48944444444444|WGS84
Valparaíso|San Antonio|El Tabo|2002-2003|AGUAS MARINAS|2002-12-29|14:36|39.0|Sin alerta|No definido|Incendios intencionales|0.0|0.0|0.0|0.0|0.0|0.0|0.01|0.04|0.0|0.0|0.05|-33.45194444444444|-71.63055555555556|WGS84
Valparaíso|Valparaíso|Valparaíso|2002-2003|QUBRADA VERDE|2002-12-29|14:33|111.0|Sin alerta|No definido|Tránsito de personasvehículos o aeronaves|0.0|0.0|0.0|0.1|0.0|0.0|0.2|0.0|0.0|0.0|0.3|-33.081944444444446|-71.65138888888889|WGS84
Valparaíso|San Antonio|San Antonio|2002-2003|FUNDO LLO LLEO|2002-12-29|15:25|33.0|Sin alerta|No definido|Incendios de causa desconocida|0.0|0.0|0.0|0.0|0.0|0.0|0.0|0.01|0.0|0.0|0.01|-33.59722222222222|-71.59166666666667|WGS84
Valparaíso|San Antonio|San Antonio|2002-2003|CAMPIÑA 2|2002-12-29|16:28|46.0|Sin alerta|No definido|Incendios de causa desconocida|0.0|0.0|0.0|0.0|0.0|0.0|0.0|1.0|0.0|0.0|1.0|-33.61527777777778|-71.59222222222222|WGS84
Valparaíso|Valparaíso|Viña del Mar|2002-2003|GRANADILLA 1|2002-12-29|17:12|95.0|Sin alerta|No definido|Actividades recreativas|0.0|0.0|0.0|0.0|0.0|0.0|0.6|0.6|0.0|0.0|1.2|-33.0125|-71.52111111111111|WGS84
Valparaíso|San Antonio|Cartagena|2002-2003|VISTA HERMOSA|2002-12-29|17:11|139.0|Sin alerta|No definido|Incendios de causa desconocida|0.0|0.0|0.0|2.0|0.0|0.0|0.0|10.0|0.0|0.0|12.0|-33.560833333333335|-71.60138888888889|WGS84
Valparaíso|Marga Marga|Quilpué|2002-2003|ALTO EL YUGO|2002-12-29|17:20|35.0|Sin alerta|No definido|Tránsito de personasvehículos o aeronaves|0.0|0.0|0.0|0.0|0.0|0.0|0.0|0.02|0.0|0.0|0.02|-33.07666666666667|-71.46916666666667|WGS84
Valparaíso|Valparaíso|Valparaíso|2002-2003|EL PAJONAL|2002-12-29|17:25|1175.0|Sin alerta|No definido|Actividades recreativas|0.0|0.0|0.0|5.0|0.0|0.0|3.0|0.0|0.0|0.0|8.0|-33.065|-71.5975|WGS84
Valparaíso|Valparaíso|Valparaíso|2002-2003|POBLACION BASICA|2002-12-29|18:42|59.0|Sin alerta|No definido|Actividades recreativas|0.0|0.0|0.0|0.0|0.0|0.0|0.1|0.15|0.0|0.0|0.25|-33.056666666666665|-71.565|WGS84
Valparaíso|Valparaíso|Casablanca|2002-2003|ROTUNDA|2002-12-29|17:38|136.0|Sin alerta|No definido|Actividades recreativas|0.0|0.0|0.0|0.0|0.0|0.0|0.5|1.0|0.0|0.0|1.5|-33.27611111111111|-71.41055555555556|WGS84
