Región|Provincia|Comuna|Temporada|Nombre|Fecha|Hora inicio|Duración (minutos)|Alerta|Escenario|Causa|Superficie quemada: Pino A [ha]|Superficie quemada: Pino B [ha]|Superficie quemada: Pino C [ha]|Superficie quemada: Eucalípto [ha]|Superficie quemada: Otras plantas [ha]|Superficie quemada: Arbolado [ha]|Superficie quemada: Matorral [ha]|Superficie quemada: Pastizal [ha]|Superficie quemada: Agrícola [ha]|Superficie quemada: Desechos [ha]|Superficie quemada total [ha]|Latitud|Longitud|Datum
Coquimbo|Elqui|Coquimbo|2003-2004|CAMARONES|2003-10-12|11:30|10.0|Sin alerta|No definido|No definida|0.0|0.0|0.0|0.0|0.0|0.0|30.0|60.0|0.0|0.0|90.0|-30.373888888888885|-71.32583333333334|WGS84
Coquimbo|Limarí|Ovalle|2003-2004|RECOLETA|2003-10-15|13:50|100.0|Sin alerta|No definido|No definida|0.0|0.0|0.0|0.0|0.0|0.0|0.0|0.3|0.0|0.0|0.3|-30.484722222222217|-71.16166666666666|WGS84
Coquimbo|Choapa|Los Vilos|2003-2004|FUNDO MAIMALICAN   GUANGUALI|2003-10-17|13:30|390.0|Sin alerta|No definido|No definida|0.0|0.0|0.0|0.0|0.0|0.0|3.0|12.0|0.0|0.0|15.0|-32.132222222222225|-71.3375|WGS84
Coquimbo|Elqui|La Serena|2003-2004|EL POLIGONO|2003-10-20|14:40|275.0|Sin alerta|No definido|No definida|0.0|0.0|0.0|0.0|0.0|0.0|5.0|45.0|0.0|0.0|50.0|-29.870555555555555|-71.21055555555556|WGS84
Coquimbo|Elqui|La Serena|2003-2004|CERRO GRANDE|2003-10-21|16:00|300.0|Sin alerta|No definido|No definida|0.0|0.0|0.0|0.0|0.0|0.0|1.0|2.5|0.0|0.0|3.5|-29.96055555555555|-71.21833333333333|WGS84
Coquimbo|Elqui|La Serena|2003-2004|LA VARILLA|2003-10-27|14:00|300.0|Sin alerta|No definido|No definida|0.0|0.0|0.0|0.0|0.0|0.0|5.0|25.0|0.0|0.0|30.0|-29.84388888888889|-71.18916666666667|WGS84
Coquimbo|Elqui|La Serena|2003-2004|PARQUE COLL|2003-10-27|14:15|115.0|Sin alerta|No definido|No definida|0.0|0.0|0.0|0.19|0.0|0.0|0.0|0.01|0.0|0.0|0.2|-29.915|-71.25277777777778|WGS84
Coquimbo|Choapa|Los Vilos|2003-2004|PICHIDANGUI|2003-11-09|21:00|60.0|Sin alerta|No definido|No definida|0.0|0.0|0.0|0.0|0.0|0.0|0.0|0.01|0.0|0.0|0.01|-32.14694444444444|-71.51805555555555|WGS84
Coquimbo|Elqui|La Serena|2003-2004|EL OLIVAR|2003-11-10|15:00|180.0|Sin alerta|No definido|No definida|0.0|0.0|0.0|0.0|0.0|0.0|0.0|1.5|0.0|0.0|1.5|-29.879999999999995|-71.19|WGS84
Coquimbo|Choapa|Los Vilos|2003-2004|QUELON|2003-11-11|09:00|270.0|Sin alerta|No definido|No definida|0.0|0.0|0.0|0.4|0.0|7.0|2.5|5.0|0.1|0.0|15.0|-32.099444444444444|-71.16722222222222|WGS84
Coquimbo|Limarí|Ovalle|2003-2004|TUQUI|2003-11-13|13:00|240.0|Sin alerta|No definido|No definida|0.0|0.0|0.0|0.0|0.0|0.0|0.5|1.0|0.0|0.0|1.5|-30.54777777777778|-71.17361111111111|WGS84
Coquimbo|Elqui|La Serena|2003-2004|CERRO LA CRUZ|2003-11-20|16:00|210.0|Sin alerta|No definido|No definida|0.0|0.0|0.0|0.0|0.0|0.0|5.0|10.0|0.0|0.0|15.0|-29.879722222222227|-71.20027777777777|WGS84
Coquimbo|Limarí|Ovalle|2003-2004|PARCELA MARGARITA|2003-11-21|11:30|270.0|Sin alerta|No definido|No definida|0.0|0.0|0.0|0.0|0.0|0.0|0.5|2.0|0.0|0.0|2.5|-30.5475|-71.18388888888889|WGS84
Coquimbo|Elqui|La Serena|2003-2004|PAMPA ALTA|2003-11-21|18:00|110.0|Sin alerta|No definido|No definida|0.0|0.0|0.0|0.01|0.0|0.0|0.0|0.04|0.0|0.0|0.05|-29.933333333333334|-71.2325|WGS84
Coquimbo|Choapa|Los Vilos|2003-2004|FUNDO LA VIÑA|2003-11-23|12:20|500.0|Sin alerta|No definido|No definida|0.0|0.0|0.0|0.0|0.0|0.0|30.0|70.0|0.0|0.0|100.0|-32.14944444444444|-71.39083333333333|WGS84
Coquimbo|Limarí|Ovalle|2003-2004|BRAMADERO|2003-11-24|12:15|165.0|Sin alerta|No definido|No definida|0.0|0.0|0.0|0.0|0.0|0.0|0.2|0.5|0.0|0.0|0.7|-30.47555555555555|-71.17194444444445|WGS84
Coquimbo|Elqui|La Serena|2003-2004|PUERTAS DEL MAR|2003-11-25|17:00|180.0|Sin alerta|No definido|No definida|0.0|0.0|0.0|0.4|0.0|0.0|0.0|0.1|0.0|0.0|0.5|-29.89583333333333|-71.26027777777777|WGS84
Coquimbo|Elqui|La Serena|2003-2004|PARQUE COLL 1|2003-11-25|19:50|45.0|Sin alerta|No definido|No definida|0.0|0.0|0.0|0.0|0.0|0.0|0.0|0.01|0.0|0.0|0.01|-29.915|-71.25277777777778|WGS84
Coquimbo|Choapa|Los Vilos|2003-2004|EL ARRAYAN|2003-11-26|15:10|290.0|Sin alerta|No definido|No definida|0.0|0.0|0.0|0.0|0.0|4.0|8.0|8.0|0.0|0.0|20.0|-32.14888888888889|-71.42277777777778|WGS84
Coquimbo|Choapa|Illapel|2003-2004|EL PARAISO|2003-11-27|15:00|60.0|Sin alerta|No definido|No definida|0.0|0.0|0.0|0.0|0.0|20.0|10.0|40.0|80.0|0.0|150.0|-31.73638888888889|-71.29583333333333|WGS84
Coquimbo|Elqui|La Serena|2003-2004|ALGARROBITO|2003-11-30|20:30|158.0|Sin alerta|No definido|No definida|0.0|0.0|0.0|0.15|0.0|0.0|0.0|0.05|0.0|0.0|0.2|-29.953055555555554|-71.13972222222222|WGS84
Coquimbo|Elqui|La Serena|2003-2004|PARQUE COLL 2|2003-12-02|11:30|270.0|Sin alerta|No definido|No definida|0.0|0.0|0.0|0.5|0.0|0.0|0.1|0.4|0.0|0.0|1.0|-29.914722222222224|-71.26333333333334|WGS84
Coquimbo|Choapa|Los Vilos|2003-2004|SHELL  RAMADILLAS|2003-12-02|17:30|95.0|Sin alerta|No definido|No definida|0.0|0.0|0.0|0.0|0.0|0.0|0.0|0.7|0.0|0.0|0.7|-31.91333333333333|-71.48|WGS84
Coquimbo|Choapa|Los Vilos|2003-2004|COPEC   RAMADILLAS|2003-12-04|13:20|70.0|Sin alerta|No definido|No definida|0.0|0.0|0.0|0.0|0.0|0.0|0.0|0.7|0.0|0.0|0.7|-31.89527777777778|-71.47944444444444|WGS84
Coquimbo|Choapa|Los Vilos|2003-2004|FUNDO EL RADICANO|2003-12-04|15:00|225.0|Sin alerta|No definido|No definida|0.0|0.0|0.0|0.0|3.0|7.0|53.0|87.0|0.0|0.0|150.0|-31.952777777777783|-71.30111111111111|WGS84
Coquimbo|Elqui|La Serena|2003-2004|SAN PEDRO|2003-12-04|18:00|150.0|Sin alerta|No definido|No definida|0.0|0.0|0.0|0.0|0.0|0.0|0.8|0.2|0.0|0.0|1.0|-29.87388888888889|-71.27166666666666|WGS84
Coquimbo|Elqui|La Serena|2003-2004|PARQUE COLL 3|2003-12-04|18:00|125.0|Sin alerta|No definido|No definida|0.0|0.0|0.0|0.0|0.0|0.0|0.1|0.6|0.0|0.0|0.7|-29.914722222222224|-71.27361111111111|WGS84
Coquimbo|Elqui|Coquimbo|2003-2004|VERTEDERO EL PANUL|2003-12-05|13:00|207.0|Sin alerta|No definido|No definida|0.0|0.0|0.0|0.0|0.0|0.0|3.0|5.0|0.0|0.0|8.0|-30.00333333333333|-71.35861111111112|WGS84
Coquimbo|Limarí|Ovalle|2003-2004|TABALI|2003-12-08|15:45|142.0|Sin alerta|No definido|No definida|0.0|0.0|0.0|0.0|0.1|0.0|0.0|0.7|0.0|0.0|0.7999999999999999|-30.66305555555555|-71.29083333333334|WGS84
Coquimbo|Choapa|Los Vilos|2003-2004|PEAJE|2003-12-09|11:30|420.0|Sin alerta|No definido|No definida|0.0|0.0|0.0|0.0|0.0|0.0|12.0|18.0|0.0|0.0|30.0|-32.165|-71.51861111111111|WGS84
Coquimbo|Choapa|Canela|2003-2004|HUENTELAUQUEN|2003-12-15|11:20|340.0|Sin alerta|No definido|No definida|0.0|0.0|0.0|0.1|0.0|0.0|0.2|0.2|0.0|0.0|0.5|-31.59611111111112|-71.55583333333334|WGS84
Coquimbo|Elqui|Coquimbo|2003-2004|EL RECREO|2003-12-15|19:05|210.0|Sin alerta|No definido|No definida|0.0|0.0|0.0|0.4|0.0|0.0|0.0|0.1|0.0|0.0|0.5|-29.98611111111111|-71.30638888888889|WGS84
Coquimbo|Elqui|Coquimbo|2003-2004|EL RECREO 1|2003-12-16|15:00|330.0|Sin alerta|No definido|No definida|0.0|0.0|0.0|3.0|0.0|0.0|0.0|0.5|0.0|0.0|3.5|-29.98611111111111|-71.30638888888889|WGS84
Coquimbo|Elqui|La Serena|2003-2004|PARQUE COLL 4|2003-12-16|15:10|120.0|Sin alerta|No definido|No definida|0.0|0.0|0.0|0.0|0.0|0.0|0.01|0.02|0.0|0.0|0.03|-29.92388888888889|-71.25305555555556|WGS84
Coquimbo|Elqui|La Serena|2003-2004|LORETO|2003-12-18|15:00|420.0|Sin alerta|No definido|No definida|0.0|0.0|0.0|0.4|0.0|0.0|0.0|0.1|0.0|0.0|0.5|-29.925833333333337|-71.14944444444444|WGS84
Coquimbo|Elqui|Coquimbo|2003-2004|TAMBILLO|2003-12-18|16:50|180.0|Sin alerta|No definido|No definida|0.0|0.0|0.0|0.0|0.0|0.0|0.0|0.01|0.0|0.0|0.01|-30.22166666666667|-71.25972222222222|WGS84
Coquimbo|Elqui|Coquimbo|2003-2004|BARRANCAS|2003-12-23|14:00|0.0|Sin alerta|No definido|No definida|0.0|0.0|0.0|0.0|5.0|0.0|105.0|70.0|0.0|0.0|180.0|-30.23777777777778|-71.36416666666666|WGS84
Coquimbo|Elqui|La Serena|2003-2004|QUILACAN|2003-12-25|14:00|420.0|Sin alerta|No definido|No definida|0.0|0.0|0.0|2.0|0.0|0.0|0.4|0.1|0.0|0.0|2.5|-29.9525|-71.16055555555556|WGS84
Coquimbo|Elqui|Andacollo|2003-2004|EL MANZANO3|2003-12-25|14:00|250.0|Sin alerta|No definido|No definida|0.0|0.0|0.0|0.0|0.0|0.0|0.5|2.5|0.0|0.0|3.0|-30.169444444444444|-71.13416666666667|WGS84
Coquimbo|Choapa|Los Vilos|2003-2004|CARACAS|2003-12-25|20:00|810.0|Sin alerta|No definido|No definida|0.0|0.0|0.0|0.0|0.0|0.0|0.6|0.4|0.0|0.0|1.0|-31.95888888888889|-71.44944444444444|WGS84
Coquimbo|Elqui|Coquimbo|2003-2004|EL SAUCE|2003-12-26|18:00|240.0|Sin alerta|No definido|No definida|0.0|0.0|0.0|0.0|0.0|0.0|0.07|0.12|0.0|0.0|0.19|-30.010555555555555|-71.33277777777778|WGS84
Coquimbo|Elqui|La Serena|2003-2004|FUNDO QUILACAN  1|2003-12-31|11:00|270.0|Sin alerta|No definido|No definida|0.0|0.0|0.0|1.5|0.0|0.0|0.1|0.1|0.0|0.0|1.7000000000000002|-29.952777777777776|-71.15027777777777|WGS84
Coquimbo|Elqui|La Serena|2003-2004|PUNTA DE PIEDRA|2004-01-01|16:00|300.0|Sin alerta|No definido|No definida|0.0|0.0|0.0|0.9|0.0|0.0|0.0|0.0|0.0|0.1|1.0|-29.944166666666668|-71.11888888888889|WGS84
Coquimbo|Choapa|Illapel|2003-2004|HUINTIL VIEJO|2004-01-06|16:00|285.0|Sin alerta|No definido|No definida|0.0|0.0|0.0|0.0|0.0|0.6|0.2|0.2|0.0|0.0|1.0|-31.57055555555556|-70.95472222222222|WGS84
Coquimbo|Elqui|La Serena|2003-2004|PARCELA 16   ALFALFARES|2004-01-06|17:30|240.0|Sin alerta|No definido|No definida|0.0|0.0|0.0|0.0|0.0|0.0|0.04|0.0|0.0|0.0|0.04|-29.91583333333333|-71.20111111111112|WGS84
Coquimbo|Choapa|Los Vilos|2003-2004|TOTORALILLO    LOS VILOS|2004-01-07|14:00|120.0|Sin alerta|No definido|No definida|0.0|0.0|0.0|0.0|0.0|0.0|1.5|2.0|0.0|0.0|3.5|-32.02111111111111|-71.49333333333334|WGS84
Coquimbo|Choapa|Canela|2003-2004|MAHUIDA|2004-01-07|13:20|40.0|Sin alerta|No definido|No definida|0.0|0.0|0.0|0.0|0.0|20.0|150.0|50.0|0.0|0.0|220.0|-31.60111111111112|-71.2925|WGS84
Coquimbo|Elqui|Coquimbo|2003-2004|QUEBRADA EL CHIVATO|2004-01-10|15:00|180.0|Sin alerta|No definido|No definida|0.0|0.0|0.0|0.0|0.0|0.0|0.1|0.7|0.0|0.0|0.7999999999999999|-29.976944444444445|-71.3163888888889|WGS84
Coquimbo|Choapa|Illapel|2003-2004|PICHANILLA|2004-01-14|16:20|68.0|Sin alerta|No definido|No definida|0.0|0.0|0.0|0.0|0.0|0.0|0.0|4.0|0.0|0.0|4.0|-31.639166666666668|-71.1775|WGS84
Coquimbo|Limarí|Ovalle|2003-2004|PACHINGO|2004-01-15|13:10|278.0|Sin alerta|No definido|No definida|0.0|0.0|0.0|2.0|4.5|0.0|3.0|1.0|0.5|0.0|11.0|-30.46|-71.54638888888888|WGS84
Coquimbo|Choapa|Illapel|2003-2004|PERALILLO|2004-01-16|16:00|180.0|Sin alerta|No definido|No definida|0.0|0.0|0.0|0.0|0.0|0.0|0.0|0.5|0.0|0.0|0.5|-31.74833333333333|-71.12722222222222|WGS84
Coquimbo|Choapa|Los Vilos|2003-2004|SANTA INES|2004-01-18|11:30|250.0|Sin alerta|No definido|No definida|0.0|0.0|0.0|0.0|0.0|0.0|0.5|0.5|0.0|0.0|1.0|-32.147222222222226|-71.49694444444444|WGS84
Coquimbo|Limarí|Ovalle|2003-2004|FUNDO LAS VEGAS|2004-01-29|10:00|327.0|Sin alerta|No definido|No definida|0.0|0.0|0.0|0.8|0.0|0.0|1.2|1.0|0.0|0.0|3.0|-30.624722222222218|-71.41527777777777|WGS84
Coquimbo|Elqui|Coquimbo|2003-2004|LAS MOSTAZAS|2004-01-29|20:00|110.0|Sin alerta|No definido|No definida|0.0|0.0|0.0|0.0|0.0|0.0|0.0|2.0|0.0|0.0|2.0|-30.158611111111107|-71.37305555555555|WGS84
Coquimbo|Elqui|Coquimbo|2003-2004|TOTORALILLO CQBO|2004-01-30|14:00|346.0|Sin alerta|No definido|No definida|0.0|0.0|0.0|0.0|0.0|0.0|1.5|3.5|0.0|0.0|5.0|-30.09361111111112|-71.36055555555555|WGS84
Coquimbo|Limarí|Ovalle|2003-2004|CANTA RANA|2004-01-31|18:25|85.0|Sin alerta|No definido|No definida|0.0|0.0|0.0|0.0|0.0|0.0|0.19|0.01|0.0|0.0|0.2|-30.649166666666662|-71.5513888888889|WGS84
Coquimbo|Choapa|Los Vilos|2003-2004|LA ROCA|2004-02-02|14:00|180.0|Sin alerta|No definido|No definida|0.0|0.0|0.0|0.0|0.0|0.0|0.2|0.3|0.0|0.0|0.5|-32.13805555555555|-71.50722222222223|WGS84
Coquimbo|Elqui|Coquimbo|2003-2004|LAS SALINAS|2004-02-04|14:30|300.0|Sin alerta|No definido|No definida|0.0|0.0|0.0|0.0|1.0|0.0|0.0|9.0|0.0|0.0|10.0|-30.280555555555555|-71.48972222222223|WGS84
Coquimbo|Elqui|Coquimbo|2003-2004|EL PANUL|2004-02-04|18:00|170.0|Sin alerta|No definido|No definida|0.0|0.0|0.0|0.0|0.0|0.0|0.5|2.0|0.0|0.0|2.5|-30.020833333333336|-71.39|WGS84
Coquimbo|Elqui|Coquimbo|2003-2004|EL BOSQUE|2004-02-04|14:30|135.0|Sin alerta|No definido|No definida|0.0|0.0|0.0|0.0|0.0|0.0|1.0|2.6|0.0|0.0|3.6|-30.20388888888889|-71.23861111111111|WGS84
Coquimbo|Choapa|Los Vilos|2003-2004|INFIERNILLO|2004-02-05|13:30|1410.0|Sin alerta|No definido|No definida|0.0|0.0|0.0|0.0|0.0|0.0|1.0|0.5|0.0|0.0|1.5|-32.06055555555555|-71.31444444444445|WGS84
Coquimbo|Choapa|Canela|2003-2004|HUENTELAUQUEN 1|2004-02-06|02:30|450.0|Sin alerta|No definido|No definida|0.0|0.0|0.0|0.4|0.0|0.0|0.0|0.0|0.0|0.0|0.4|-31.62361111111111|-71.53555555555556|WGS84
Coquimbo|Elqui|La Serena|2003-2004|CERRO GRANDE 1|2004-02-07|16:00|370.0|Sin alerta|No definido|No definida|0.0|0.0|0.0|1.0|0.0|0.0|0.0|0.0|0.0|0.0|1.0|-29.924444444444447|-71.2325|WGS84
Coquimbo|Elqui|Coquimbo|2003-2004|EL TANGUE|2004-02-10|19:00|120.0|Sin alerta|No definido|No definida|0.0|0.0|0.0|0.0|0.0|0.0|0.0|0.03|0.0|0.0|0.03|-30.27166666666667|-71.48972222222223|WGS84
Coquimbo|Choapa|Los Vilos|2003-2004|EL MAURO|2004-02-16|14:00|180.0|Sin alerta|No definido|No definida|0.0|0.0|0.0|0.0|0.0|50.0|170.0|80.0|0.0|0.0|300.0|-31.99333333333333|-71.03777777777778|WGS84
Coquimbo|Elqui|Vicuña|2003-2004|EL TAMBO|2004-02-18|14:00|480.0|Sin alerta|No definido|No definida|0.0|0.0|0.0|0.0|0.0|0.0|4.7|0.3|0.0|0.0|5.0|-30.029722222222222|-70.83027777777778|WGS84
Coquimbo|Elqui|Vicuña|2003-2004|EL TAMBO  1|2004-02-20|08:00|240.0|Sin alerta|No definido|No definida|0.0|0.0|0.0|0.0|0.0|0.0|14.8|0.2|0.0|0.0|15.0|-30.029722222222222|-70.83027777777778|WGS84
Coquimbo|Choapa|Canela|2003-2004|HUENTELAUQUEN 2|2004-02-20|19:45|885.0|Sin alerta|No definido|No definida|0.0|0.0|0.0|0.0|0.0|0.0|0.0|2.0|0.0|0.0|2.0|-31.605555555555554|-71.535|WGS84
Coquimbo|Choapa|Los Vilos|2003-2004|PICHIDANGUI|2004-02-22|21:35|25.0|Sin alerta|No definido|No definida|0.0|0.0|0.0|0.0|0.0|0.0|0.0|0.01|0.0|0.0|0.01|-32.102222222222224|-71.49555555555555|WGS84
Coquimbo|Choapa|Los Vilos|2003-2004|LA NORIA|2004-02-25|15:00|70.0|Sin alerta|No definido|No definida|0.0|0.0|0.0|0.0|0.0|0.0|0.0|0.0|0.0|0.01|0.01|-32.13805555555555|-71.51777777777778|WGS84
Coquimbo|Limarí|Ovalle|2003-2004|BARRAZA|2004-02-25|18:00|60.0|Sin alerta|No definido|No definida|0.0|0.0|0.0|0.0|0.0|0.0|1.0|0.0|0.0|0.0|1.0|-30.6425|-71.43638888888889|WGS84
Coquimbo|Limarí|Ovalle|2003-2004|QUEBRADA SECA|2004-02-29|15:00|270.0|Sin alerta|No definido|No definida|0.0|0.0|0.0|0.0|0.0|0.0|0.0|40.0|0.0|0.0|40.0|-30.44333333333333|-71.46277777777777|WGS84
Coquimbo|Choapa|Los Vilos|2003-2004|CULIMO|2004-02-29|15:20|1330.0|Sin alerta|No definido|No definida|0.0|0.0|0.0|0.0|0.0|0.5|13.0|6.5|0.0|0.0|20.0|-32.05305555555555|-71.22972222222222|WGS84
Coquimbo|Choapa|Los Vilos|2003-2004|SANTA INES|2004-02-29|17:00|210.0|Sin alerta|No definido|No definida|0.0|0.0|0.0|0.0|0.0|0.0|0.0|5.0|0.0|0.0|5.0|-32.13777777777778|-71.52833333333334|WGS84
Coquimbo|Elqui|La Serena|2003-2004|PARQUE COLL 5|2004-02-29|13:30|275.0|Sin alerta|No definido|No definida|0.0|0.0|0.0|0.05|0.0|0.0|0.0|0.05|0.0|0.0|0.1|-29.924166666666668|-71.24277777777777|WGS84
Coquimbo|Choapa|Los Vilos|2003-2004|SANTA INES 1|2004-03-01|13:30|223.0|Sin alerta|No definido|No definida|0.0|0.0|0.0|0.0|0.0|0.0|0.4|0.6|0.0|0.0|1.0|-32.14666666666667|-71.5286111111111|WGS84
Coquimbo|Choapa|Los Vilos|2003-2004|LA PUNTILLA|2004-03-05|12:00|220.0|Sin alerta|No definido|No definida|0.0|0.0|0.0|0.0|0.0|30.0|175.0|125.0|0.0|0.0|330.0|-31.872499999999995|-71.24638888888889|WGS84
Coquimbo|Elqui|La Serena|2003-2004|CISTERNAS|2004-03-07|15:20|87.0|Sin alerta|No definido|No definida|0.0|0.0|0.0|0.0|0.0|0.0|0.0|0.02|0.0|0.0|0.02|-29.915|-71.25277777777778|WGS84
Coquimbo|Choapa|Los Vilos|2003-2004|FUNDO CARACAS|2004-04-27|10:30|210.0|Sin alerta|No definido|No definida|0.0|0.0|0.0|0.0|0.0|0.0|5.0|7.0|0.0|0.0|12.0|-31.93194444444444|-71.44888888888889|WGS84
Coquimbo|Elqui|La Serena|2003-2004|CRUZ DEL MOLINO 1|2004-05-11|12:20|100.0|Sin alerta|No definido|No definida|0.0|0.0|0.0|0.0|0.0|0.0|0.0|0.01|0.0|0.0|0.01|-29.905555555555555|-71.27333333333333|WGS84
Valparaíso|Marga Marga|Villa Alemana|2003-2004|CASAS DEL PARQUE|2003-09-16|15:15|30.0|Sin alerta|No definido|Incendios de causa desconocida|0.0|0.0|0.0|0.0|0.0|0.0|0.01|0.01|0.0|0.0|0.02|-33.05166666666667|-71.36138888888888|WGS84
Valparaíso|Marga Marga|Villa Alemana|2003-2004|VILLA COSMOS|2003-10-01|12:35|12.0|Sin alerta|No definido|Incendios de causa desconocida|0.0|0.0|0.0|0.0|0.0|0.0|0.0|0.02|0.0|0.0|0.02|-33.04222222222222|-71.39333333333333|WGS84
Valparaíso|Marga Marga|Villa Alemana|2003-2004|POBLACION PRAT|2003-10-11|18:52|46.0|Sin alerta|No definido|Incendios de causa desconocida|0.0|0.0|0.0|0.0|0.0|0.0|0.0|0.01|0.0|0.0|0.01|-33.060833333333335|-71.36166666666666|WGS84
Valparaíso|Marga Marga|Villa Alemana|2003-2004|POBLACION PRAT|2003-10-17|23:07|47.0|Sin alerta|No definido|Incendios de causa desconocida|0.0|0.0|0.0|0.0|0.0|0.0|0.0|0.05|0.0|0.0|0.05|-33.05166666666667|-71.36138888888888|WGS84
Valparaíso|Marga Marga|Villa Alemana|2003-2004|POBLACION PRAT|2003-10-19|19:08|36.0|Sin alerta|No definido|Incendios de causa desconocida|0.0|0.0|0.0|0.0|0.0|0.0|0.0|0.03|0.0|0.0|0.03|-33.05166666666667|-71.36138888888888|WGS84
Valparaíso|Marga Marga|Villa Alemana|2003-2004|POBLACION PRAT|2003-10-21|13:10|13.0|Sin alerta|No definido|Incendios de causa desconocida|0.0|0.0|0.0|0.0|0.0|0.0|0.0|0.06|0.0|0.0|0.06|-33.060833333333335|-71.36166666666666|WGS84
Valparaíso|Marga Marga|Villa Alemana|2003-2004|SECTOR LA PALMA|2003-10-31|11:11|18.0|Sin alerta|No definido|Incendios de causa desconocida|0.0|0.0|0.0|0.0|0.0|0.0|0.0|0.01|0.0|0.0|0.01|-33.05138888888889|-71.37222222222222|WGS84
Valparaíso|Marga Marga|Villa Alemana|2003-2004|SECTOR DE PEÑABLANCA|2003-11-01|19:59|37.0|Sin alerta|No definido|Incendios de causa desconocida|0.0|0.0|0.0|0.0|0.0|0.0|0.01|0.01|0.0|0.0|0.02|-33.03388888888889|-71.35027777777778|WGS84
Valparaíso|Valparaíso|Valparaíso|2003-2004|LAGUNA VERDE|2003-11-02|16:20|121.0|Sin alerta|No definido|Incendios de causa desconocida|0.0|0.5|0.0|0.0|0.0|0.0|0.3|0.2|0.0|1.0|2.0|-33.098055555555554|-71.73777777777778|WGS84
Valparaíso|Marga Marga|Villa Alemana|2003-2004|SECTOR PEÑABLANCA|2003-11-03|16:22|81.0|Sin alerta|No definido|Incendios de causa desconocida|0.0|0.0|0.0|0.0|0.0|0.0|2.0|2.0|0.0|0.0|4.0|-33.03388888888889|-71.35027777777778|WGS84
Valparaíso|Marga Marga|Villa Alemana|2003-2004|SECTOR LAS AMERICAS|2003-11-03|19:52|100.0|Sin alerta|No definido|Incendios de causa desconocida|0.0|0.0|0.0|0.0|0.0|0.0|0.5|1.0|0.0|0.0|1.5|-33.03305555555556|-71.39305555555555|WGS84
Valparaíso|Marga Marga|Villa Alemana|2003-2004|SECTOR PEÑABLANCA|2003-11-04|15:56|50.0|Sin alerta|No definido|Incendios de causa desconocida|0.0|0.0|0.0|0.0|0.0|0.05|0.0|0.1|0.0|0.0|0.15|-33.033611111111114|-71.36111111111111|WGS84
Valparaíso|Valparaíso|Viña del Mar|2003-2004|SECTOR PEÑABLANCA|2003-11-05|18:37|18.0|Sin alerta|No definido|Incendios de causa desconocida|0.0|0.0|0.0|0.0|0.0|0.0|0.01|0.01|0.0|0.0|0.02|-33.05222222222222|-71.34|WGS84
Valparaíso|Marga Marga|Villa Alemana|2003-2004|SECTOR PEÑABLANCA|2003-11-06|15:43|33.0|Sin alerta|No definido|Incendios intencionales|0.0|0.0|0.0|0.0|0.0|0.0|0.05|0.1|0.0|0.0|0.15|-33.02472222222222|-71.36083333333333|WGS84
Valparaíso|Marga Marga|Villa Alemana|2003-2004|FUNDO EL RINCON|2003-11-06|16:04|15.0|Sin alerta|No definido|Incendios intencionales|0.0|0.0|0.0|0.0|0.0|0.0|0.0|0.2|0.0|0.0|0.2|-33.05222222222222|-71.32944444444445|WGS84
Valparaíso|Marga Marga|Villa Alemana|2003-2004|FINAL LOS AROMOS|2003-11-06|16:18|15.0|Sin alerta|No definido|Tránsito de personasvehículos o aeronaves|0.0|0.0|0.0|0.0|0.0|0.0|0.0|0.02|0.0|0.0|0.02|-33.06111111111111|-71.34027777777777|WGS84
Valparaíso|Valparaíso|Viña del Mar|2003-2004|JARDIN BOTANICO|2003-11-07|00:14|231.0|Sin alerta|No definido|Tránsito de personasvehículos o aeronaves|0.0|0.0|0.0|0.0|0.0|0.0|0.2|0.8|0.0|0.0|1.0|-33.04888888888889|-71.51138888888889|WGS84
Valparaíso|Valparaíso|Viña del Mar|2003-2004|JARDIN BOTANICO|2003-11-07|12:14|76.0|Sin alerta|No definido|Tránsito de personasvehículos o aeronaves|0.0|0.0|0.0|0.4|0.0|0.0|0.1|0.0|0.0|0.0|0.5|-33.04888888888889|-71.51138888888889|WGS84
Valparaíso|Marga Marga|Villa Alemana|2003-2004|FINAL CALLE UNION|2003-11-07|16:50|78.0|Sin alerta|No definido|Incendios intencionales|0.0|0.0|0.0|0.0|0.0|0.0|0.2|0.8|0.0|0.0|1.0|-33.03305555555556|-71.39305555555555|WGS84
Valparaíso|Valparaíso|Viña del Mar|2003-2004|JARDIN BOTANICO|2003-11-07|17:00|98.0|Sin alerta|No definido|Tránsito de personasvehículos o aeronaves|0.0|0.0|0.0|0.1|0.0|0.0|0.2|0.1|0.0|0.0|0.4|-33.04888888888889|-71.51138888888889|WGS84
Valparaíso|Marga Marga|Villa Alemana|2003-2004|FINAL LAS AMERICAS|2003-11-07|17:05|64.0|Sin alerta|No definido|Incendios intencionales|0.0|0.0|0.0|0.0|0.0|0.0|0.1|0.5|0.0|0.0|0.6|-33.024166666666666|-71.39277777777778|WGS84
Valparaíso|Marga Marga|Villa Alemana|2003-2004|SECTOR NORTE|2003-11-08|12:55|40.0|Sin alerta|No definido|Incendios intencionales|0.0|0.0|0.0|0.0|0.0|0.0|0.02|0.0|0.0|0.0|0.02|-33.04222222222222|-71.38277777777778|WGS84
Valparaíso|Marga Marga|Villa Alemana|2003-2004|ALTURA PARADERO 3 PEÑABLANCA|2003-11-08|15:38|13.0|Sin alerta|No definido|Incendios intencionales|0.0|0.0|0.0|0.0|0.0|0.0|0.0|0.02|0.0|0.0|0.02|-33.04277777777778|-71.36138888888888|WGS84
Valparaíso|Marga Marga|Villa Alemana|2003-2004|PARADERO 11 Y MEDIO|2003-11-08|16:13|30.0|Sin alerta|No definido|Incendios intencionales|0.0|0.0|0.0|0.0|0.0|0.0|0.01|0.07|0.0|0.0|0.08|-33.04222222222222|-71.39333333333333|WGS84
Valparaíso|Marga Marga|Villa Alemana|2003-2004|POBLACION JHON KENNEDY|2003-11-08|18:12|29.0|Sin alerta|No definido|Incendios intencionales|0.0|0.0|0.0|0.0|0.0|0.0|0.0|0.02|0.0|0.0|0.02|-33.06027777777778|-71.38305555555556|WGS84
Valparaíso|Valparaíso|Viña del Mar|2003-2004|VILLA DULCE|2003-11-09|16:30|130.0|Sin alerta|No definido|Incendios intencionales|0.0|0.0|0.0|0.0|0.0|0.5|1.0|1.5|0.0|0.0|3.0|-33.03111111111111|-71.5|WGS84
Valparaíso|Marga Marga|Villa Alemana|2003-2004|FINAL FDO OLIVARI|2003-11-09|17:39|71.0|Sin alerta|No definido|Tránsito de personasvehículos o aeronaves|0.0|0.0|0.0|0.0|0.0|0.0|1.0|4.0|0.0|0.0|5.0|-33.06944444444444|-71.38333333333334|WGS84
Valparaíso|Valparaíso|Valparaíso|2003-2004|EL FARO FDO CURAUMILLA|2003-11-09|18:00|15.0|Sin alerta|No definido|Incendios intencionales|0.75|0.0|0.0|0.0|0.0|0.0|0.0|0.0|0.0|0.05|0.8|-33.098055555555554|-71.73777777777778|WGS84
Valparaíso|Marga Marga|Villa Alemana|2003-2004|POBLACION WILSON|2003-11-09|18:33|46.0|Sin alerta|No definido|Tránsito de personasvehículos o aeronaves|0.0|0.0|0.0|0.0|0.0|0.0|0.2|0.8|0.0|0.0|1.0|-33.043055555555554|-71.34|WGS84
Valparaíso|Marga Marga|Villa Alemana|2003-2004|SECTOR LAS VEGAS|2003-11-10|13:12|36.0|Sin alerta|No definido|Tránsito de personasvehículos o aeronaves|0.0|0.0|0.0|0.0|0.0|0.0|0.1|0.1|0.0|0.0|0.2|-33.024166666666666|-71.39277777777778|WGS84
Valparaíso|San Antonio|Cartagena|2003-2004|SAPRODI|2003-11-12|16:15|80.0|Sin alerta|No definido|Tránsito de personasvehículos o aeronaves|0.0|0.0|0.0|0.7|0.0|0.0|0.0|0.8|0.0|0.0|1.5|-33.544444444444444|-71.52555555555556|WGS84
Valparaíso|Valparaíso|Viña del Mar|2003-2004|GOMEZ CARREÑO|2003-11-12|16:21|144.0|Sin alerta|No definido|Actividades recreativas|0.0|0.0|0.0|0.0|0.0|0.0|2.0|3.0|0.0|0.0|5.0|-32.985277777777775|-71.53083333333333|WGS84
Valparaíso|San Antonio|San Antonio|2003-2004|ACCESO NUEVO|2003-11-12|16:25|57.0|Sin alerta|No definido|Actividades recreativas|0.0|0.0|0.0|0.0|0.0|0.0|0.0|0.03|0.0|0.0|0.03|-33.57055555555556|-71.56944444444444|WGS84
Valparaíso|Marga Marga|Villa Alemana|2003-2004|SECTOR LAS VEGAS|2003-11-12|19:10|54.0|Sin alerta|No definido|Actividades recreativas|0.0|0.0|0.0|0.0|0.0|0.0|0.0|0.5|0.0|0.0|0.5|-33.024166666666666|-71.39277777777778|WGS84
Valparaíso|San Antonio|Cartagena|2003-2004|CAMINO VIEJO A CARTAGENA|2003-11-13|12:55|53.0|Sin alerta|No definido|Tránsito de personasvehículos o aeronaves|0.0|0.0|0.0|0.03|0.0|0.0|0.0|0.07|0.0|0.0|0.1|-33.5525|-71.56888888888889|WGS84
Valparaíso|Valparaíso|Viña del Mar|2003-2004|JARDIN BOTANICO|2003-11-13|13:31|143.0|Sin alerta|No definido|Incendios intencionales|0.0|0.0|0.0|0.3|0.0|0.0|0.05|0.05|0.0|0.0|0.3999999999999999|-33.04|-71.50027777777778|WGS84
Valparaíso|Valparaíso|Valparaíso|2003-2004|PARQUE INDUSTRIAL|2003-11-13|16:30|60.0|Sin alerta|No definido|Tránsito de personasvehículos o aeronaves|0.01|0.0|0.0|0.0|0.0|0.0|0.0|0.01|0.0|0.01|0.03|-33.12888888888889|-71.56722222222223|WGS84
Valparaíso|San Antonio|El Tabo|2003-2004|FDO SAN RAMON|2003-11-13|18:00|145.0|Sin alerta|No definido|Tránsito de personasvehículos o aeronaves|0.0|0.0|0.0|0.3|0.0|0.0|0.5|1.3|0.0|0.0|2.1|-33.48166666666667|-71.50222222222222|WGS84
Valparaíso|San Antonio|San Antonio|2003-2004|ALTO DE LO GALLARDO|2003-11-13|19:19|842.0|Sin alerta|No definido|Tránsito de personasvehículos o aeronaves|0.0|0.0|0.0|0.0|0.0|0.0|0.04|0.0|0.0|0.0|0.04|-33.62416666666667|-71.5925|WGS84
Valparaíso|Marga Marga|Villa Alemana|2003-2004|CALLE ABTAO|2003-11-13|14:26|13.0|Sin alerta|No definido|Actividades recreativas|0.0|0.0|0.0|0.0|0.0|0.0|0.0|0.03|0.0|0.0|0.03|-33.03388888888889|-71.35027777777778|WGS84
Valparaíso|Marga Marga|Villa Alemana|2003-2004|POBLACION LOS PROFESORES|2003-11-13|15:47|73.0|Sin alerta|No definido|Actividades recreativas|0.0|0.0|0.0|0.0|0.0|0.0|0.0|0.3|0.0|0.0|0.3|-33.033611111111114|-71.36111111111111|WGS84
Valparaíso|Marga Marga|Villa Alemana|2003-2004|POBLACION LAS ROSAS|2003-11-13|16:41|42.0|Sin alerta|No definido|Actividades recreativas|0.0|0.0|0.0|0.0|0.0|0.0|0.0|1.5|0.0|0.0|1.5|-33.01833333333333|-71.3825|WGS84
Valparaíso|San Antonio|Cartagena|2003-2004|CAMINO VIEJO A CARTAGENA|2003-11-15|13:30|90.0|Sin alerta|No definido|Tránsito de personasvehículos o aeronaves|0.0|0.0|0.0|0.01|0.0|0.0|0.0|0.2|0.0|0.0|0.21|-33.54361111111111|-71.56861111111111|WGS84
Valparaíso|Valparaíso|Valparaíso|2003-2004|FDO EL PAJONAL|2003-11-15|18:31|1379.0|Sin alerta|No definido|Tránsito de personasvehículos o aeronaves|0.0|0.0|0.0|0.5|0.0|0.0|0.0|0.0|0.0|0.0|0.5|-33.07416666666666|-71.59777777777778|WGS84
Valparaíso|Marga Marga|Villa Alemana|2003-2004|LAS AMERICAS|2003-11-15|12:20|48.0|Sin alerta|No definido|Actividades recreativas|0.0|0.0|0.0|0.0|0.0|0.0|0.05|0.2|0.0|0.0|0.25|-33.04222222222222|-71.39333333333333|WGS84
Valparaíso|Marga Marga|Villa Alemana|2003-2004|LOS ARRAYANES|2003-11-15|14:14|27.0|Sin alerta|No definido|Tránsito de personasvehículos o aeronaves|0.0|0.0|0.0|0.0|0.0|0.0|0.0|0.05|0.0|0.0|0.05|-33.06111111111111|-71.34027777777777|WGS84
Valparaíso|San Antonio|San Antonio|2003-2004|QDA HUALLIPEN|2003-11-15|18:01|81.0|Sin alerta|No definido|Quema de desechos|0.0|0.0|0.0|0.0|0.0|0.0|0.0|0.08|0.0|0.0|0.08|-33.57888888888889|-71.60194444444444|WGS84
Valparaíso|Marga Marga|Quilpué|2003-2004|POMPEYA SUR|2003-11-17|16:34|132.0|Sin alerta|No definido|Actividades recreativas|0.0|0.0|0.0|0.0|0.0|0.0|0.5|0.5|0.0|0.0|1.0|-33.05888888888889|-71.45805555555556|WGS84
Valparaíso|Valparaíso|Viña del Mar|2003-2004|AGUA SANTA|2003-11-17|16:52|39.0|Sin alerta|No definido|Tránsito de personasvehículos o aeronaves|0.0|0.0|0.0|0.0|0.0|0.0|0.0|0.05|0.0|0.0|0.05|-33.03861111111111|-71.56444444444445|WGS84
Valparaíso|Marga Marga|Limache|2003-2004|CERRO LA VIRGEN|2003-11-17|18:15|133.0|Sin alerta|No definido|Tránsito de personasvehículos o aeronaves|0.0|0.0|0.0|0.0|0.0|0.5|1.0|2.0|0.0|0.0|3.5|-32.943888888888885|-71.33722222222222|WGS84
Valparaíso|Marga Marga|Villa Alemana|2003-2004|CAJON DE LEBU|2003-11-17|15:07|20.0|Sin alerta|No definido|Actividades recreativas|0.0|0.0|0.0|0.0|0.0|0.01|0.01|0.01|0.0|0.0|0.03|-33.025|-71.35|WGS84
Valparaíso|Valparaíso|Casablanca|2003-2004|LA ROTUNDA|2003-11-18|11:40|95.0|Sin alerta|No definido|Actividades recreativas|0.0|0.0|0.0|0.0|0.0|0.0|0.5|1.5|0.0|0.0|2.0|-33.27611111111111|-71.42111111111112|WGS84
Valparaíso|Marga Marga|Quilpué|2003-2004|AVIADOR ACEVEDO|2003-11-18|16:22|36.0|Sin alerta|No definido|Actividades recreativas|0.0|0.0|0.0|0.0|0.0|0.0|0.0|0.03|0.0|0.0|0.03|-33.0325|-71.42527777777778|WGS84
Valparaíso|Valparaíso|Valparaíso|2003-2004|EL PAJONAL|2003-11-18|18:35|85.0|Sin alerta|No definido|Incendios intencionales|0.0|0.0|0.0|0.05|0.0|0.0|0.0|0.0|0.0|0.0|0.05|-33.065|-71.5975|WGS84
Valparaíso|Marga Marga|Villa Alemana|2003-2004|CEMENTERIO PARQUE DEL RECUERDO|2003-11-19|13:00|133.0|Sin alerta|No definido|Quema de desechos|0.0|0.0|0.0|0.0|0.0|0.0|1.0|1.5|0.0|0.0|2.5|-33.06944444444444|-71.37277777777778|WGS84
Valparaíso|Valparaíso|Viña del Mar|2003-2004|JARDIN BOTANICO|2003-11-19|13:10|103.0|Sin alerta|No definido|Tránsito de personasvehículos o aeronaves|0.0|0.0|0.0|0.0|0.0|0.0|0.1|0.2|0.0|0.0|0.3|-33.04|-71.50027777777778|WGS84
Valparaíso|Marga Marga|Villa Alemana|2003-2004|POBLACION WILSON|2003-11-19|14:53|307.0|Sin alerta|No definido|Incendios intencionales|0.0|0.0|0.0|4.6|0.0|227.73|360.15|449.02|0.0|0.0|1041.5|-33.034166666666664|-71.33972222222222|WGS84
Valparaíso|Los Andes|Rinconada|2003-2004|TUNEL CHACABUCO|2003-11-19|14:40|350.0|Sin alerta|No definido|Actividades recreativas|0.0|0.0|0.0|0.0|0.0|0.0|2.0|3.0|0.0|0.0|5.0|-32.95444444444445|-70.685|WGS84
Valparaíso|Marga Marga|Villa Alemana|2003-2004|POBLACION PRAT|2003-11-19|15:55|223.0|Sin alerta|No definido|Actividades recreativas|0.0|0.0|0.0|0.0|0.0|0.0|3.0|4.0|0.0|0.0|7.0|-33.06944444444444|-71.37277777777778|WGS84
Valparaíso|Marga Marga|Quilpué|2003-2004|VILLA PORVENIR|2003-11-19|16:30|118.0|Sin alerta|No definido|Actividades recreativas|0.0|0.0|0.0|1.0|0.0|0.0|0.0|1.0|0.0|0.0|2.0|-33.06861111111111|-71.41555555555556|WGS84
Valparaíso|San Antonio|San Antonio|2003-2004|FDO LLO LLEO|2003-11-19|16:55|36.0|Sin alerta|No definido|Incendios intencionales|0.0|0.0|0.0|0.0|0.0|0.0|0.0|0.01|0.0|0.0|0.01|-33.57888888888889|-71.60194444444444|WGS84
Valparaíso|Valparaíso|Valparaíso|2003-2004|CURAUMA|2003-11-20|14:56|79.0|Sin alerta|No definido|Tránsito de personasvehículos o aeronaves|0.0|0.0|0.0|0.02|0.0|0.0|0.0|0.03|0.0|0.0|0.05|-33.12888888888889|-71.55638888888889|WGS84
Valparaíso|San Antonio|San Antonio|2003-2004|QUEBRADA HUALLIPEN|2003-11-22|15:40|28.0|Sin alerta|No definido|Actividades recreativas|0.0|0.0|0.0|0.0|0.0|0.0|0.0|0.01|0.0|0.0|0.01|-33.57888888888889|-71.60194444444444|WGS84
Valparaíso|Valparaíso|Valparaíso|2003-2004|POBLACION LAS PALMAS|2003-11-22|16:31|55.0|Sin alerta|No definido|Actividades recreativas|0.0|0.0|0.0|0.0|0.0|0.0|0.05|0.1|0.0|0.0|0.15|-33.056666666666665|-71.565|WGS84
Valparaíso|Valparaíso|Viña del Mar|2003-2004|JARDINES DE AGUA SANTA|2003-11-22|17:00|32.0|Sin alerta|No definido|Actividades recreativas|0.0|0.0|0.0|0.0|0.0|0.0|0.0|0.08|0.0|0.0|0.08|-33.03861111111111|-71.56444444444445|WGS84
Valparaíso|Marga Marga|Quilpué|2003-2004|SONACOL|2003-11-22|17:26|94.0|Sin alerta|No definido|Tránsito de personasvehículos o aeronaves|0.0|0.0|0.0|0.05|0.0|0.0|0.05|0.2|0.0|0.0|0.3|-33.15138888888889|-71.34277777777778|WGS84
Valparaíso|Valparaíso|Valparaíso|2003-2004|EL VERGEL|2003-11-22|18:14|118.0|Sin alerta|No definido|Incendios intencionales|0.0|0.0|0.0|0.25|0.0|0.0|0.05|0.0|0.0|0.0|0.3|-33.06472222222222|-71.60805555555555|WGS84
Valparaíso|Marga Marga|Villa Alemana|2003-2004|RUMIE|2003-11-23|12:56|455.0|Sin alerta|No definido|Actividades recreativas|0.0|0.0|0.0|3.0|0.0|7.0|20.0|10.0|0.0|0.0|40.0|-33.024166666666666|-71.39277777777778|WGS84
Valparaíso|Valparaíso|Valparaíso|2003-2004|CERRO SAN JUAN DE DIOS|2003-11-23|15:42|150.0|Sin alerta|No definido|Incendios intencionales|0.0|0.0|0.0|2.0|0.0|0.0|1.5|0.5|0.0|0.0|4.0|-33.055277777777775|-71.62916666666666|WGS84
Valparaíso|Marga Marga|Quilpué|2003-2004|FDO LOS QUILLALLES|2003-11-23|15:59|48.0|Sin alerta|No definido|Tránsito de personasvehículos o aeronaves|0.0|0.0|0.0|2.0|0.0|20.0|10.0|8.0|0.0|0.0|40.0|-33.114444444444445|-71.38472222222222|WGS84
Valparaíso|Marga Marga|Villa Alemana|2003-2004|LAS AMERICAS|2003-11-23|16:40|118.0|Sin alerta|No definido|Actividades recreativas|0.0|0.0|0.0|0.0|0.0|0.0|0.0|0.0|0.0|0.0|0.0|-33.01833333333333|-71.3825|WGS84
Valparaíso|San Antonio|San Antonio|2003-2004|QUEBRADA HOLANDA|2003-11-23|17:23|37.0|Sin alerta|No definido|Actividades recreativas|0.0|0.0|0.0|0.0|0.0|0.0|0.0|0.02|0.0|0.0|0.02|-33.57|-71.60166666666667|WGS84
Valparaíso|Valparaíso|Valparaíso|2003-2004|VALENTIN LETELIER|2003-11-23|18:16|43.0|Sin alerta|No definido|Incendios intencionales|0.0|0.0|0.0|0.0|0.0|0.0|0.06|0.02|0.0|0.0|0.08|-33.06444444444445|-71.62944444444445|WGS84
Valparaíso|San Antonio|Cartagena|2003-2004|LO ABARCA|2003-11-24|12:22|149.0|Sin alerta|No definido|Quema de desechos|0.0|0.0|0.0|0.35|0.0|0.0|0.4|1.2|0.0|0.05|2.0|-33.51722222222222|-71.53555555555556|WGS84
Valparaíso|Marga Marga|Villa Alemana|2003-2004|LOS MARISTAS|2003-11-24|16:24|1234.0|Sin alerta|No definido|Actividades recreativas|0.0|0.0|0.0|3.0|0.0|0.0|2.0|2.0|0.0|0.0|7.0|-33.02444444444444|-71.37138888888889|WGS84
Valparaíso|Valparaíso|Viña del Mar|2003-2004|GOMEZ CARREÑO|2003-11-24|16:29|181.0|Sin alerta|No definido|Actividades recreativas|0.0|0.0|0.0|3.0|0.0|10.0|15.0|12.0|0.0|0.0|40.0|-32.97638888888889|-71.52|WGS84
Valparaíso|Valparaíso|Viña del Mar|2003-2004|VILLA DULCE|2003-11-24|16:35|195.0|Sin alerta|No definido|Actividades recreativas|0.0|0.0|0.0|0.0|0.0|0.0|0.0|1.0|0.0|0.0|1.0|-33.02194444444444|-71.485|WGS84
Valparaíso|San Antonio|San Antonio|2003-2004|QDA BRUCELAS|2003-11-24|16:40|31.0|Sin alerta|No definido|Actividades recreativas|0.0|0.0|0.0|0.0|0.0|0.0|0.0|0.03|0.0|0.0|0.03|-33.560833333333335|-71.60138888888889|WGS84
Valparaíso|Valparaíso|Viña del Mar|2003-2004|PRIMER SECTOR G. CARREÑO|2003-11-21|17:54|48.0|Sin alerta|No definido|Actividades recreativas|0.0|0.0|0.0|0.0|0.0|0.0|0.0|0.5|0.0|0.0|0.5|-32.98555555555556|-71.52027777777778|WGS84
Valparaíso|San Antonio|San Antonio|2003-2004|FDO LLO LLEO|2003-11-24|17:35|33.0|Sin alerta|No definido|Tránsito de personasvehículos o aeronaves|0.0|0.0|0.0|0.0|0.0|0.0|0.0|0.32|0.0|0.0|0.32|-33.60611111111111|-71.59194444444445|WGS84
Valparaíso|Valparaíso|Viña del Mar|2003-2004|FORESTAL ALTO|2003-11-24|18:58|40.0|Sin alerta|No definido|Incendios intencionales|0.0|0.0|0.0|0.0|0.0|0.0|0.0|0.1|0.0|0.0|0.1|-33.04805555555556|-71.55416666666666|WGS84
Valparaíso|Valparaíso|Valparaíso|2003-2004|EL PLATEADO|2003-11-24|19:16|1095.0|Sin alerta|No definido|Actividades recreativas|0.0|0.0|0.0|0.7|0.0|0.8|1.0|0.5|0.0|0.0|3.0|-33.06444444444445|-71.62944444444445|WGS84
Valparaíso|Marga Marga|Quilpué|2003-2004|LOS PERALES|2003-11-24|19:01|92.0|Sin alerta|No definido|Tránsito de personasvehículos o aeronaves|0.0|0.0|0.0|0.0|0.0|0.0|0.0|0.02|0.0|0.0|0.02|-33.124722222222225|-71.31|WGS84
Valparaíso|San Antonio|San Antonio|2003-2004|CERRO LA VIRGEN|2003-11-24|20:30|29.0|Sin alerta|No definido|Tránsito de personasvehículos o aeronaves|0.0|0.0|0.0|0.0|0.0|0.0|0.0|0.5|0.0|0.0|0.5|-33.569722222222225|-71.6125|WGS84
Valparaíso|San Antonio|San Antonio|2003-2004|FDO TREMOLEN|2003-11-25|11:48|207.0|Sin alerta|No definido|Tránsito de personasvehículos o aeronaves|0.0|0.0|0.0|0.0|0.0|0.0|0.5|1.0|0.0|0.0|1.5|-33.62583333333333|-71.51722222222222|WGS84
Valparaíso|Valparaíso|Viña del Mar|2003-2004|LIMONARES|2003-11-25|15:01|163.0|Sin alerta|No definido|Actividades recreativas|0.0|0.0|0.0|0.0|0.0|0.2|0.3|0.1|0.0|0.0|0.6|-33.039722222222224|-71.5111111111111|WGS84
Valparaíso|San Antonio|San Antonio|2003-2004|FDO LLO LLE|2003-11-25|16:00|135.0|Sin alerta|No definido|Tránsito de personasvehículos o aeronaves|0.0|0.0|0.0|0.0|0.0|0.0|1.0|2.0|0.0|0.0|3.0|-33.60638888888889|-71.5813888888889|WGS84
Valparaíso|Valparaíso|Valparaíso|2003-2004|PARQUE INDUSTRIAL CURAUMA|2003-11-26|14:28|82.0|Sin alerta|No definido|Actividades recreativas|0.0|0.0|0.0|0.0|0.0|0.0|0.02|0.05|0.0|0.03|0.1|-33.12888888888889|-71.55638888888889|WGS84
Valparaíso|Valparaíso|Viña del Mar|2003-2004|FUERTE AGUAYO|2003-11-26|14:47|97.0|Sin alerta|No definido|Tránsito de personasvehículos o aeronaves|0.0|0.0|0.0|0.0|0.0|0.0|0.02|0.4|0.0|0.0|0.42|-32.94166666666667|-71.45472222222222|WGS84
Valparaíso|Valparaíso|Valparaíso|2003-2004|PARQUE INDUSTRIAL CURAUMA|2003-11-26|18:15|77.0|Sin alerta|No definido|Actividades recreativas|0.0|0.0|0.0|0.0|0.0|0.0|0.01|0.03|0.0|0.01|0.05|-33.12888888888889|-71.55638888888889|WGS84
Valparaíso|San Antonio|Santo Domingo|2003-2004|MAINTENLAHUE|2003-11-27|15:00|127.0|Sin alerta|No definido|Otras actividades|0.0|0.0|0.0|0.2|0.0|0.0|0.0|0.1|0.0|0.0|0.3|-33.885|-71.62194444444444|WGS84
Valparaíso|Valparaíso|Valparaíso|2003-2004|PAJONAL|2003-11-27|17:06|78.0|Sin alerta|No definido|Actividades recreativas|0.0|0.0|0.0|0.2|0.0|0.0|0.0|0.0|0.0|0.0|0.2|-33.065|-71.5975|WGS84
Valparaíso|San Antonio|Cartagena|2003-2004|CAMINO VIEJO CARTAGENA|2003-11-28|13:30|50.0|Sin alerta|No definido|Tránsito de personasvehículos o aeronaves|0.0|0.0|0.0|0.0|0.0|0.0|0.0|0.4|0.0|0.0|0.4|-33.55222222222222|-71.57972222222222|WGS84
Valparaíso|Valparaíso|Valparaíso|2003-2004|CERRO SAN JUAN DE DIOS|2003-11-28|15:37|99.0|Sin alerta|No definido|Incendios intencionales|0.0|0.0|0.0|0.03|0.0|0.0|0.1|0.07|0.0|0.0|0.2|-33.06444444444445|-71.62944444444445|WGS84
Valparaíso|Valparaíso|Valparaíso|2003-2004|CUESTA COLORADA|2003-11-28|17:25|71.0|Sin alerta|No definido|Incendios intencionales|0.0|0.0|0.0|0.02|0.0|0.0|0.02|0.0|0.0|0.0|0.04|-33.065|-71.5975|WGS84
Valparaíso|San Antonio|San Antonio|2003-2004|CERRO LA VIRGEN|2003-11-28|20:50|123.0|Sin alerta|No definido|Actividades recreativas|0.0|0.0|0.0|0.0|0.0|0.0|0.0|1.0|0.0|0.0|1.0|-33.569722222222225|-71.6125|WGS84
Valparaíso|Valparaíso|Concón|2003-2004|CON CON|2003-11-29|12:39|104.0|Sin alerta|No definido|Tránsito de personasvehículos o aeronaves|0.0|0.0|0.0|0.01|0.0|0.0|0.01|0.03|0.0|0.0|0.05|-32.940555555555555|-71.5188888888889|WGS84
Valparaíso|San Antonio|Cartagena|2003-2004|SANTA ELISA|2003-11-29|13:20|145.0|Sin alerta|No definido|Quema de desechos|0.0|0.0|0.0|0.0|0.0|0.0|0.2|0.8|0.0|0.0|1.0|-33.534166666666664|-71.57916666666667|WGS84
Valparaíso|Marga Marga|Quilpué|2003-2004|VILLA HERMOSA|2003-11-29|14:29|54.0|Sin alerta|No definido|Actividades recreativas|0.0|0.0|0.0|0.0|0.0|0.0|0.1|0.1|0.0|0.0|0.2|-33.03138888888889|-71.4786111111111|WGS84
Valparaíso|Marga Marga|Quilpué|2003-2004|VALENCIA|2003-11-29|14:34|88.0|Sin alerta|No definido|Actividades recreativas|0.0|0.0|0.0|0.0|0.0|0.0|0.0|0.06|0.0|0.0|0.06|-33.04083333333333|-71.4575|WGS84
Valparaíso|San Antonio|San Antonio|2003-2004|CERRO LA VIRGEN|2003-11-29|15:30|45.0|Sin alerta|No definido|Tránsito de personasvehículos o aeronaves|0.0|0.0|0.0|0.0|0.0|0.0|0.0|0.03|0.0|0.0|0.03|-33.569722222222225|-71.6125|WGS84
Valparaíso|San Antonio|San Antonio|2003-2004|FDO LA HIJUELA|2003-11-29|15:45|60.0|Sin alerta|No definido|Actividades recreativas|0.0|0.0|0.0|0.1|0.0|0.0|0.0|0.05|0.0|0.0|0.15|-33.59722222222222|-71.59166666666667|WGS84
Valparaíso|San Antonio|San Antonio|2003-2004|VISTA HERMOSA|2003-11-29|16:15|105.0|Sin alerta|No definido|Tránsito de personasvehículos o aeronaves|0.0|0.0|0.0|0.2|0.0|0.0|0.0|1.0|0.0|0.0|1.2|-33.56055555555555|-71.61222222222223|WGS84
Valparaíso|San Antonio|San Antonio|2003-2004|VISTA HERMOSA|2003-11-29|16:20|130.0|Sin alerta|No definido|Incendios intencionales|0.0|0.0|0.0|4.0|0.0|0.0|0.1|3.4|0.0|0.0|7.5|-33.56055555555555|-71.61222222222223|WGS84
Valparaíso|Valparaíso|Valparaíso|2003-2004|LA PLANTACION|2003-11-30|17:07|130.0|Sin alerta|No definido|Tránsito de personasvehículos o aeronaves|0.0|0.0|0.0|0.5|0.0|0.0|0.1|0.1|0.0|0.0|0.7|-33.09222222222222|-71.5875|WGS84
Valparaíso|Marga Marga|Limache|2003-2004|LOS LEONES|2003-11-30|16:15|72.0|Sin alerta|No definido|Incendios intencionales|0.0|0.0|0.0|0.0|0.0|10.0|20.0|50.0|0.0|0.0|80.0|-33.035833333333336|-71.24333333333334|WGS84
Valparaíso|Quillota|Calera|2003-2004|LOS LEONES|2003-11-30|16:17|113.0|Sin alerta|No definido|Actividades recreativas|0.0|0.0|0.0|0.0|0.0|0.0|0.2|0.2|0.0|0.0|0.4|-32.78388888888889|-71.21555555555555|WGS84
Valparaíso|San Antonio|San Antonio|2003-2004|FDO MIRAMAR|2003-11-30|17:54|28.0|Sin alerta|No definido|Tránsito de personasvehículos o aeronaves|0.0|0.0|0.0|0.0|0.0|0.0|0.0|0.01|0.0|0.0|0.01|-33.57888888888889|-71.60194444444444|WGS84
Valparaíso|San Antonio|San Antonio|2003-2004|FDO MIRAMAR|2003-11-30|18:30|77.0|Sin alerta|No definido|Tránsito de personasvehículos o aeronaves|0.0|0.0|0.0|0.01|0.0|0.0|0.0|0.02|0.0|0.0|0.03|-33.579166666666666|-71.5911111111111|WGS84
Valparaíso|Valparaíso|Valparaíso|2003-2004|PARCELAS DON BOSCO|2003-11-30|19:02|65.0|Sin alerta|No definido|Tránsito de personasvehículos o aeronaves|0.0|0.0|0.0|0.06|0.0|0.0|0.04|0.0|0.0|0.0|0.1|-33.0825|-71.61944444444444|WGS84
Valparaíso|San Antonio|San Antonio|2003-2004|LEYDA|2003-11-30|19:00|113.0|Sin alerta|No definido|Tránsito de personasvehículos o aeronaves|0.0|0.0|0.0|0.01|0.0|0.0|0.0|0.01|0.0|0.0|0.02|-33.62583333333333|-71.50638888888889|WGS84
Valparaíso|Petorca|La Ligua|2003-2004|EL PEUMO|2003-11-30|17:14|196.0|Sin alerta|No definido|Incendios intencionales|0.3|0.0|0.0|0.0|0.0|0.0|0.7|3.0|0.0|0.0|4.0|-32.458888888888886|-71.23944444444444|WGS84
Valparaíso|Marga Marga|Quilpué|2003-2004|FDO SAN JORGE|2003-12-01|14:09|119.0|Sin alerta|No definido|Tránsito de personasvehículos o aeronaves|0.0|0.0|0.0|0.0|0.0|0.0|0.2|0.4|0.0|0.0|0.6000000000000001|-33.03277777777778|-71.41444444444444|WGS84
Valparaíso|San Antonio|San Antonio|2003-2004|CONDOMINIO ALTOS DE SANTO DOMINGO|2003-12-01|14:30|111.0|Sin alerta|No definido|Quema de desechos|0.0|0.0|0.0|0.3|0.0|0.0|0.1|0.6|0.0|0.0|1.0|-33.651944444444446|-71.56111111111112|WGS84
Valparaíso|San Antonio|San Antonio|2003-2004|COLINAS DE SERVIU|2003-12-02|11:55|133.0|Sin alerta|No definido|Quema de desechos|0.0|0.0|0.0|0.1|0.0|0.0|0.4|0.6|0.0|0.0|1.1|-33.56027777777778|-71.62305555555555|WGS84
Valparaíso|San Antonio|Cartagena|2003-2004|CAMINO VIEJO A CARTAGENA|2003-12-02|12:40|50.0|Sin alerta|No definido|Actividades recreativas|0.0|0.0|0.0|0.0|0.0|0.0|0.0|0.04|0.0|0.0|0.04|-33.560833333333335|-71.60138888888889|WGS84
Valparaíso|Valparaíso|Concón|2003-2004|CON CON|2003-12-02|13:40|129.0|Sin alerta|No definido|Actividades recreativas|0.3|0.0|0.0|0.0|0.0|0.0|0.0|0.1|0.0|0.0|0.4|-32.940555555555555|-71.5188888888889|WGS84
Valparaíso|Valparaíso|Viña del Mar|2003-2004|SAUSALITO|2003-12-02|15:41|86.0|Sin alerta|No definido|Actividades recreativas|0.0|0.0|0.0|0.04|0.0|0.0|0.05|0.0|0.0|0.0|0.09|-33.00333333333333|-71.53138888888888|WGS84
Valparaíso|San Antonio|Cartagena|2003-2004|FDO LA FINCA|2003-12-02|15:15|63.0|Sin alerta|No definido|Tránsito de personasvehículos o aeronaves|0.0|0.0|0.0|0.0|0.0|0.0|0.0|0.6|0.0|0.0|0.6|-33.49111111111111|-71.49166666666666|WGS84
Valparaíso|San Antonio|San Antonio|2003-2004|CERRO LA VIRGEN|2003-12-02|20:45|90.0|Sin alerta|No definido|Actividades recreativas|0.0|0.0|0.0|0.0|0.0|0.0|0.0|1.5|0.0|0.0|1.5|-33.56055555555555|-71.61222222222223|WGS84
Valparaíso|San Antonio|San Antonio|2003-2004|VILLA HERMOSA|2003-12-02|21:30|58.0|Sin alerta|No definido|Quema de desechos|0.0|0.0|0.0|0.01|0.0|0.0|0.0|0.04|0.0|0.0|0.05|-33.56055555555555|-71.61222222222223|WGS84
Valparaíso|Valparaíso|Viña del Mar|2003-2004|VILLA ARAUCO|2003-12-03|15:05|51.0|Sin alerta|No definido|Actividades recreativas|0.0|0.0|0.0|0.0|0.0|0.0|0.04|0.06|0.0|0.0|0.1|-33.022222222222226|-71.48916666666666|WGS84
Valparaíso|Marga Marga|Villa Alemana|2003-2004|COOPERATIVA BENITO JUAREZ|2003-12-03|16:11|109.0|Sin alerta|No definido|Actividades recreativas|0.0|0.0|0.0|0.0|0.0|0.0|0.25|0.4|0.0|0.0|0.65|-33.033611111111114|-71.36111111111111|WGS84
Valparaíso|San Antonio|Santo Domingo|2003-2004|FDO LOS LILENES|2003-12-03|16:20|90.0|Sin alerta|No definido|Tránsito de personasvehículos o aeronaves|0.0|0.0|0.0|0.0|0.0|0.0|0.0|0.0|0.0|0.0|0.0|-33.73277777777778|-71.57416666666667|WGS84
Valparaíso|Valparaíso|Viña del Mar|2003-2004|AGUA SANTA 1|2003-12-03|16:47|48.0|Sin alerta|No definido|Actividades recreativas|0.0|0.0|0.0|0.0|0.0|0.0|0.0|0.02|0.0|0.0|0.02|-33.03861111111111|-71.56444444444445|WGS84
Valparaíso|Valparaíso|Viña del Mar|2003-2004|AGUA SANTA 2|2003-12-03|16:47|48.0|Sin alerta|No definido|Actividades recreativas|0.0|0.0|0.0|0.0|0.0|0.0|0.0|0.03|0.0|0.0|0.03|-33.03861111111111|-71.56444444444445|WGS84
Valparaíso|Marga Marga|Limache|2003-2004|LOS LEONES|2003-12-04|12:46|299.0|Sin alerta|No definido|Incendios intencionales|0.0|0.0|0.0|0.0|0.0|0.0|5.0|20.0|0.0|0.0|25.0|-33.04472222222222|-71.25416666666666|WGS84
Valparaíso|Marga Marga|Villa Alemana|2003-2004|LAS TOMAS DE PEÑABLANCA|2003-12-04|14:23|71.0|Sin alerta|No definido|Incendios intencionales|0.0|0.0|0.0|0.0|0.0|0.0|0.1|0.2|0.0|0.0|0.3|-33.03388888888889|-71.35027777777778|WGS84
Valparaíso|San Antonio|San Antonio|2003-2004|VILLA VICTOR DOMINGO SILVA|2003-12-04|15:00|43.0|Sin alerta|No definido|Quema de desechos|0.0|0.0|0.0|0.0|0.0|0.0|0.0|0.35|0.0|0.0|0.35|-33.57|-71.60166666666667|WGS84
Valparaíso|Marga Marga|Quilpué|2003-2004|TENIENTE SERRANO|2003-12-04|16:18|77.0|Sin alerta|No definido|Incendios intencionales|0.0|0.0|0.0|0.0|0.0|0.5|1.0|0.0|0.0|0.0|1.5|-33.06861111111111|-71.41555555555556|WGS84
Valparaíso|Valparaíso|Viña del Mar|2003-2004|REÑACA ALTO|2003-12-04|17:02|90.0|Sin alerta|No definido|Actividades recreativas|0.0|0.0|0.0|0.0|0.0|0.0|0.5|0.3|0.0|0.0|0.8|-33.004444444444445|-71.47805555555556|WGS84
Valparaíso|San Antonio|San Antonio|2003-2004|CANCHA TORINO|2003-12-04|15:54|206.0|Sin alerta|No definido|Tránsito de personasvehículos o aeronaves|0.0|0.0|0.0|0.0|0.0|0.0|0.0|2.0|0.0|0.0|2.0|-33.60583333333334|-71.60277777777777|WGS84
Valparaíso|Marga Marga|Limache|2003-2004|EMBALSE LOS AROMOS|2003-12-05|13:37|348.0|Sin alerta|No definido|Incendios intencionales|0.0|0.0|0.0|3.0|0.0|0.0|5.0|8.0|0.0|0.0|16.0|-32.91833333333334|-71.4225|WGS84
Valparaíso|Valparaíso|Concón|2003-2004|VILLA PRIMAVERA|2003-12-05|14:42|289.0|Sin alerta|No definido|Actividades recreativas|0.0|0.0|0.0|0.0|0.0|0.0|0.1|0.2|0.0|0.0|0.3|-32.931666666666665|-71.50805555555556|WGS84
Valparaíso|Marga Marga|Villa Alemana|2003-2004|FDO HERMANOS MARISTAS|2003-12-05|15:00|217.0|Sin alerta|No definido|Actividades recreativas|0.0|0.0|0.0|1.0|0.0|2.0|2.0|3.0|0.0|0.0|8.0|-33.02444444444444|-71.37138888888889|WGS84
Valparaíso|Marga Marga|Quilpué|2003-2004|LOS MOLLES|2003-12-05|15:27|244.0|Sin alerta|No definido|Tránsito de personasvehículos o aeronaves|0.0|0.0|0.0|0.0|0.0|0.0|0.2|0.3|0.0|0.0|0.5|-33.11527777777778|-71.34166666666667|WGS84
Valparaíso|Valparaíso|Valparaíso|2003-2004|LAGUNA VERDE|2003-12-05|15:02|295.0|Sin alerta|No definido|Incendios intencionales|0.0|0.5|0.0|1.0|0.0|0.0|0.0|0.0|0.0|0.0|1.5|-33.117777777777775|-71.66333333333333|WGS84
Valparaíso|San Antonio|Algarrobo|2003-2004|FDO SAN GERONIMO|2003-12-05|15:57|208.0|Sin alerta|No definido|Incendios de causa desconocida|0.0|0.0|0.0|4.8|0.0|13.08|1.36|44.28|0.0|0.0|63.52|-33.3275|-71.55166666666666|WGS84
Valparaíso|Marga Marga|Limache|2003-2004|CEMENTERIO LIMACHE|2003-12-05|17:38|1167.0|Sin alerta|No definido|Incendios intencionales|0.0|0.0|0.0|0.0|0.0|20.0|20.0|30.0|0.0|0.0|70.0|-33.00833333333333|-71.27472222222222|WGS84
Valparaíso|San Antonio|San Antonio|2003-2004|PELANCURA|2003-12-05|18:46|126.0|Sin alerta|No definido|Quema de desechos|0.0|0.0|0.0|0.1|0.0|0.0|0.2|0.5|0.0|0.0|0.8|-33.56944444444444|-71.62333333333333|WGS84
Valparaíso|San Antonio|San Antonio|2003-2004|FDO BRAMADERO|2003-12-05|20:10|105.0|Sin alerta|No definido|Tránsito de personasvehículos o aeronaves|0.0|0.0|0.0|0.15|0.0|0.0|0.0|0.2|0.0|0.0|0.35|-33.5975|-71.57027777777778|WGS84
Valparaíso|Valparaíso|Valparaíso|2003-2004|CURAUMILLA|2003-12-06|11:25|199.0|Sin alerta|No definido|Incendios intencionales|0.1|0.0|0.0|0.0|0.0|0.0|0.0|0.0|0.0|0.0|0.1|-33.12638888888889|-71.685|WGS84
Valparaíso|Valparaíso|Concón|2003-2004|CON CON|2003-12-06|14:29|124.0|Sin alerta|No definido|Actividades recreativas|0.03|0.0|0.0|0.0|0.0|0.0|0.0|0.07|0.0|0.0|0.1|-32.940555555555555|-71.5188888888889|WGS84
Valparaíso|San Antonio|Cartagena|2003-2004|PUERTO NUEVO|2003-12-06|15:03|122.0|Sin alerta|No definido|Tránsito de personasvehículos o aeronaves|0.0|0.0|0.0|0.0|0.0|0.0|0.04|0.06|0.0|0.0|0.1|-33.551944444444445|-71.60111111111111|WGS84
Valparaíso|Valparaíso|Valparaíso|2003-2004|LAGUNA VERDE|2003-12-06|14:38|147.0|Sin alerta|No definido|Tránsito de personasvehículos o aeronaves|0.0|0.0|0.0|0.0|0.0|0.0|0.05|0.1|0.0|0.0|0.15|-33.108333333333334|-71.68444444444444|WGS84
Valparaíso|San Antonio|El Quisco|2003-2004|FDO HUALLILEMU|2003-12-06|15:10|300.0|Sin alerta|No definido|Actividades recreativas|1.0|0.0|0.0|0.0|0.0|0.0|0.0|0.2|0.0|0.3|1.5|-33.40638888888889|-71.6613888888889|WGS84
Valparaíso|Marga Marga|Limache|2003-2004|FDO LA GLORIA|2003-12-06|16:00|205.0|Sin alerta|No definido|Tránsito de personasvehículos o aeronaves|0.0|0.0|0.0|0.0|0.0|0.0|12.0|18.0|0.0|0.0|30.0|-33.00805555555556|-71.28555555555556|WGS84
Valparaíso|Valparaíso|Viña del Mar|2003-2004|FORESTAL|2003-12-06|17:15|83.0|Sin alerta|No definido|Actividades recreativas|0.0|0.0|0.0|0.0|0.0|0.0|0.1|0.1|0.0|0.0|0.2|-33.04805555555556|-71.55416666666666|WGS84
Valparaíso|Marga Marga|Villa Alemana|2003-2004|RUMIE|2003-12-06|16:50|152.0|Sin alerta|No definido|Tránsito de personasvehículos o aeronaves|0.0|0.0|0.0|0.0|0.0|0.0|1.5|2.5|0.0|0.0|4.0|-33.033611111111114|-71.37166666666667|WGS84
Valparaíso|San Antonio|San Antonio|2003-2004|CERRO LA VIRGEN|2003-12-06|20:42|38.0|Sin alerta|No definido|Actividades recreativas|0.0|0.0|0.0|0.0|0.0|0.0|0.0|1.0|0.0|0.0|1.0|-33.569722222222225|-71.6125|WGS84
Valparaíso|Marga Marga|Quilpué|2003-2004|CUESTA LOS QUILLAYES|2003-12-07|13:12|233.0|Sin alerta|No definido|Tránsito de personasvehículos o aeronaves|0.0|0.0|0.0|0.0|0.0|1.0|1.0|2.0|0.0|0.0|4.0|-33.16916666666667|-71.35388888888889|WGS84
Valparaíso|San Antonio|Cartagena|2003-2004|AV CARTAGENA PARCELA 4|2003-12-07|12:40|55.0|Sin alerta|No definido|Tránsito de personasvehículos o aeronaves|0.0|0.0|0.0|0.0|0.0|0.0|0.02|0.08|0.0|0.0|0.1|-33.543055555555554|-71.59027777777777|WGS84
Valparaíso|Valparaíso|Viña del Mar|2003-2004|JARDIN BOTANICO|2003-12-07|13:39|141.0|Sin alerta|No definido|Tránsito de personasvehículos o aeronaves|0.0|0.0|0.0|0.2|0.0|0.0|1.0|0.8|0.0|0.0|2.0|-33.02194444444444|-71.485|WGS84
Valparaíso|San Antonio|San Antonio|2003-2004|CERRO LA VIRGEN|2003-12-07|14:05|103.0|Sin alerta|No definido|Incendios intencionales|0.03|0.0|0.0|0.0|0.0|0.0|0.07|1.9|0.0|0.0|2.0|-33.569722222222225|-71.6125|WGS84
Valparaíso|Valparaíso|Casablanca|2003-2004|CERRO EL REFUGIO|2003-12-07|16:35|75.0|Sin alerta|No definido|Tránsito de personasvehículos o aeronaves|0.0|0.0|0.0|0.0|0.0|0.0|0.2|0.4|0.0|0.0|0.6000000000000001|-33.312777777777775|-71.39|WGS84
Valparaíso|San Antonio|Cartagena|2003-2004|FDO LO SILVA|2003-12-07|17:50|60.0|Sin alerta|No definido|Tránsito de personasvehículos o aeronaves|0.0|0.0|0.0|0.0|0.0|0.0|0.0|0.15|0.0|0.0|0.15|-33.54333333333334|-71.57944444444445|WGS84
Valparaíso|Valparaíso|Casablanca|2003-2004|LA CARRETA|2003-12-07|17:21|69.0|Sin alerta|No definido|Tránsito de personasvehículos o aeronaves|0.0|0.0|0.0|0.0|0.0|0.0|0.2|0.05|0.0|0.0|0.25|-33.27583333333333|-71.43194444444444|WGS84
Valparaíso|Valparaíso|Casablanca|2003-2004|LO VASQUEZ|2003-12-07|18:53|22.0|Sin alerta|No definido|Tránsito de personasvehículos o aeronaves|0.0|0.0|0.0|0.0|0.0|0.0|0.01|0.01|0.0|0.0|0.02|-33.27583333333333|-71.43194444444444|WGS84
Valparaíso|Valparaíso|Valparaíso|2003-2004|TRANQUE LA LUZ|2003-12-07|20:46|1308.0|Sin alerta|No definido|Accidentes eléctricos|0.0|0.0|0.0|2.0|0.0|0.0|0.0|1.0|0.0|0.0|3.0|-33.09222222222222|-71.5875|WGS84
Valparaíso|San Antonio|San Antonio|2003-2004|QUEBRADA HOLANDA|2003-12-07|21:07|37.0|Sin alerta|No definido|Incendios intencionales|0.0|0.0|0.0|0.02|0.0|0.0|0.0|0.08|0.0|0.0|0.1|-33.57|-71.60166666666667|WGS84
Valparaíso|San Antonio|El Tabo|2003-2004|EL MEMBRILLO|2003-12-08|09:15|119.0|Sin alerta|No definido|Tránsito de personasvehículos o aeronaves|0.0|0.0|0.0|0.0|0.0|0.0|0.0|0.05|0.0|0.0|0.05|-33.47944444444445|-71.60972222222222|WGS84
Valparaíso|San Antonio|El Quisco|2003-2004|FDO HUALLILEMU|2003-12-08|12:10|118.0|Sin alerta|No definido|Tránsito de personasvehículos o aeronaves|0.05|0.0|0.0|0.0|0.0|0.0|0.0|0.1|0.0|0.0|0.15|-33.40638888888889|-71.6613888888889|WGS84
Valparaíso|San Antonio|San Antonio|2003-2004|AGUAS BUENAS|2003-12-08|12:54|61.0|Sin alerta|No definido|Tránsito de personasvehículos o aeronaves|0.1|0.0|0.0|0.0|0.0|0.0|0.0|0.5|0.0|0.0|0.6|-33.57083333333333|-71.5586111111111|WGS84
Valparaíso|Valparaíso|Casablanca|2003-2004|LO VAZQUEZ|2003-12-08|13:20|37.0|Sin alerta|No definido|Actividades recreativas|0.0|0.0|0.0|0.0|0.0|3.0|3.0|2.0|0.0|0.0|8.0|-33.25805555555556|-71.42083333333333|WGS84
Valparaíso|Valparaíso|Viña del Mar|2003-2004|BORRIQUERO|2003-12-08|13:02|45.0|Sin alerta|No definido|Actividades recreativas|0.0|0.0|0.0|0.0|0.0|0.0|0.01|0.04|0.0|0.0|0.05|-33.03861111111111|-71.56444444444445|WGS84
Valparaíso|San Antonio|San Antonio|2003-2004|AGUAS BUENAS|2003-12-08|14:27|93.0|Sin alerta|No definido|No definida|0.0|0.15|0.0|0.0|0.0|0.0|0.0|0.15|0.0|0.0|0.3|-33.57083333333333|-71.5586111111111|WGS84
Valparaíso|Valparaíso|Casablanca|2003-2004|LO VASQUEZ II|2003-12-08|14:38|232.0|Sin alerta|No definido|Tránsito de personasvehículos o aeronaves|0.0|0.0|0.0|0.05|0.0|0.0|0.05|0.1|0.0|0.0|0.2|-33.266666666666666|-71.43166666666667|WGS84
Valparaíso|Valparaíso|Valparaíso|2003-2004|LAGUNA VERDE|2003-12-08|14:20|220.0|Sin alerta|No definido|Incendios intencionales|2.0|0.0|0.0|0.5|0.0|0.0|0.5|2.0|0.0|0.0|5.0|-33.09916666666667|-71.695|WGS84
Valparaíso|Marga Marga|Villa Alemana|2003-2004|LOS PORTUARIOS|2003-12-08|12:42|189.0|Sin alerta|No definido|Tránsito de personasvehículos o aeronaves|0.0|0.0|0.0|0.5|0.0|0.0|0.2|0.3|0.0|0.0|1.0|-33.07888888888889|-71.36222222222223|WGS84
Valparaíso|San Antonio|Algarrobo|2003-2004|POBLACION ESTELA MARY|2003-12-08|15:35|100.0|Sin alerta|No definido|Actividades recreativas|0.0|0.0|0.0|0.4|0.0|0.0|0.0|0.8|0.0|0.0|1.2000000000000002|-33.36138888888889|-71.66|WGS84
Valparaíso|Marga Marga|Villa Alemana|2003-2004|VILLA ALEMANA|2003-12-08|16:03|147.0|Sin alerta|No definido|Tránsito de personasvehículos o aeronaves|0.0|0.0|0.0|0.0|0.0|0.0|0.5|2.0|0.0|0.0|2.5|-33.07861111111111|-71.37305555555555|WGS84
Valparaíso|Valparaíso|Viña del Mar|2003-2004|JARDIN BOTANICO|2003-12-08|17:33|191.0|Sin alerta|No definido|Actividades recreativas|0.0|0.0|0.0|0.1|0.0|0.0|0.05|0.15|0.0|0.0|0.3|-33.04888888888889|-71.50055555555555|WGS84
Valparaíso|San Antonio|El Tabo|2003-2004|FDO CHEPICA|2003-12-08|17:25|103.0|Sin alerta|No definido|Tránsito de personasvehículos o aeronaves|0.0|0.1|0.0|0.0|0.0|0.0|0.0|0.2|0.0|0.0|0.3|-33.44277777777778|-71.64083333333333|WGS84
Valparaíso|Valparaíso|Quintero|2003-2004|FDO SANTA ADELA|2003-12-08|18:05|1117.0|Sin alerta|No definido|Tránsito de personasvehículos o aeronaves|0.0|0.0|0.0|2.0|0.0|0.0|0.0|0.5|0.0|0.0|2.5|-32.87777777777778|-71.49583333333334|WGS84
Valparaíso|Valparaíso|Valparaíso|2003-2004|LOMA NEGRA|2003-12-09|13:40|381.0|Sin alerta|No definido|Accidentes eléctricos|0.08|0.0|0.0|0.3|0.0|0.0|0.0|0.12|0.0|0.0|0.5|-33.10194444444444|-71.55583333333334|WGS84
Valparaíso|Marga Marga|Quilpué|2003-2004|TENIENTE SERRANO|2003-12-09|14:26|234.0|Sin alerta|No definido|Actividades recreativas|0.0|0.0|0.0|3.0|0.0|0.0|5.0|4.0|0.0|0.0|12.0|-33.068888888888885|-71.40472222222222|WGS84
Valparaíso|Marga Marga|Quilpué|2003-2004|LOS PINOS|2003-12-09|14:45|125.0|Sin alerta|No definido|Actividades recreativas|0.0|0.0|0.0|0.3|0.0|0.0|0.5|0.7|0.0|0.0|1.5|-33.06861111111111|-71.42611111111111|WGS84
Valparaíso|Marga Marga|Quilpué|2003-2004|CUESTA LOS QUILLAYES|2003-12-09|15:55|189.0|Sin alerta|No definido|Incendios intencionales|2.0|0.0|0.0|0.3|0.0|1.0|1.2|1.5|0.0|0.0|6.0|-33.15138888888889|-71.34277777777778|WGS84
Valparaíso|Valparaíso|Valparaíso|2003-2004|ANTENA RADIO AGRICULTURA|2003-12-09|16:00|86.0|Sin alerta|No definido|Actividades recreativas|0.0|0.0|0.0|0.05|0.0|0.0|0.1|0.25|0.0|0.0|0.4|-33.06444444444445|-71.62944444444445|WGS84
Valparaíso|San Antonio|San Antonio|2003-2004|POBLACION LA CAMPIÑA|2003-12-09|16:25|25.0|Sin alerta|No definido|Actividades recreativas|0.0|0.0|0.0|0.0|0.0|0.0|0.0|0.01|0.0|0.0|0.01|-33.61527777777778|-71.59222222222222|WGS84
Valparaíso|Marga Marga|Quilpué|2003-2004|VILLA OLIMPICA|2003-12-09|16:55|202.0|Sin alerta|No definido|Tránsito de personasvehículos o aeronaves|0.0|0.0|0.0|0.0|0.0|0.0|0.01|0.02|0.0|0.0|0.03|-33.05888888888889|-71.45805555555556|WGS84
Valparaíso|Quillota|Quillota|2003-2004|RAUTEN|2003-12-09|16:06|241.0|Sin alerta|No definido|Tránsito de personasvehículos o aeronaves|0.0|0.0|0.0|0.0|0.0|0.5|2.5|2.0|0.0|0.0|5.0|-32.891666666666666|-71.23972222222223|WGS84
Valparaíso|San Antonio|San Antonio|2003-2004|PELANCURA|2003-12-09|17:50|108.0|Sin alerta|No definido|Tránsito de personasvehículos o aeronaves|0.0|0.0|0.0|2.0|0.0|0.0|0.0|3.0|0.0|0.0|5.0|-33.56055555555555|-71.61222222222223|WGS84
Valparaíso|Valparaíso|Valparaíso|2003-2004|PARCELA REGIMIENTO MAIPO|2003-12-09|19:00|1041.0|Sin alerta|No definido|Actividades recreativas|0.0|0.0|0.0|1.5|0.0|0.0|0.5|0.5|0.0|0.0|2.5|-33.073055555555555|-71.64055555555555|WGS84
Valparaíso|Valparaíso|Viña del Mar|2003-2004|BELIDOR|2003-12-09|19:18|58.0|Sin alerta|No definido|Tránsito de personasvehículos o aeronaves|0.0|0.0|0.0|0.0|0.0|0.0|0.2|0.3|0.0|0.0|0.5|-33.003055555555555|-71.54222222222222|WGS84
Valparaíso|Marga Marga|Quilpué|2003-2004|CUESTA LOS QUILLAYES|2003-12-09|21:00|138.0|Sin alerta|No definido|Incendios intencionales|0.0|0.0|0.0|0.0|0.0|0.02|0.03|0.05|0.0|0.0|0.1|-33.16027777777778|-71.34305555555555|WGS84
Valparaíso|Valparaíso|Viña del Mar|2003-2004|SKEGA|2003-12-10|12:38|147.0|Sin alerta|No definido|Actividades recreativas|0.0|0.0|0.0|2.0|0.0|0.0|2.5|0.5|0.0|0.0|5.0|-32.967777777777776|-71.50916666666667|WGS84
Valparaíso|Valparaíso|Viña del Mar|2003-2004|AGUA SANTA|2003-12-10|14:26|83.0|Sin alerta|No definido|Tránsito de personasvehículos o aeronaves|0.0|0.0|0.0|0.0|0.0|0.0|0.1|0.25|0.0|0.0|0.35|-33.02972222222222|-71.56444444444445|WGS84
Valparaíso|Valparaíso|Viña del Mar|2003-2004|VILLA HERMOSA|2003-12-10|16:40|133.0|Sin alerta|No definido|Actividades recreativas|0.0|0.0|0.0|0.0|0.0|0.0|2.0|3.0|0.0|0.0|5.0|-33.0225|-71.4786111111111|WGS84
Valparaíso|Valparaíso|Viña del Mar|2003-2004|REÑACA ALTO|2003-12-10|18:13|1148.0|Sin alerta|No definido|Actividades recreativas|0.0|0.0|0.0|0.0|0.0|0.0|30.0|20.0|0.0|0.0|50.0|-33.013333333333335|-71.47833333333334|WGS84
Valparaíso|Valparaíso|Valparaíso|2003-2004|EL VERGEL|2003-12-10|18:09|66.0|Sin alerta|No definido|Incendios intencionales|0.0|0.0|0.0|0.02|0.0|0.0|0.0|0.0|0.0|0.0|0.02|-33.06472222222222|-71.60805555555555|WGS84
Valparaíso|San Antonio|Cartagena|2003-2004|PARCELA 8|2003-12-10|20:28|42.0|Sin alerta|No definido|Incendios intencionales|0.0|0.0|0.0|0.0|0.0|0.0|0.0|0.3|0.0|0.0|0.3|-33.543055555555554|-71.59027777777777|WGS84
Valparaíso|San Antonio|San Antonio|2003-2004|SANTUARIO LOURDES|2003-12-11|11:45|55.0|Sin alerta|No definido|Tránsito de personasvehículos o aeronaves|0.0|0.0|0.0|0.0|0.0|0.0|0.05|0.75|0.0|0.0|0.8|-33.62388888888889|-71.60333333333334|WGS84
Valparaíso|San Antonio|San Antonio|2003-2004|FDO BRAMADERO|2003-12-11|11:55|123.0|Sin alerta|No definido|Tránsito de personasvehículos o aeronaves|0.0|0.0|0.0|0.01|0.0|0.0|0.0|0.0|0.0|0.0|0.01|-33.5975|-71.58111111111111|WGS84
Valparaíso|Marga Marga|Quilpué|2003-2004|FORESTAL ACE|2003-12-11|12:50|82.0|Sin alerta|No definido|Tránsito de personasvehículos o aeronaves|0.0|0.0|0.0|1.0|0.0|0.0|0.5|0.5|0.0|0.0|2.0|-33.015|-71.39277777777778|WGS84
Valparaíso|Valparaíso|Viña del Mar|2003-2004|QUINTA VERGARA|2003-12-11|13:04|173.0|Sin alerta|No definido|Tránsito de personasvehículos o aeronaves|0.0|0.0|0.0|0.4|0.0|0.0|0.1|0.3|0.0|0.0|0.8|-33.03|-71.55361111111111|WGS84
Valparaíso|Valparaíso|Valparaíso|2003-2004|VILLA BERLIN|2003-12-11|14:37|65.0|Sin alerta|No definido|Actividades recreativas|0.0|0.0|0.0|0.0|0.0|0.03|0.02|0.1|0.0|0.0|0.15|-33.0475|-71.57555555555555|WGS84
Valparaíso|Marga Marga|Villa Alemana|2003-2004|RUMIE|2003-12-11|14:56|65.0|Sin alerta|No definido|Actividades recreativas|0.0|0.0|0.0|0.0|0.0|0.0|0.2|0.3|0.0|0.0|0.5|-33.03305555555556|-71.39305555555555|WGS84
Valparaíso|Valparaíso|Valparaíso|2003-2004|LAGUNA VERDE|2003-12-11|15:00|183.0|Sin alerta|No definido|Actividades extinción incendios forestalesincendios estructurales u otros|0.5|0.0|0.0|0.0|0.0|0.0|1.0|1.0|0.0|0.0|2.5|-33.1175|-71.67388888888888|WGS84
Valparaíso|Marga Marga|Villa Alemana|2003-2004|EL BOSQUE|2003-12-11|15:21|1059.0|Sin alerta|No definido|Actividades recreativas|0.0|0.0|0.0|650.0|0.0|250.0|200.0|400.0|0.0|0.0|1500.0|-33.024166666666666|-71.39277777777778|WGS84
Valparaíso|San Antonio|Algarrobo|2003-2004|EL PINAR|2003-12-11|15:20|280.0|Sin alerta|No definido|Quema de desechos|0.0|2.0|0.0|4.0|0.0|0.0|9.0|25.0|0.0|0.0|40.0|-33.37972222222222|-71.63916666666667|WGS84
Valparaíso|Quillota|Nogales|2003-2004|NOGALES|2003-12-11|14:39|351.0|Sin alerta|No definido|Actividades recreativas|0.0|0.0|0.0|0.0|0.0|37.0|90.0|50.0|0.0|0.0|177.0|-32.7025|-71.22416666666666|WGS84
Valparaíso|Marga Marga|Quilpué|2003-2004|BELLOTO NORTE|2003-12-11|16:15|1065.0|Sin alerta|No definido|Actividades recreativas|0.0|0.0|0.0|0.0|0.0|0.0|6.0|1.0|0.0|0.0|7.0|-33.02388888888889|-71.4036111111111|WGS84
Valparaíso|San Antonio|Cartagena|2003-2004|TUMBA EL POETA|2003-12-11|18:43|57.0|Sin alerta|No definido|Tránsito de personasvehículos o aeronaves|0.0|0.0|0.0|0.0|0.0|0.0|0.01|1.49|0.0|0.0|1.5|-33.551944444444445|-71.60111111111111|WGS84
Valparaíso|Valparaíso|Viña del Mar|2003-2004|VILLA DULCE|2003-12-12|13:53|182.0|Sin alerta|No definido|Actividades recreativas|0.0|0.0|0.0|0.0|0.0|0.0|0.5|1.0|0.0|0.0|1.5|-33.02194444444444|-71.485|WGS84
Valparaíso|Valparaíso|Valparaíso|2003-2004|CERRO ESPERANZA|2003-12-12|16:30|109.0|Sin alerta|No definido|Actividades recreativas|0.0|0.0|0.0|0.0|0.0|0.4|0.4|0.2|0.0|0.0|1.0|-33.03611111111111|-71.68222222222222|WGS84
Valparaíso|Valparaíso|Casablanca|2003-2004|CRUCE LA DRAGA|2003-12-12|17:02|178.0|Sin alerta|No definido|Tránsito de personasvehículos o aeronaves|0.0|0.0|0.0|0.0|0.0|0.0|0.5|0.5|0.0|0.0|1.0|-33.28388888888889|-71.475|WGS84
Valparaíso|Valparaíso|Valparaíso|2003-2004|LAGUNA VERDE|2003-12-12|19:37|113.0|Sin alerta|No definido|Actividades recreativas|0.0|0.0|0.0|0.0|0.0|0.1|0.2|0.1|0.0|0.0|0.4|-33.1175|-71.67388888888888|WGS84
Valparaíso|San Antonio|San Antonio|2003-2004|CAMINO VIEJO A CARTAGENA|2003-12-13|10:35|30.0|Sin alerta|No definido|Quema de desechos|0.0|0.0|0.0|0.0|0.0|0.0|0.0|0.01|0.0|0.0|0.01|-33.560833333333335|-71.60138888888889|WGS84
Valparaíso|San Antonio|Cartagena|2003-2004|COSTA AZUL|2003-12-13|13:45|55.0|Sin alerta|No definido|Incendios intencionales|0.0|0.0|0.0|0.0|0.0|0.0|0.0|0.12|0.0|0.0|0.12|-33.51638888888889|-71.57861111111112|WGS84
Valparaíso|Valparaíso|Viña del Mar|2003-2004|POBLACION LAS BRISAS|2003-12-13|16:19|151.0|Sin alerta|No definido|Actividades recreativas|0.0|0.0|0.0|0.2|0.0|0.0|0.8|0.5|0.0|0.0|1.5|-33.02972222222222|-71.56444444444445|WGS84
Valparaíso|Valparaíso|Valparaíso|2003-2004|MONTEDONICO|2003-12-13|16:44|70.0|Sin alerta|No definido|Actividades recreativas|0.0|0.0|0.0|0.0|0.0|0.0|0.5|0.5|0.0|0.0|1.0|-33.055277777777775|-71.64|WGS84
Valparaíso|San Antonio|Algarrobo|2003-2004|CAMINO SAN JOSE|2003-12-13|17:40|90.0|Sin alerta|No definido|Quema de desechos|0.0|0.0|0.0|0.01|0.0|0.0|0.0|1.49|0.0|0.0|1.5|-33.335|-71.62694444444445|WGS84
Valparaíso|Marga Marga|Quilpué|2003-2004|PASO HONDO|2003-12-13|18:14|44.0|Sin alerta|No definido|Tránsito de personasvehículos o aeronaves|0.0|0.0|0.0|0.0|0.0|0.0|0.04|0.05|0.0|0.0|0.09|-33.04055555555556|-71.47888888888889|WGS84
Valparaíso|Marga Marga|Villa Alemana|2003-2004|LOS ARRAYANES|2003-12-13|18:11|73.0|Sin alerta|No definido|Incendios intencionales|0.0|0.0|0.0|0.0|0.0|0.0|0.3|0.7|0.0|0.0|1.0|-33.06138888888889|-71.32972222222222|WGS84
Valparaíso|Marga Marga|Quilpué|2003-2004|FDO LOS ARRAYANES|2003-12-13|18:52|66.0|Sin alerta|No definido|Actividades recreativas|0.0|0.0|0.0|0.02|0.0|0.0|0.02|0.03|0.0|0.0|0.07|-33.04055555555556|-71.46833333333333|WGS84
Valparaíso|Marga Marga|Villa Alemana|2003-2004|EL ALMENDRO|2003-12-13|19:20|61.0|Sin alerta|No definido|Tránsito de personasvehículos o aeronaves|0.0|0.0|0.0|0.0|0.0|0.0|0.1|0.4|0.0|0.0|0.5|-33.0875|-71.37305555555555|WGS84
Valparaíso|Quillota|Quillota|2003-2004|SANTA OLIVIA|2003-12-13|18:15|435.0|Sin alerta|No definido|Actividades recreativas|0.0|0.0|0.0|1.0|0.0|5.0|6.0|8.0|0.0|0.0|20.0|-32.8925|-71.19694444444444|WGS84
Valparaíso|Valparaíso|Concón|2003-2004|RPC|2003-12-13|21:18|77.0|Sin alerta|No definido|Tránsito de personasvehículos o aeronaves|0.0|0.0|0.0|0.0|0.0|0.3|0.7|1.0|0.0|0.0|2.0|-32.93222222222222|-71.47583333333333|WGS84
Valparaíso|Valparaíso|Valparaíso|2003-2004|CURAUMILLA|2003-12-14|11:45|251.0|Sin alerta|No definido|Tránsito de personasvehículos o aeronaves|0.2|0.0|0.0|0.0|0.0|0.0|0.3|1.0|0.0|0.0|1.5|-33.12611111111111|-71.69583333333334|WGS84
Valparaíso|San Antonio|San Antonio|2003-2004|VILLA PERLA DACAUD|2003-12-14|11:39|163.0|Sin alerta|No definido|Actividades recreativas|0.0|0.0|0.0|1.2|0.0|0.0|0.0|0.8|0.0|0.0|2.0|-33.56111111111111|-71.59055555555555|WGS84
Valparaíso|Petorca|La Ligua|2003-2004|CERRO PULMAHUE|2003-12-14|12:20|216.0|Sin alerta|No definido|Actividades recreativas|0.0|0.0|0.0|0.0|0.0|0.0|0.5|0.5|0.0|0.0|1.0|-32.39611111111111|-71.21666666666667|WGS84
Valparaíso|Valparaíso|Viña del Mar|2003-2004|RENE SCHNAIDER|2003-12-14|13:31|240.0|Sin alerta|No definido|Actividades recreativas|0.0|0.0|0.0|1.0|0.0|0.0|2.0|4.0|0.0|0.0|7.0|-33.02111111111111|-71.54277777777777|WGS84
Valparaíso|San Antonio|San Antonio|2003-2004|VILLA EL SOL|2003-12-14|16:29|246.0|Sin alerta|No definido|Quema de desechos|0.0|0.0|0.0|6.5|0.0|0.5|0.0|4.5|0.0|0.0|11.5|-33.56111111111111|-71.59055555555555|WGS84
Valparaíso|Marga Marga|Quilpué|2003-2004|TRANQUE ESVAL|2003-12-14|17:00|164.0|Sin alerta|No definido|Actividades recreativas|0.0|0.0|0.0|0.0|0.0|0.0|0.17|0.7|0.0|0.0|0.87|-33.09583333333333|-71.40555555555555|WGS84
Valparaíso|Marga Marga|Olmué|2003-2004|FDO OJOS BUENOS|2003-12-14|17:44|155.0|Sin alerta|No definido|Actividades recreativas|0.0|0.0|0.0|0.0|0.0|0.0|0.5|1.0|0.0|0.0|1.5|-33.01916666666666|-71.16805555555555|WGS84
Valparaíso|Marga Marga|Quilpué|2003-2004|FDO EL PEQUEN|2003-12-14|18:32|122.0|Sin alerta|No definido|Tránsito de personasvehículos o aeronaves|0.0|0.0|0.0|0.0|0.0|1.0|0.5|0.5|0.0|0.0|2.0|-33.123333333333335|-71.385|WGS84
Valparaíso|Valparaíso|Valparaíso|2003-2004|PUERTA 3 PEÑUELAS|2003-12-14|19:28|68.0|Sin alerta|No definido|Tránsito de personasvehículos o aeronaves|0.0|0.0|0.0|0.02|0.0|0.0|0.0|0.03|0.0|0.0|0.05|-33.12888888888889|-71.56722222222223|WGS84
Valparaíso|Valparaíso|Valparaíso|2003-2004|FDO EL PAJONAL|2003-12-14|19:28|109.0|Sin alerta|No definido|No definida|0.0|0.0|0.0|0.2|0.0|0.0|0.1|0.0|0.0|0.0|0.3|-33.0825|-71.61944444444444|WGS84
Valparaíso|Marga Marga|Quilpué|2003-2004|FDO EL PEQUEN|2003-12-14|18:32|122.0|Sin alerta|No definido|Tránsito de personasvehículos o aeronaves|0.0|0.0|0.0|0.0|0.0|0.0|0.2|0.1|0.0|0.0|0.3|-33.123333333333335|-71.385|WGS84
Valparaíso|Marga Marga|Quilpué|2003-2004|HACIENDA LAS PALMAS|2003-12-14|18:32|122.0|Sin alerta|No definido|Tránsito de personasvehículos o aeronaves|0.0|0.0|0.0|0.0|0.0|0.0|0.03|0.03|0.0|0.0|0.06|-33.123333333333335|-71.39555555555556|WGS84
Valparaíso|Valparaíso|Viña del Mar|2003-2004|CHORRILLOS|2003-12-14|21:49|166.0|Sin alerta|No definido|Tránsito de personasvehículos o aeronaves|0.0|0.0|0.0|0.5|0.0|0.0|0.0|0.3|0.0|0.0|0.8|-33.04833333333333|-71.53277777777778|WGS84
Valparaíso|San Antonio|San Antonio|2003-2004|RUTA G82|2003-12-15|11:15|77.0|Sin alerta|No definido|Tránsito de personasvehículos o aeronaves|0.0|0.0|0.0|0.0|0.0|0.0|0.01|0.01|0.0|0.0|0.02|-33.56166666666667|-71.56916666666666|WGS84
Valparaíso|Marga Marga|Quilpué|2003-2004|POBLACION ARAYA|2003-12-15|12:26|89.0|Sin alerta|No definido|Quema de desechos|0.0|0.0|0.0|0.0|0.0|0.0|0.1|0.1|0.0|0.0|0.2|-33.05916666666667|-71.43666666666667|WGS84
Valparaíso|Marga Marga|Limache|2003-2004|18 DE SEPTIEMBRE|2003-12-15|13:36|141.0|Sin alerta|No definido|Incendios intencionales|0.0|0.0|0.0|0.0|0.0|0.0|6.0|9.0|0.0|0.0|15.0|-33.035555555555554|-71.26472222222222|WGS84
Valparaíso|San Antonio|San Antonio|2003-2004|LAS ACACIAS|2003-12-15|13:30|42.0|Sin alerta|No definido|Actividades recreativas|0.0|0.0|0.0|0.0|0.0|0.0|0.0|0.1|0.0|0.0|0.1|-33.61527777777778|-71.59222222222222|WGS84
Valparaíso|Valparaíso|Concón|2003-2004|LAS GAVIOTAS|2003-12-15|14:04|176.0|Sin alerta|No definido|Actividades recreativas|1.0|0.0|0.0|0.0|0.0|0.0|0.0|2.0|0.0|0.0|3.0|-33.13|-71.51361111111112|WGS84
Valparaíso|San Antonio|San Antonio|2003-2004|FDO LLO LLEO 1|2003-12-15|14:23|99.0|Sin alerta|No definido|Actividades recreativas|0.0|0.0|0.0|0.0|0.0|0.0|0.5|4.5|0.0|0.0|5.0|-33.61527777777778|-71.59222222222222|WGS84
Valparaíso|San Antonio|San Antonio|2003-2004|FDO LLO LLEO|2003-12-15|14:50|388.0|Sin alerta|No definido|Actividades recreativas|0.0|0.0|0.0|0.0|0.0|0.0|0.0|0.1|0.0|0.0|0.1|-33.61527777777778|-71.59222222222222|WGS84
Valparaíso|Marga Marga|Quilpué|2003-2004|LAGUNA DE QUILPUE|2003-12-15|14:57|323.0|Sin alerta|No definido|Incendios intencionales|0.0|0.0|0.0|0.0|0.0|0.0|7.0|10.0|0.0|0.0|17.0|-33.08694444444444|-71.40527777777778|WGS84
Valparaíso|San Antonio|San Antonio|2003-2004|CERRO LA VIRGEN|2003-12-15|14:53|381.0|Sin alerta|No definido|Incendios intencionales|0.0|3.0|0.0|0.0|0.0|0.0|0.0|9.0|0.0|0.0|12.0|-33.56055555555555|-71.61222222222223|WGS84
Valparaíso|Marga Marga|Villa Alemana|2003-2004|PEÑABLANCA|2003-12-15|15:32|100.0|Sin alerta|No definido|Incendios intencionales|0.0|0.0|0.0|0.0|0.0|0.0|0.5|2.0|0.0|0.0|2.5|-33.060833333333335|-71.36166666666666|WGS84
Valparaíso|Valparaíso|Valparaíso|2003-2004|PARQUE INDUSTRIAL CURAUMA|2003-12-15|15:42|333.0|Sin alerta|No definido|Actividades recreativas|0.0|0.15|0.0|0.01|0.0|0.0|0.0|0.09|0.0|0.0|0.25|-33.12888888888889|-71.55638888888889|WGS84
Valparaíso|San Antonio|Santo Domingo|2003-2004|CAMPO ALEGRE|2003-12-15|15:05|415.0|Sin alerta|No definido|Faenas agrícolas y pecuarias|0.0|0.0|3.3|0.0|0.0|0.0|50.4|42.4|0.0|17.2|113.3|-33.865|-71.70777777777778|WGS84
Valparaíso|San Antonio|Cartagena|2003-2004|COLIGUAL|2003-12-15|15:40|97.0|Sin alerta|No definido|Incendios intencionales|0.0|0.0|0.0|0.0|0.0|0.0|5.0|30.0|0.0|0.0|35.0|-33.55222222222222|-71.57972222222222|WGS84
Valparaíso|Valparaíso|Viña del Mar|2003-2004|MIRAFLORES|2003-12-15|17:15|75.0|Sin alerta|No definido|Actividades recreativas|0.0|0.0|0.0|0.0|0.0|0.0|0.1|0.6|0.0|0.0|0.7|-33.02166666666667|-71.51055555555556|WGS84
Valparaíso|Valparaíso|Viña del Mar|2003-2004|SAUSALITO|2003-12-15|17:26|304.0|Sin alerta|No definido|Actividades recreativas|0.0|0.0|0.0|1.0|0.0|0.0|0.7|0.8|0.0|0.0|2.5|-33.02111111111111|-71.54277777777777|WGS84
Valparaíso|Marga Marga|Limache|2003-2004|FDO LOS LEONES|2003-12-15|17:10|79.0|Sin alerta|No definido|Incendios intencionales|0.0|0.0|0.0|0.0|0.0|0.0|1.0|2.0|0.0|0.0|3.0|-33.045|-71.24361111111111|WGS84
Valparaíso|Valparaíso|Valparaíso|2003-2004|RAPA NUI|2003-12-15|18:33|1167.0|Sin alerta|No definido|Tránsito de personasvehículos o aeronaves|0.0|0.0|0.0|0.0|0.0|0.0|0.0|0.0|0.0|0.0|0.0|-33.05638888888889|-71.57583333333334|WGS84
Valparaíso|Valparaíso|Viña del Mar|2003-2004|RENACA ALTO|2003-12-15|18:55|108.0|Sin alerta|No definido|Tránsito de personasvehículos o aeronaves|1.0|0.0|0.0|0.0|0.0|0.0|1.0|2.0|0.0|0.0|4.0|-33.004444444444445|-71.47805555555556|WGS84
Valparaíso|Valparaíso|Valparaíso|2003-2004|CURAUMILLA|2003-12-15|18:47|73.0|Sin alerta|No definido|Tránsito de personasvehículos o aeronaves|300.0|0.0|0.0|0.0|0.0|0.0|100.0|100.0|0.0|0.0|500.0|-33.12611111111111|-71.69583333333334|WGS84
Valparaíso|Valparaíso|Valparaíso|2003-2004|LA ISLA|2003-12-15|19:38|142.0|Sin alerta|No definido|Tránsito de personasvehículos o aeronaves|0.0|0.0|0.0|0.0|0.0|0.0|0.4|0.6|0.0|0.0|1.0|-33.074444444444445|-71.57638888888889|WGS84
Valparaíso|Valparaíso|Viña del Mar|2003-2004|ALTAR PAPAL|2003-12-15|21:43|153.0|Sin alerta|No definido|Incendios intencionales|0.0|0.0|0.0|0.2|0.0|0.3|0.3|0.2|0.0|0.0|1.0|-33.06611111111111|-71.54388888888889|WGS84
Valparaíso|Valparaíso|Valparaíso|2003-2004|PARCELA REGIMIENTO MAIPO|2003-12-15|22:48|972.0|Sin alerta|No definido|Tránsito de personasvehículos o aeronaves|0.0|0.0|0.0|31.0|0.0|0.0|13.0|6.0|0.0|0.0|50.0|-33.073055555555555|-71.6511111111111|WGS84
Valparaíso|Valparaíso|Concón|2003-2004|VILLA PRIMAVERA|2003-12-16|00:06|62.0|Sin alerta|No definido|Incendios intencionales|0.1|0.0|0.0|0.0|0.0|0.0|0.03|0.07|0.0|0.0|0.2|-32.9225|-71.50777777777778|WGS84
Valparaíso|Valparaíso|Valparaíso|2003-2004|ALTAR PAPAL|2003-12-16|01:11|64.0|Sin alerta|No definido|Incendios intencionales|0.0|0.0|0.0|0.0|0.0|0.0|0.1|0.1|0.0|0.0|0.2|-32.9225|-71.50777777777778|WGS84
Valparaíso|San Antonio|San Antonio|2003-2004|FDO LLO LLEO|2003-12-16|00:10|58.0|Sin alerta|No definido|Incendios intencionales|0.0|0.0|0.0|0.0|0.0|0.0|0.01|0.02|0.0|0.0|0.03|-33.60611111111111|-71.59194444444445|WGS84
Valparaíso|Valparaíso|Concón|2003-2004|POBLACION R.P.C|2003-12-16|06:38|742.0|Sin alerta|No definido|Incendios intencionales|2.0|0.0|0.0|0.0|0.0|0.0|3.0|4.0|0.0|0.0|9.0|-32.922777777777775|-71.49694444444444|WGS84
Valparaíso|Valparaíso|Concón|2003-2004|LAGUNA DE MATAGUA|2003-12-16|08:40|736.0|Sin alerta|No definido|Incendios intencionales|0.0|0.0|0.0|0.0|0.0|0.0|0.0|0.03|0.0|0.0|0.03|-32.868611111111115|-71.50611111111111|WGS84
Valparaíso|Marga Marga|Quilpué|2003-2004|VILLA PORVENIR|2003-12-16|08:57|719.0|Sin alerta|No definido|Incendios intencionales|0.0|0.0|0.0|0.0|0.0|0.0|0.3|0.3|0.0|0.0|0.6|-33.05972222222222|-71.41527777777777|WGS84
Valparaíso|San Antonio|Cartagena|2003-2004|CAMINO VIEJO A CARTAGENA|2003-12-16|08:00|548.0|Sin alerta|No definido|Incendios intencionales|0.0|0.0|0.0|0.0|0.0|0.0|0.0|2.8|0.0|0.0|2.8|-33.56138888888889|-71.58|WGS84
Valparaíso|San Antonio|San Antonio|2003-2004|PELANCURA|2003-12-16|07:30|550.0|Sin alerta|No definido|Incendios intencionales|0.0|2.5|0.0|1.0|0.0|0.0|0.5|7.0|0.0|0.0|11.0|-33.569722222222225|-71.6125|WGS84
Valparaíso|Valparaíso|Viña del Mar|2003-2004|LOMAS DE CHORRILLOS|2003-12-16|10:53|457.0|Sin alerta|No definido|Actividades recreativas|0.0|0.0|0.0|30.0|0.0|40.0|90.0|40.0|0.0|0.0|200.0|-33.03944444444444|-71.52166666666666|WGS84
Valparaíso|Marga Marga|Villa Alemana|2003-2004|FDO RECREO|2003-12-16|11:53|508.0|Sin alerta|No definido|Incendios intencionales|0.0|0.0|0.0|20.0|0.0|3.0|7.0|10.0|0.0|0.0|40.0|-33.08722222222222|-71.39472222222223|WGS84
Valparaíso|Valparaíso|Viña del Mar|2003-2004|7 HERNANAS|2003-12-16|12:10|470.0|Sin alerta|No definido|Incendios intencionales|0.0|0.0|0.0|0.0|0.0|1.5|1.5|2.0|0.0|0.0|5.0|-33.056666666666665|-71.565|WGS84
Valparaíso|Valparaíso|Valparaíso|2003-2004|POBLACION LAS PALMAS|2003-12-16|12:04|406.0|Sin alerta|No definido|Actividades recreativas|0.0|0.0|0.0|0.0|0.0|0.0|0.04|0.06|0.0|0.0|0.1|-33.056666666666665|-71.565|WGS84
Valparaíso|Valparaíso|Viña del Mar|2003-2004|VILLA DULCE|2003-12-16|15:00|319.0|Sin alerta|No definido|Incendios intencionales|0.0|0.0|0.0|0.0|0.0|0.0|8.0|17.0|0.0|0.0|25.0|-33.004444444444445|-71.47805555555556|WGS84
Valparaíso|Marga Marga|Villa Alemana|2003-2004|LOMAS DE BELLOTO NORTE|2003-12-16|15:40|267.0|Sin alerta|No definido|Actividades recreativas|0.0|0.0|0.0|0.0|0.0|0.5|1.0|2.5|0.0|0.0|4.0|-33.03305555555556|-71.39305555555555|WGS84
Valparaíso|Valparaíso|Valparaíso|2003-2004|LA PLANTACION|2003-12-16|16:47|92.0|Sin alerta|No definido|Tránsito de personasvehículos o aeronaves|0.0|0.0|0.0|60.0|0.0|5.0|26.0|4.0|0.0|0.0|95.0|-33.09222222222222|-71.5875|WGS84
Valparaíso|San Antonio|Santo Domingo|2003-2004|LA HORNILLA|2003-12-16|17:00|35.0|Sin alerta|No definido|Actividades recreativas|0.0|0.0|0.0|0.0|0.0|0.0|0.0|0.06|0.0|0.0|0.06|-33.64194444444445|-71.60388888888889|WGS84
Valparaíso|Valparaíso|Viña del Mar|2003-2004|RENACA ALTO|2003-12-16|16:49|197.0|Sin alerta|No definido|Actividades recreativas|0.0|1.5|0.0|0.5|0.0|0.0|2.0|3.0|0.0|0.0|7.0|-32.97694444444444|-71.49861111111112|WGS84
Valparaíso|Valparaíso|Viña del Mar|2003-2004|CANAL BEAGLE|2003-12-16|16:18|182.0|Sin alerta|No definido|Actividades recreativas|0.0|0.0|0.0|0.0|0.0|0.0|1.0|1.2|0.0|0.0|2.2|-33.04|-71.50027777777778|WGS84
Valparaíso|Valparaíso|Valparaíso|2003-2004|ROCUANT|2003-12-16|17:46|33.0|Sin alerta|No definido|Tránsito de personasvehículos o aeronaves|0.0|0.0|0.0|2.0|0.0|0.0|1.5|1.5|0.0|0.0|5.0|-33.09222222222222|-71.5875|WGS84
Valparaíso|San Antonio|San Antonio|2003-2004|FDO MIRAMAR|2003-12-16|19:05|85.0|Sin alerta|No definido|Tránsito de personasvehículos o aeronaves|0.0|0.0|0.0|0.07|0.0|0.0|0.03|0.2|0.0|0.0|0.3|-33.58805555555556|-71.59138888888889|WGS84
Valparaíso|Valparaíso|Valparaíso|2003-2004|LAGUNA VERDE|2003-12-17|02:30|390.0|Sin alerta|No definido|Tránsito de personasvehículos o aeronaves|0.0|0.0|0.0|0.0|0.0|0.0|0.1|0.2|0.0|0.0|0.3|-33.10888888888889|-71.65222222222222|WGS84
Valparaíso|San Antonio|El Quisco|2003-2004|FDO HUALLILEMU|2003-12-17|11:25|125.0|Sin alerta|No definido|Tránsito de personasvehículos o aeronaves|0.0|0.0|0.0|0.0|0.0|0.0|0.0|0.0|0.0|0.05|0.05|-33.397222222222226|-71.67166666666667|WGS84
Valparaíso|Marga Marga|Quilpué|2003-2004|BELLOTO NORTE|2003-12-17|15:38|142.0|Sin alerta|No definido|Tránsito de personasvehículos o aeronaves|0.0|0.0|0.0|0.0|0.0|0.0|1.0|1.0|0.0|0.0|2.0|-33.0325|-71.42527777777778|WGS84
Valparaíso|San Antonio|Cartagena|2003-2004|LAS MELLIZAS|2003-12-17|16:10|110.0|Sin alerta|No definido|Tránsito de personasvehículos o aeronaves|0.0|0.0|0.0|0.0|0.0|0.0|0.0|3.0|0.0|0.0|3.0|-33.51611111111111|-71.58944444444444|WGS84
Valparaíso|Valparaíso|Casablanca|2003-2004|FDO MANANTIALES|2003-12-17|16:00|1187.0|Sin alerta|No definido|Tránsito de personasvehículos o aeronaves|0.0|0.0|0.0|0.0|0.0|1.8|1.7|7.0|0.0|1.5|12.0|-33.42638888888889|-71.56527777777778|WGS84
Valparaíso|Valparaíso|Valparaíso|2003-2004|CENTRO RECREATIVO JAVIERA CARRERA|2003-12-18|23:23|92.0|Sin alerta|No definido|Tránsito de personasvehículos o aeronaves|0.0|0.0|0.0|0.05|0.0|0.0|0.02|0.03|0.0|0.0|0.1|-33.05638888888889|-71.58638888888889|WGS84
Valparaíso|Valparaíso|Valparaíso|2003-2004|LA ENGORDA|2003-12-19|11:40|119.0|Sin alerta|No definido|Incendios intencionales|0.0|0.0|0.0|0.0|0.0|0.0|0.05|0.25|0.0|0.0|0.3|-33.19416666666667|-71.45111111111112|WGS84
Valparaíso|Valparaíso|Concón|2003-2004|VILLA PRIMAVERA|2003-12-19|15:18|115.0|Sin alerta|No definido|Actividades recreativas|0.3|0.0|0.0|0.0|0.0|0.0|0.0|0.0|0.0|0.0|0.3|-32.940555555555555|-71.5188888888889|WGS84
Valparaíso|Marga Marga|Quilpué|2003-2004|EL RETIRO|2003-12-19|16:00|38.0|Sin alerta|No definido|Tránsito de personasvehículos o aeronaves|0.0|0.0|0.0|0.0|0.0|0.0|0.0|0.02|0.0|0.0|0.02|-33.041111111111114|-71.44694444444444|WGS84
Valparaíso|San Antonio|Cartagena|2003-2004|ALTOS DE LO ABARCA|2003-12-20|11:50|375.0|Sin alerta|No definido|Tránsito de personasvehículos o aeronaves|0.0|0.0|2.5|6.5|0.0|0.0|0.8|2.2|0.0|0.0|12.0|-33.51722222222222|-71.53555555555556|WGS84
Valparaíso|Marga Marga|Limache|2003-2004|FDO BORRIQUERO|2003-12-20|13:14|406.0|Sin alerta|No definido|Tránsito de personasvehículos o aeronaves|0.0|0.0|0.0|0.0|0.0|50.0|150.0|300.0|0.0|0.0|500.0|-32.98916666666667|-71.32777777777778|WGS84
Valparaíso|San Antonio|Cartagena|2003-2004|PARCELA SAN JUAN|2003-12-20|13:30|268.0|Sin alerta|No definido|Tránsito de personasvehículos o aeronaves|0.0|0.0|0.0|0.7|0.0|0.0|0.0|0.4|0.0|0.0|1.1|-33.62583333333333|-71.50638888888889|WGS84
Valparaíso|San Antonio|San Antonio|2003-2004|PLANICIES DE BELLAVISTA|2003-12-20|13:34|266.0|Sin alerta|No definido|Actividades recreativas|0.0|0.0|0.0|1.0|0.0|0.0|0.0|1.0|0.0|0.0|2.0|-33.56055555555555|-71.61222222222223|WGS84
Valparaíso|Valparaíso|Viña del Mar|2003-2004|VILLA HERMOSA|2003-12-20|15:38|72.0|Sin alerta|No definido|Actividades recreativas|0.0|0.0|0.0|0.0|0.0|0.0|0.35|0.35|0.0|0.0|0.7|-33.03138888888889|-71.4786111111111|WGS84
Valparaíso|San Antonio|Cartagena|2003-2004|ANTENA CANAL 7|2003-12-20|16:03|66.0|Sin alerta|No definido|Incendios intencionales|0.0|0.0|0.0|0.0|0.0|0.0|0.0|0.06|0.0|0.0|0.06|-33.56111111111111|-71.59055555555555|WGS84
Valparaíso|San Antonio|San Antonio|2003-2004|PLANICIES DE BELLAVISTA|2003-12-21|10:30|100.0|Sin alerta|No definido|Actividades recreativas|0.0|0.0|0.0|0.2|0.0|0.0|0.0|1.6|0.0|0.0|1.8|-33.560833333333335|-71.60138888888889|WGS84
Valparaíso|Valparaíso|Quintero|2003-2004|QUINTERO|2003-12-21|11:07|309.0|Sin alerta|No definido|Tránsito de personasvehículos o aeronaves|0.0|0.0|0.0|0.0|0.0|0.0|1.0|2.0|0.0|0.0|3.0|-32.78777777777778|-71.4825|WGS84
Valparaíso|San Antonio|Santo Domingo|2003-2004|LA PRINCESA|2003-12-21|13:40|45.0|Sin alerta|No definido|Quema de desechos|0.0|0.0|0.0|0.05|0.0|0.0|0.0|0.45|0.0|0.0|0.5|-33.669444444444444|-71.58305555555556|WGS84
Valparaíso|San Antonio|San Antonio|2003-2004|PELANCURA|2003-12-21|14:20|73.0|Sin alerta|No definido|Incendios intencionales|0.0|0.0|0.0|0.5|0.0|0.0|0.0|1.0|0.0|0.0|1.5|-33.56055555555555|-71.61222222222223|WGS84
Valparaíso|San Antonio|San Antonio|2003-2004|QDA BRUCELAS|2003-12-21|14:55|32.0|Sin alerta|No definido|Actividades recreativas|0.0|0.0|0.0|0.03|0.0|0.0|0.07|0.4|0.0|0.0|0.5|-33.560833333333335|-71.60138888888889|WGS84
Valparaíso|Valparaíso|Concón|2003-2004|LA SKEGA|2003-12-21|15:00|233.0|Sin alerta|No definido|Actividades recreativas|0.0|0.0|83.5|63.1|0.0|132.2|130.0|38.4|0.0|0.0|447.19999999999993|-32.97638888888889|-71.53055555555555|WGS84
Valparaíso|Valparaíso|Casablanca|2003-2004|PUENTE ESMERALDA|2003-12-21|13:06|257.0|Sin alerta|No definido|Incendios intencionales|0.0|0.0|0.0|0.0|0.0|0.0|1.5|3.5|0.0|0.0|5.0|-33.33972222222222|-71.39083333333333|WGS84
Valparaíso|San Antonio|San Antonio|2003-2004|CERRO EL CRISTO|2003-12-21|15:10|74.0|Sin alerta|No definido|Actividades recreativas|0.0|0.0|0.0|0.0|0.0|0.0|0.0|2.7|0.0|0.0|2.7|-33.615|-71.60305555555556|WGS84
Valparaíso|Valparaíso|Valparaíso|2003-2004|LOS COLIHUES|2003-12-21|15:44|98.0|Sin alerta|No definido|Tránsito de personasvehículos o aeronaves|0.0|0.0|0.0|0.02|0.0|0.0|0.0|0.0|0.0|0.0|0.02|-33.155833333333334|-71.56805555555556|WGS84
Valparaíso|Marga Marga|Villa Alemana|2003-2004|COPA WILSON|2003-12-21|16:06|243.0|Sin alerta|No definido|Incendios intencionales|0.0|0.0|0.0|2.0|0.0|1.0|1.0|2.0|0.0|0.0|6.0|-33.034166666666664|-71.33972222222222|WGS84
Valparaíso|San Antonio|San Antonio|2003-2004|FDO MIRAMAR|2003-12-21|17:50|68.0|Sin alerta|No definido|Incendios intencionales|0.0|0.0|0.01|0.0|0.0|0.0|0.0|0.02|0.0|0.0|0.03|-33.56138888888889|-71.58|WGS84
Valparaíso|Valparaíso|Valparaíso|2003-2004|LA ISLA|2003-12-21|18:09|112.0|Sin alerta|No definido|Incendios intencionales|0.0|0.0|0.0|1.0|0.0|0.0|0.5|0.5|0.0|0.0|2.0|-33.068333333333335|-71.58722222222222|WGS84
Valparaíso|San Antonio|San Antonio|2003-2004|VISTA HERMOSA|2003-12-21|18:25|115.0|Sin alerta|No definido|Incendios intencionales|0.0|0.0|0.0|0.3|0.0|0.0|0.1|0.3|0.0|0.0|0.7|-33.56055555555555|-71.61222222222223|WGS84
Valparaíso|San Antonio|San Antonio|2003-2004|PELANCURA|2003-12-21|21:50|45.0|Sin alerta|No definido|Incendios intencionales|0.0|0.0|0.0|0.0|0.0|0.0|0.0|0.4|0.0|0.0|0.4|-33.56055555555555|-71.61222222222223|WGS84
Valparaíso|San Antonio|San Antonio|2003-2004|ROSEDAL|2003-12-22|07:10|39.0|Sin alerta|No definido|Tránsito de personasvehículos o aeronaves|0.0|0.0|0.0|0.0|0.0|0.0|0.0|0.05|0.0|0.0|0.05|-33.615|-71.60305555555556|WGS84
Valparaíso|Quillota|Nogales|2003-2004|NOGALES|2003-12-22|12:16|187.0|Sin alerta|No definido|Actividades recreativas|0.0|0.0|0.0|0.0|0.0|220.0|134.5|95.5|0.0|0.0|450.0|-32.77472222222222|-71.22611111111111|WGS84
Valparaíso|San Antonio|Cartagena|2003-2004|SANTA ELISA|2003-12-22|12:50|30.0|Sin alerta|No definido|Quema de desechos|0.0|0.0|0.0|0.0|0.0|0.0|0.0|0.01|0.0|0.0|0.01|-33.543055555555554|-71.59027777777777|WGS84
Valparaíso|Valparaíso|Viña del Mar|2003-2004|VILLA ARAUCO|2003-12-22|13:25|301.0|Sin alerta|No definido|Actividades recreativas|0.0|0.0|0.0|0.0|0.0|2.0|3.0|3.0|0.0|0.0|8.0|-33.022222222222226|-71.48916666666666|WGS84
Valparaíso|Valparaíso|Valparaíso|2003-2004|LA ISLA|2003-12-22|14:13|210.0|Sin alerta|No definido|Actividades recreativas|0.0|0.0|0.0|0.0|0.0|0.0|1.5|1.5|0.0|0.0|3.0|-33.08361111111111|-71.57666666666667|WGS84
Valparaíso|Marga Marga|Limache|2003-2004|QUERONQUE|2003-12-22|14:20|165.0|Sin alerta|No definido|Incendios intencionales|0.0|0.0|0.0|0.0|0.0|10.0|40.0|100.0|0.0|0.0|150.0|-32.998333333333335|-71.32805555555555|WGS84
Valparaíso|San Antonio|San Antonio|2003-2004|CERRO EL CRISTO|2003-12-22|15:45|45.0|Sin alerta|No definido|Actividades recreativas|0.0|0.0|0.0|0.0|0.0|0.0|0.0|2.0|0.0|0.0|2.0|-33.62388888888889|-71.60333333333334|WGS84
Valparaíso|Valparaíso|Viña del Mar|2003-2004|VILLA INDEPENDENCIA|2003-12-22|15:39|75.0|Sin alerta|No definido|Actividades recreativas|0.0|0.0|0.0|0.0|0.0|0.0|0.2|0.3|0.0|0.0|0.5|-33.022222222222226|-71.48916666666666|WGS84
Valparaíso|Valparaíso|Viña del Mar|2003-2004|QUINTA VERGARA|2003-12-22|16:44|36.0|Sin alerta|No definido|Tránsito de personasvehículos o aeronaves|0.0|0.0|0.0|0.0|0.0|0.0|0.1|0.1|0.0|0.0|0.2|-33.02111111111111|-71.54277777777777|WGS84
Valparaíso|San Antonio|Cartagena|2003-2004|VERTEDERO CARTAGENA|2003-12-22|16:34|46.0|Sin alerta|No definido|Tránsito de personasvehículos o aeronaves|0.0|0.0|0.0|0.0|0.0|0.0|0.0|0.02|0.0|0.0|0.02|-33.560833333333335|-71.60138888888889|WGS84
Valparaíso|Valparaíso|Viña del Mar|2003-2004|VILLA INDEPENDENCIA|2003-12-22|17:28|58.0|Sin alerta|No definido|Actividades recreativas|0.0|0.0|0.0|0.0|0.0|0.0|0.01|0.01|0.0|0.0|0.02|-33.022222222222226|-71.48916666666666|WGS84
Valparaíso|San Antonio|Cartagena|2003-2004|TUMBA EL POETA|2003-12-22|18:00|40.0|Sin alerta|No definido|Tránsito de personasvehículos o aeronaves|0.0|0.0|0.0|0.0|0.0|0.0|0.2|0.3|0.0|0.0|0.5|-33.551944444444445|-71.60111111111111|WGS84
Valparaíso|Valparaíso|Valparaíso|2003-2004|POBLACION BASICA|2003-12-22|18:44|88.0|Sin alerta|No definido|Actividades recreativas|0.0|0.0|0.0|0.0|0.0|0.0|0.2|0.1|0.0|0.0|0.3|-33.06583333333333|-71.56527777777778|WGS84
Valparaíso|San Antonio|San Antonio|2003-2004|VISTA HERMOSA|2003-12-22|19:55|45.0|Sin alerta|No definido|Tránsito de personasvehículos o aeronaves|0.0|0.0|0.0|0.01|0.0|0.0|0.0|0.05|0.0|0.0|0.06|-33.56055555555555|-71.61222222222223|WGS84
Valparaíso|San Antonio|Cartagena|2003-2004|COPA DE AGUA|2003-12-22|21:20|50.0|Sin alerta|No definido|Tránsito de personasvehículos o aeronaves|0.0|0.0|0.0|0.0|0.0|0.0|0.0|0.5|0.0|0.0|0.5|-33.551944444444445|-71.60111111111111|WGS84
Valparaíso|San Antonio|San Antonio|2003-2004|LAS LOMAS|2003-12-23|10:56|44.0|Sin alerta|No definido|Tránsito de personasvehículos o aeronaves|0.0|0.0|0.0|0.0|0.0|0.0|0.0|0.35|0.0|0.0|0.35|-33.60583333333334|-71.60277777777777|WGS84
Valparaíso|Marga Marga|Villa Alemana|2003-2004|LA WILSON|2003-12-23|14:10|87.0|Sin alerta|No definido|Actividades recreativas|0.0|0.0|0.0|0.1|0.0|0.0|0.3|0.6|0.0|0.0|1.0|-33.043055555555554|-71.34|WGS84
Valparaíso|San Antonio|San Antonio|2003-2004|CERRO LA VIRGEN|2003-12-23|15:35|40.0|Sin alerta|No definido|Tránsito de personasvehículos o aeronaves|0.0|0.0|0.0|0.0|0.0|0.0|0.0|1.0|0.0|0.0|1.0|-33.569722222222225|-71.6125|WGS84
Valparaíso|Valparaíso|Valparaíso|2003-2004|PARQUE INDUSTRIAL CURAUMA|2003-12-23|15:52|269.0|Sin alerta|No definido|Incendios intencionales|0.05|0.0|0.0|0.0|0.0|0.0|0.0|0.15|0.0|0.0|0.2|-33.12888888888889|-71.55638888888889|WGS84
Valparaíso|San Antonio|San Antonio|2003-2004|CERRO LA VIRGEN|2003-12-23|16:28|62.0|Sin alerta|No definido|Tránsito de personasvehículos o aeronaves|0.0|0.0|0.0|0.0|0.0|0.0|0.0|1.5|0.0|0.0|1.5|-33.569722222222225|-71.6125|WGS84
Valparaíso|Valparaíso|Valparaíso|2003-2004|LAGUNA VERDE|2003-12-23|16:32|157.0|Sin alerta|No definido|Tránsito de personasvehículos o aeronaves|0.0|0.0|0.0|0.0|0.0|0.0|0.06|0.02|0.0|0.0|0.08|-33.081944444444446|-71.65138888888889|WGS84
Valparaíso|San Antonio|San Antonio|2003-2004|CERRO EL CRISTO|2003-12-23|17:10|53.0|Sin alerta|No definido|Actividades recreativas|0.0|0.0|0.0|0.0|0.0|0.0|0.0|0.05|0.0|0.0|0.05|-33.62388888888889|-71.60333333333334|WGS84
Valparaíso|San Antonio|San Antonio|2003-2004|VISTA HERMOSA|2003-12-23|19:05|62.0|Sin alerta|No definido|Tránsito de personasvehículos o aeronaves|0.0|0.0|0.0|0.5|0.0|0.0|0.0|1.5|0.0|0.0|2.0|-33.560833333333335|-71.60138888888889|WGS84
Valparaíso|Valparaíso|Valparaíso|2003-2004|CAMINO LAGUNA VERDE|2003-12-23|22:49|1287.0|Sin alerta|No definido|Incendios intencionales|0.0|0.0|0.0|0.3|0.0|0.0|0.2|0.0|0.0|0.0|0.5|-33.090833333333336|-71.65166666666667|WGS84
Valparaíso|San Antonio|Cartagena|2003-2004|COPA DE AGUA|2003-12-24|00:10|72.0|Sin alerta|No definido|Incendios intencionales|0.0|0.0|0.0|0.0|0.0|0.0|0.0|1.0|0.0|0.0|1.0|-33.560833333333335|-71.60138888888889|WGS84
Valparaíso|San Antonio|Cartagena|2003-2004|SANTA ELISA|2003-12-24|13:25|86.0|Sin alerta|No definido|Incendios intencionales|0.0|0.0|0.0|0.2|0.0|0.0|0.0|0.8|0.0|0.0|1.0|-33.543055555555554|-71.59027777777777|WGS84
Valparaíso|Valparaíso|Quintero|2003-2004|QUINTERO|2003-12-24|14:52|128.0|Sin alerta|No definido|Tránsito de personasvehículos o aeronaves|0.0|0.0|0.0|0.0|0.0|0.0|0.0|0.5|0.0|0.0|0.5|-32.76888888888889|-71.53555555555556|WGS84
Valparaíso|San Antonio|San Antonio|2003-2004|ESTACION CARTAGENA|2003-12-24|15:48|28.0|Sin alerta|No definido|Incendios intencionales|0.0|0.0|0.0|0.0|0.0|0.0|0.0|0.15|0.0|0.0|0.15|-33.55166666666667|-71.61194444444445|WGS84
Valparaíso|Valparaíso|Valparaíso|2003-2004|CERRO SAN JUAN DE DIOS|2003-12-24|15:53|50.0|Sin alerta|No definido|Actividades recreativas|0.0|0.0|0.0|0.0|0.0|0.0|0.03|0.06|0.0|0.0|0.09|-33.055277777777775|-71.62916666666666|WGS84
Valparaíso|San Antonio|San Antonio|2003-2004|VISTA HERMOSA|2003-12-24|16:15|40.0|Sin alerta|No definido|Incendios intencionales|0.0|0.0|0.0|0.05|0.0|0.0|0.0|0.15|0.0|0.0|0.2|-33.56055555555555|-71.61222222222223|WGS84
Valparaíso|San Antonio|San Antonio|2003-2004|CERRO EL CRISTO|2003-12-24|19:20|52.0|Sin alerta|No definido|Incendios intencionales|0.0|0.0|0.0|0.0|0.0|0.0|0.0|2.0|0.0|0.0|2.0|-33.615|-71.60305555555556|WGS84
Valparaíso|San Antonio|San Antonio|2003-2004|LA PALOMERA|2003-12-25|06:35|81.0|Sin alerta|No definido|Tránsito de personasvehículos o aeronaves|0.0|0.0|0.0|0.0|0.0|0.0|0.0|1.0|0.0|0.0|1.0|-33.615|-71.60305555555556|WGS84
Valparaíso|San Antonio|Santo Domingo|2003-2004|PARCELA N 27|2003-12-25|14:30|33.0|Sin alerta|No definido|Tránsito de personasvehículos o aeronaves|0.0|0.0|0.0|0.0|0.0|0.0|0.0|0.4|0.0|0.0|0.4|-33.65083333333333|-71.60416666666667|WGS84
Valparaíso|San Antonio|Cartagena|2003-2004|QUILLAICILLO|2003-12-25|15:00|297.0|Sin alerta|No definido|Actividades recreativas|0.0|0.0|0.0|0.25|0.0|0.0|1.05|5.7|0.0|0.0|7.0|-33.49111111111111|-71.49166666666666|WGS84
Valparaíso|Marga Marga|Quilpué|2003-2004|EL RETIRO|2003-12-25|15:57|53.0|Sin alerta|No definido|Actividades recreativas|0.0|0.0|0.0|0.0|0.0|0.0|0.0|0.05|0.0|0.0|0.05|-33.041111111111114|-71.44694444444444|WGS84
Valparaíso|Valparaíso|Casablanca|2003-2004|BOSQUES CHILETABACO|2003-12-25|16:37|97.0|Sin alerta|No definido|Tránsito de personasvehículos o aeronaves|0.0|0.0|0.0|2.0|0.0|0.0|0.0|4.0|0.0|0.0|6.0|-33.3125|-71.40083333333334|WGS84
Valparaíso|Valparaíso|Valparaíso|2003-2004|MARINA MERCANTE|2003-12-25|16:13|98.0|Sin alerta|No definido|Tránsito de personasvehículos o aeronaves|0.0|0.0|0.0|0.0|0.0|0.0|0.0|0.11|0.0|0.0|0.11|-33.04638888888889|-71.62916666666666|WGS84
Valparaíso|Valparaíso|Valparaíso|2003-2004|FDO PAJONAL|2003-12-25|22:50|1046.0|Sin alerta|No definido|Incendios intencionales|0.0|0.0|0.0|0.8|0.0|0.0|0.0|0.2|0.0|0.0|1.0|-33.07416666666666|-71.59777777777778|WGS84
Valparaíso|Valparaíso|Valparaíso|2003-2004|FDO PAJONAL|2003-12-26|13:28|202.0|Sin alerta|No definido|Tránsito de personasvehículos o aeronaves|0.0|0.0|0.0|0.1|0.0|0.0|0.0|0.1|0.0|0.0|0.2|-33.065|-71.5975|WGS84
Valparaíso|Valparaíso|Viña del Mar|2003-2004|VILLA INDEPENDENCIA|2003-12-26|15:12|192.0|Sin alerta|No definido|Incendios intencionales|0.0|0.0|0.0|0.0|0.0|0.0|1.0|1.5|0.0|0.0|2.5|-33.013333333333335|-71.47833333333334|WGS84
Valparaíso|Valparaíso|Valparaíso|2003-2004|POBLACION MANUEL RODRIGUEZ|2003-12-26|17:10|86.0|Sin alerta|No definido|Incendios intencionales|0.0|0.0|0.0|0.0|0.0|0.0|1.0|1.5|0.0|0.0|2.5|-33.07416666666666|-71.58694444444444|WGS84
Valparaíso|Valparaíso|Valparaíso|2003-2004|PINO HUACHO|2003-12-26|17:23|146.0|Sin alerta|No definido|Tránsito de personasvehículos o aeronaves|0.1|0.0|0.0|0.0|0.0|0.05|0.05|0.2|0.0|0.0|0.4|-33.151666666666664|-71.4825|WGS84
Valparaíso|Marga Marga|Quilpué|2003-2004|BELLOTO NORTE|2003-12-26|17:54|264.0|Sin alerta|No definido|Incendios intencionales|0.0|0.0|0.0|0.1|0.0|0.0|0.4|3.5|0.0|0.0|4.0|-33.02333333333333|-71.43555555555555|WGS84
Valparaíso|San Antonio|San Antonio|2003-2004|PELANCURA|2003-12-26|18:40|62.0|Sin alerta|No definido|Tránsito de personasvehículos o aeronaves|0.0|0.0|0.5|0.0|0.0|0.0|0.0|1.0|0.0|0.0|1.5|-33.56027777777778|-71.62305555555555|WGS84
Valparaíso|Valparaíso|Valparaíso|2003-2004|LOS OLIVOS|2003-12-26|18:34|34.0|Sin alerta|No definido|Actividades recreativas|0.0|0.0|0.0|0.0|0.0|0.0|0.01|0.01|0.0|0.0|0.02|-33.11083333333333|-71.56666666666666|WGS84
Valparaíso|San Antonio|San Antonio|2003-2004|CEMENTERIO PARROQUIAL|2003-12-26|19:50|10.0|Sin alerta|No definido|Tránsito de personasvehículos o aeronaves|0.0|0.0|0.0|0.0|0.0|0.0|0.0|0.01|0.0|0.0|0.01|-33.569722222222225|-71.6125|WGS84
Valparaíso|San Antonio|El Tabo|2003-2004|SAN CARLOS|2003-12-26|20:20|67.0|Sin alerta|No definido|Tránsito de personasvehículos o aeronaves|0.0|0.0|0.0|0.0|0.0|0.0|0.5|1.5|0.0|0.0|2.0|-33.50694444444444|-71.59972222222223|WGS84
Valparaíso|Valparaíso|Viña del Mar|2003-2004|EL OLIVAR|2003-12-26|22:33|44.0|Sin alerta|No definido|Actividades recreativas|0.0|0.0|0.0|0.0|0.0|0.0|0.0|0.2|0.0|0.0|0.2|-33.04888888888889|-71.50055555555555|WGS84
Valparaíso|Valparaíso|Valparaíso|2003-2004|PINO HUACHO|2003-12-27|01:09|718.0|Sin alerta|No definido|Tránsito de personasvehículos o aeronaves|0.0|0.01|0.0|0.0|0.0|0.01|0.01|0.02|0.0|0.0|0.05|-33.151666666666664|-71.4825|WGS84
Valparaíso|Valparaíso|Viña del Mar|2003-2004|LA SKEGA|2003-12-27|12:22|535.0|Sin alerta|No definido|Incendios intencionales|0.0|3.0|0.0|3.0|0.0|0.0|4.0|5.0|0.0|0.0|15.0|-32.97666666666667|-71.50916666666667|WGS84
Valparaíso|Valparaíso|Valparaíso|2003-2004|LAS TABLAS|2003-12-27|12:57|302.0|Sin alerta|No definido|Incendios intencionales|0.0|2.0|0.0|0.5|0.0|0.0|0.5|2.0|0.0|0.0|5.0|-33.174166666666665|-71.54694444444445|WGS84
Valparaíso|Valparaíso|Casablanca|2003-2004|MANANTIALES|2003-12-27|14:20|93.0|Sin alerta|No definido|Faenas agrícolas y pecuarias|0.0|0.0|0.0|0.0|0.0|1.0|1.0|6.0|0.0|32.0|40.0|-33.43527777777778|-71.57611111111112|WGS84
Valparaíso|San Antonio|Cartagena|2003-2004|SAN CARLOS|2003-12-27|16:05|115.0|Sin alerta|No definido|Otras actividades|0.0|0.0|0.0|0.0|0.0|0.0|4.0|3.0|0.0|0.0|7.0|-33.50694444444444|-71.59972222222223|WGS84
Valparaíso|San Antonio|San Antonio|2003-2004|QDA HONDA|2003-12-27|14:56|114.0|Sin alerta|No definido|Incendios de causa desconocida|0.0|0.0|0.0|271.0|0.0|207.0|149.0|38.0|0.0|128.0|793.0|-33.64305555555556|-71.55|WGS84
Valparaíso|Valparaíso|Viña del Mar|2003-2004|CONDOMINIO CALAFQUEN|2003-12-27|16:35|1045.0|Sin alerta|No definido|Tránsito de personasvehículos o aeronaves|0.0|0.0|0.0|0.0|0.0|0.0|0.5|1.5|0.0|0.0|2.0|-33.03861111111111|-71.57527777777777|WGS84
Valparaíso|San Antonio|El Tabo|2003-2004|QUILLAICILLO|2003-12-27|14:50|1370.0|Sin alerta|No definido|Quema de desechos|0.0|0.0|0.0|447.21|0.0|115.09|522.3|549.4|0.0|0.0|1634.0|-33.47222222222222|-71.53416666666666|WGS84
Valparaíso|Valparaíso|Valparaíso|2003-2004|ESVAL|2003-12-27|18:05|955.0|Sin alerta|No definido|Incendios intencionales|0.0|0.0|0.0|0.0|0.0|0.0|0.07|0.0|0.0|0.0|0.07|-33.13805555555555|-71.55666666666667|WGS84
Valparaíso|Valparaíso|Valparaíso|2003-2004|MELOSILLA|2003-12-27|18:50|1305.0|Sin alerta|No definido|Tránsito de personasvehículos o aeronaves|0.0|0.0|0.0|0.07|0.0|0.05|0.08|0.0|0.0|0.0|0.2|-33.22055555555556|-71.49472222222222|WGS84
Valparaíso|Valparaíso|Valparaíso|2003-2004|CERRO LA CRUZ|2003-12-27|19:13|1039.0|Sin alerta|No definido|Actividades recreativas|0.0|0.0|0.0|0.0|0.0|0.5|1.0|1.0|0.0|0.0|2.5|-33.06472222222222|-71.60805555555555|WGS84
Valparaíso|Valparaíso|Viña del Mar|2003-2004|NUEVA AURORA|2003-12-27|22:20|155.0|Sin alerta|No definido|Incendios intencionales|0.0|0.0|0.0|0.0|0.0|0.1|0.4|0.3|0.0|0.0|0.8|-33.047777777777775|-71.56472222222222|WGS84
Valparaíso|Valparaíso|Viña del Mar|2003-2004|LA SKEGA|2003-12-28|12:07|369.0|Sin alerta|No definido|Incendios intencionales|6.0|0.0|0.0|3.0|0.0|10.0|4.0|4.0|0.0|0.0|27.0|-32.97666666666667|-71.50916666666667|WGS84
Valparaíso|Valparaíso|Casablanca|2003-2004|LOS MAITENES|2003-12-28|13:08|202.0|Sin alerta|No definido|Actividades recreativas|0.0|0.0|0.0|1.0|0.0|0.0|3.0|2.0|0.0|0.0|6.0|-33.420833333333334|-71.39305555555555|WGS84
Valparaíso|Valparaíso|Viña del Mar|2003-2004|LA SKEGA|2003-12-28|17:13|173.0|Sin alerta|No definido|Incendios intencionales|0.0|0.0|1.0|0.0|0.0|0.0|0.5|0.5|0.0|0.0|2.0|-32.97666666666667|-71.50916666666667|WGS84
Valparaíso|San Antonio|El Quisco|2003-2004|SANTA JULIA|2003-12-28|17:30|30.0|Sin alerta|No definido|Incendios intencionales|0.0|2.5|0.0|0.02|0.0|0.0|2.0|8.08|0.0|12.4|25.0|-33.397222222222226|-71.66111111111111|WGS84
Valparaíso|Marga Marga|Olmué|2003-2004|LA DORMIDA|2003-12-28|18:00|1405.0|Sin alerta|No definido|Actividades recreativas|0.0|0.0|0.0|0.0|0.0|0.0|18.0|7.0|0.0|0.0|25.0|-33.056111111111115|-71.11527777777778|WGS84
Valparaíso|Valparaíso|Viña del Mar|2003-2004|VILLA ARUCO|2003-12-28|22:00|54.0|Sin alerta|No definido|Actividades recreativas|0.0|0.0|0.0|0.0|0.0|0.0|0.04|0.06|0.0|0.0|0.1|-33.022222222222226|-71.48916666666666|WGS84
Valparaíso|San Antonio|Cartagena|2003-2004|RUIZ TAGLE|2003-12-30|15:20|42.0|Sin alerta|No definido|Tránsito de personasvehículos o aeronaves|0.0|0.0|0.0|0.0|0.0|0.0|0.0|0.02|0.0|0.0|0.02|-33.55166666666667|-71.61194444444445|WGS84
Valparaíso|Valparaíso|Valparaíso|2003-2004|TRANQUE EL PERAL|2003-12-30|17:07|98.0|Sin alerta|No definido|Actividades recreativas|0.0|0.0|0.0|0.0|0.0|0.0|0.0|0.0|0.0|0.0|0.0|-33.12027777777778|-71.54555555555555|WGS84
Valparaíso|Marga Marga|Olmué|2003-2004|LO GAMBOA|2003-12-30|16:59|135.0|Sin alerta|No definido|Tránsito de personasvehículos o aeronaves|0.0|0.0|0.0|0.0|0.0|0.0|0.0|0.0|0.0|0.0|0.0|-33.009166666666665|-71.2213888888889|WGS84
Valparaíso|San Antonio|San Antonio|2003-2004|VIUDA VI|2003-12-31|12:29|52.0|Sin alerta|No definido|Actividades recreativas|0.0|0.0|0.0|0.0|0.0|0.0|0.0|0.02|0.0|0.0|0.02|-33.60611111111111|-71.59194444444445|WGS84
Valparaíso|Valparaíso|Quintero|2003-2004|VALLE ALEGRE|2003-12-31|19:00|85.0|Sin alerta|No definido|Incendios intencionales|0.0|0.0|0.0|0.0|0.0|0.0|1.0|4.0|0.0|0.0|5.0|-32.79833333333333|-71.40805555555555|WGS84
Valparaíso|San Antonio|San Antonio|2003-2004|BRUCELAS|2004-01-01|00:01|62.0|Sin alerta|No definido|Actividades recreativas|0.0|0.0|0.0|0.0|0.0|0.0|0.0|1.5|0.0|0.0|1.5|-33.57|-71.60166666666667|WGS84
Valparaíso|Marga Marga|Quilpué|2003-2004|POMPEYA SUR|2004-01-01|18:06|70.0|Sin alerta|No definido|Actividades recreativas|0.0|0.0|0.0|0.0|0.0|0.0|0.0|0.0|0.0|0.0|0.0|-33.06777777777778|-71.46916666666667|WGS84
Valparaíso|San Antonio|Cartagena|2003-2004|SANTA ELISA|2004-01-01|18:46|31.0|Sin alerta|No definido|Quema de desechos|0.0|0.0|0.0|0.0|0.0|0.0|0.0|0.1|0.0|0.0|0.1|-33.543055555555554|-71.59027777777777|WGS84
Valparaíso|San Antonio|San Antonio|2003-2004|CAMINO VIEJO A CARTAGENA|2004-01-01|21:23|23.0|Sin alerta|No definido|Actividades recreativas|0.0|0.0|0.0|0.0|0.0|0.0|0.0|0.07|0.0|0.0|0.07|-33.560833333333335|-71.60138888888889|WGS84
Valparaíso|San Antonio|Algarrobo|2003-2004|AGUAS MARINAS|2004-01-02|18:10|47.0|Sin alerta|No definido|Tránsito de personasvehículos o aeronaves|0.0|0.0|0.0|0.0|0.0|0.01|0.0|0.01|0.0|0.0|0.02|-33.3525|-71.64888888888889|WGS84
