Región|Provincia|Comuna|Temporada|Nombre|Fecha|Hora inicio|Duración (minutos)|Alerta|Escenario|Causa|Superficie quemada: Pino A [ha]|Superficie quemada: Pino B [ha]|Superficie quemada: Pino C [ha]|Superficie quemada: Eucalípto [ha]|Superficie quemada: Otras plantas [ha]|Superficie quemada: Arbolado [ha]|Superficie quemada: Matorral [ha]|Superficie quemada: Pastizal [ha]|Superficie quemada: Agrícola [ha]|Superficie quemada: Desechos [ha]|Superficie quemada total [ha]|Latitud|Longitud|Datum
Coquimbo|Elqui|Paiguano|2007-2008|LAS PALMAS|2007-09-30|13:00|300.0|Sin alerta|No definido|No definida|0.0|0.0|0.0|2.5|0.0|7.5|12.5|0.0|12.0|0.0|34.5|-30.079166666666666|-70.49944444444445|WGS84
Coquimbo|Elqui|La Serena|2007-2008|QUEBRADA PEÑUELAS|2007-10-03|15:30|210.0|Sin alerta|No definido|No definida|0.0|0.0|0.0|0.1|0.0|0.0|0.0|0.0|0.0|0.0|0.1|-29.95083333333333|-71.26416666666667|WGS84
Coquimbo|Elqui|La Serena|2007-2008|SAN JOSE|2007-10-08|15:30|210.0|Sin alerta|No definido|No definida|0.0|0.0|0.0|0.5|0.0|0.0|0.0|0.0|0.0|0.0|0.5|-29.971944444444446|-71.08833333333334|WGS84
Coquimbo|Limarí|Ovalle|2007-2008|CHIMBA BAJA|2007-11-04|09:00|540.0|Sin alerta|No definido|No definida|0.0|0.0|0.0|30.6|0.0|0.0|4.0|0.0|0.0|0.0|34.6|-30.636666666666663|-71.25888888888889|WGS84
Coquimbo|Choapa|Los Vilos|2007-2008|CAVILOLEN|2007-11-18|14:00|60.0|Sin alerta|No definido|No definida|0.0|0.0|0.0|0.0|0.0|0.9|0.5|0.1|0.0|0.0|1.5|-31.83361111111111|-71.39333333333333|WGS84
Coquimbo|Limarí|Ovalle|2007-2008|CANTA RANA|2007-11-20|17:00|100.0|Sin alerta|No definido|No definida|0.0|0.0|0.0|0.0|0.0|0.0|0.01|0.0|0.0|0.0|0.01|-30.649722222222223|-71.53055555555555|WGS84
Coquimbo|Limarí|Ovalle|2007-2008|LAS SOSSAS|2007-11-22|16:00|1256.0|Sin alerta|No definido|No definida|0.0|0.0|0.0|0.5|0.0|0.0|5.0|0.5|0.0|0.0|6.0|-30.624722222222218|-71.41527777777777|WGS84
Coquimbo|Limarí|Ovalle|2007-2008|LIMARI|2007-12-05|13:30|1310.0|Sin alerta|No definido|No definida|0.0|0.0|0.0|0.1|0.2|0.2|1.1|0.4|0.0|0.0|2.0|-30.64472222222222|-71.31138888888889|WGS84
Coquimbo|Elqui|La Serena|2007-2008|BELLAVISTA|2007-12-05|13:00|290.0|Sin alerta|No definido|No definida|0.0|0.0|0.0|0.0|0.0|0.0|0.0|0.5|0.0|0.0|0.5|-29.9525|-71.16055555555556|WGS84
Coquimbo|Limarí|Ovalle|2007-2008|GUAMALATA|2007-12-12|01:40|1130.0|Sin alerta|No definido|No definida|0.0|0.0|0.0|0.15|0.0|0.0|0.1|0.0|0.45|0.0|0.7|-30.56611111111112|-71.15305555555555|WGS84
Coquimbo|Elqui|La Serena|2007-2008|EL HINOJAL|2007-12-17|15:30|270.0|Sin alerta|No definido|No definida|0.0|0.0|0.0|0.4|0.0|0.0|0.1|0.0|0.0|0.0|0.5|-29.99944444444445|-71.05777777777777|WGS84
Coquimbo|Limarí|Ovalle|2007-2008|BARRAZA|2007-12-21|14:00|233.0|Sin alerta|No definido|No definida|0.0|0.0|0.0|0.0|0.0|0.0|0.3|0.0|0.0|0.0|0.3|-30.6425|-71.43638888888889|WGS84
Coquimbo|Choapa|Los Vilos|2007-2008|QUEREO|2007-12-31|11:20|60.0|Sin alerta|No definido|No definida|0.0|0.0|0.0|0.0|0.0|0.0|0.0|0.03|0.0|0.0|0.03|-31.92194444444445|-71.49083333333333|WGS84
Coquimbo|Choapa|Los Vilos|2007-2008|TILAMA|2008-01-01|10:00|150.0|Sin alerta|No definido|No definida|0.0|0.0|0.0|0.0|0.1|0.0|0.0|0.4|0.0|0.0|0.5|-32.09|-71.1775|WGS84
Coquimbo|Choapa|Illapel|2007-2008|CUZ  CUZ|2008-01-04|16:10|260.0|Sin alerta|No definido|No definida|0.0|0.0|0.0|2.0|0.0|0.0|1.5|4.0|1.5|0.0|9.0|-31.656388888888888|-71.23055555555555|WGS84
Coquimbo|Choapa|Los Vilos|2007-2008|PALO COLORADO|2008-01-08|11:00|160.0|Sin alerta|No definido|No definida|0.0|0.0|0.0|0.0|0.0|0.0|0.08|0.1|0.0|0.0|0.18|-32.04833333333333|-71.48361111111112|WGS84
Coquimbo|Elqui|La Serena|2007-2008|SAN PEDRO|2008-01-09|14:30|190.0|Sin alerta|No definido|No definida|0.0|0.0|0.0|0.0|0.0|0.0|0.0|0.0|0.0|1.0|1.0|-29.881666666666668|-71.08638888888889|WGS84
Coquimbo|Choapa|Los Vilos|2007-2008|LA RUA|2008-01-09|15:00|1220.0|Sin alerta|No definido|No definida|0.0|0.0|0.0|0.0|0.0|1.0|1.0|3.0|0.0|0.0|5.0|-31.989722222222227|-71.23861111111111|WGS84
Coquimbo|Limarí|Ovalle|2007-2008|SANTA CATALINA|2008-01-20|01:30|955.0|Sin alerta|No definido|No definida|0.0|0.0|0.0|0.0|0.0|0.0|7.0|0.5|0.0|0.0|7.5|-30.60194444444445|-71.17472222222223|WGS84
Coquimbo|Choapa|Los Vilos|2007-2008|LA HIJUELAS|2008-01-23|12:00|160.0|Sin alerta|No definido|No definida|0.0|0.0|0.0|0.03|0.0|0.0|0.0|0.05|0.0|0.0|0.08|-32.102222222222224|-71.49555555555555|WGS84
Coquimbo|Limarí|Ovalle|2007-2008|LOS ACACIOS|2008-01-25|18:20|1200.0|Sin alerta|No definido|No definida|0.0|0.0|0.0|1.0|0.0|0.0|2.0|0.5|0.0|0.0|3.5|-30.690555555555555|-71.27083333333333|WGS84
Coquimbo|Choapa|Los Vilos|2007-2008|LOS CONDORES|2008-01-30|16:40|1280.0|Sin alerta|No definido|No definida|0.0|0.0|0.0|0.0|0.0|0.0|4.0|1.0|0.0|0.0|5.0|-32.13305555555556|-71.30583333333334|WGS84
Coquimbo|Elqui|La Serena|2007-2008|EL ROMERO|2008-02-22|16:00|195.0|Sin alerta|No definido|No definida|0.0|0.0|0.0|0.0|0.0|0.0|0.0|0.0|3.0|0.0|3.0|-29.87222222222222|-71.10694444444445|WGS84
Coquimbo|Limarí|Ovalle|2007-2008|LOS OLIVOS|2008-02-23|14:20|305.0|Sin alerta|No definido|No definida|0.0|0.0|0.0|0.0|0.0|0.0|0.0|0.0|5.0|0.0|5.0|-30.60611111111111|-71.44611111111111|WGS84
Coquimbo|Choapa|Illapel|2007-2008|CUZ CUZ I|2008-01-04|13:00|60.0|Sin alerta|No definido|No definida|0.0|0.0|0.0|0.0|0.0|0.0|0.02|0.01|0.0|0.0|0.03|-31.665|-71.24138888888889|WGS84
Coquimbo|Choapa|Illapel|2007-2008|PARCELA 2 CUZ CUZ|2008-01-05|00:15|95.0|Sin alerta|No definido|No definida|0.0|0.0|0.0|0.0|0.0|0.0|0.01|0.01|0.0|0.0|0.02|-31.656388888888888|-71.23055555555555|WGS84
Coquimbo|Choapa|Illapel|2007-2008|PUENTE EL PERAL|2008-01-06|11:00|110.0|Sin alerta|No definido|No definida|0.0|0.0|0.0|0.0|0.0|0.0|0.0|0.01|0.0|0.0|0.01|-31.682777777777776|-71.26277777777777|WGS84
Coquimbo|Choapa|Illapel|2007-2008|LAS ACACIAS|2008-01-10|17:15|95.0|Sin alerta|No definido|No definida|0.0|0.0|0.0|0.0|0.0|0.0|0.15|0.1|0.0|0.0|0.25|-31.691666666666663|-71.26305555555555|WGS84
Coquimbo|Choapa|Salamanca|2007-2008|EL TAMBO|2008-01-10|18:30|270.0|Sin alerta|No definido|No definida|0.0|0.0|0.0|0.01|0.0|0.0|0.0|0.0|0.0|0.0|0.01|-31.813333333333333|-71.0125|WGS84
Coquimbo|Choapa|Salamanca|2007-2008|EL QUEÑE|2008-01-15|13:30|240.0|Sin alerta|No definido|No definida|0.0|0.0|0.0|0.0|0.0|0.0|0.0|0.5|0.0|0.0|0.5|-31.85111111111112|-70.89722222222223|WGS84
Coquimbo|Choapa|Salamanca|2007-2008|SANTA ROSA|2008-01-17|18:00|70.0|Sin alerta|No definido|No definida|0.0|0.0|0.0|0.0|0.0|0.0|0.0|0.16|0.0|0.0|0.16|-31.832500000000003|-70.92833333333333|WGS84
Coquimbo|Choapa|Salamanca|2007-2008|SANTA ROSA I|2008-01-22|13:00|95.0|Sin alerta|No definido|No definida|0.0|0.0|0.0|12.0|0.0|0.0|0.0|0.0|0.0|0.0|12.0|-31.832500000000003|-70.92833333333333|WGS84
Coquimbo|Choapa|Illapel|2007-2008|PINTACURA SUR|2008-01-23|18:40|180.0|Sin alerta|No definido|No definida|0.0|0.0|0.0|0.0|0.0|0.0|0.2|1.0|0.0|0.0|1.2|-31.71944444444444|-71.23222222222222|WGS84
Coquimbo|Choapa|Los Vilos|2007-2008|TOTORALILLO|2008-01-24|20:30|55.0|Sin alerta|No definido|No definida|0.0|0.0|0.0|0.0|0.0|0.0|0.01|0.01|0.0|0.0|0.02|-32.01222222222222|-71.49333333333334|WGS84
Coquimbo|Choapa|Illapel|2007-2008|EMBALSE EL BATO|2008-01-26|16:30|95.0|Sin alerta|No definido|No definida|0.0|0.0|0.0|0.0|0.0|0.0|0.06|0.1|0.0|0.0|0.16|-31.53527777777778|-70.91166666666666|WGS84
Coquimbo|Choapa|Salamanca|2007-2008|SANTA ROSA II|2008-01-29|19:00|102.0|Sin alerta|No definido|No definida|0.0|0.0|0.0|0.0|0.0|0.0|0.0|0.01|0.0|0.0|0.01|-31.83277777777778|-70.91777777777777|WGS84
Coquimbo|Choapa|Salamanca|2007-2008|ENTRE NOS|2008-01-31|15:00|46.0|Sin alerta|No definido|No definida|0.0|0.0|0.0|0.0|0.0|0.0|0.0|0.5|0.0|0.0|0.5|-31.786944444444444|-70.96972222222222|WGS84
Coquimbo|Choapa|Salamanca|2007-2008|EL TAMBO I|2008-01-31|16:00|150.0|Sin alerta|No definido|No definida|0.0|0.0|0.0|0.15|0.0|0.0|0.0|0.0|0.0|0.0|0.15|-31.812777777777782|-71.03361111111111|WGS84
Coquimbo|Limarí|Ovalle|2007-2008|LOS CORRALES|2008-02-28|20:30|840.0|Sin alerta|No definido|No definida|0.0|0.0|0.0|0.03|0.0|0.0|0.0|0.0|0.0|0.0|0.03|-30.61944444444444|-71.2063888888889|WGS84
Coquimbo|Elqui|La Serena|2007-2008|EL ROSARIO|2008-03-03|12:58|302.0|Sin alerta|No definido|No definida|0.0|0.0|0.0|2.5|0.0|0.0|2.0|0.5|0.0|0.0|5.0|-29.989444444444445|-71.10944444444445|WGS84
Coquimbo|Choapa|Illapel|2007-2008|CUZ CUZ II|2008-03-05|15:45|50.0|Sin alerta|No definido|No definida|0.0|0.0|0.0|0.0|0.0|0.0|0.0|0.15|0.0|0.0|0.15|-31.66527777777777|-71.23083333333334|WGS84
Coquimbo|Limarí|Ovalle|2007-2008|POTRERILLOS|2008-03-07|17:30|210.0|Sin alerta|No definido|No definida|0.0|0.0|0.0|1.0|0.0|0.0|0.5|0.0|0.0|0.0|1.5|-30.637500000000003|-71.19638888888889|WGS84
Coquimbo|Limarí|Ovalle|2007-2008|LA CHIMBA|2008-03-30|15:42|373.0|Sin alerta|No definido|No definida|0.0|0.0|0.0|0.0|0.0|0.1|0.9|0.2|0.0|0.0|1.2|-30.662777777777777|-71.3013888888889|WGS84
Valparaíso|Valparaíso|Valparaíso|2007-2008|CURAUMILLA|2007-09-21|13:25|1200.0|Sin alerta|No definido|Incendios intencionales|0.0|8.0|0.0|0.0|0.0|2.0|3.0|0.0|0.0|7.0|20.0|-33.10777777777778|-71.70583333333333|WGS84
Valparaíso|Valparaíso|Valparaíso|2007-2008|EL SAUCE|2007-09-21|11:45|315.0|Sin alerta|No definido|Incendios intencionales|0.0|0.0|0.0|0.3|0.0|0.7|0.5|0.0|0.0|1.5|3.0|-33.12694444444445|-71.65277777777777|WGS84
Valparaíso|Quillota|Quillota|2007-2008|EL HUAPE|2007-09-24|17:20|1360.0|Sin alerta|No definido|Incendios intencionales|0.0|0.0|0.0|0.0|0.0|0.1|0.3|0.0|0.0|0.4|0.8|-32.897777777777776|-71.38944444444445|WGS84
Valparaíso|Marga Marga|Limache|2007-2008|LIMACHE|2007-09-26|16:25|135.0|Sin alerta|No definido|Incendios intencionales|0.0|0.0|0.0|0.04|0.0|0.0|0.06|0.0|0.0|0.0|0.1|-32.98138888888889|-71.26333333333334|WGS84
Valparaíso|Valparaíso|Valparaíso|2007-2008|CURAUMILLA 2|2007-09-27|14:20|165.0|Sin alerta|No definido|Tránsito de personasvehículos o aeronaves|0.0|0.0|2.0|0.0|0.0|0.0|1.0|0.0|0.0|3.0|6.0|-33.09861111111111|-71.71638888888889|WGS84
Valparaíso|Valparaíso|Valparaíso|2007-2008|LA PLANTACION|2007-09-29|13:45|195.0|Sin alerta|No definido|Tránsito de personasvehículos o aeronaves|0.0|0.0|0.0|1.5|0.0|0.0|0.5|0.0|0.0|0.0|2.0|-33.08305555555555|-71.59805555555556|WGS84
Valparaíso|San Antonio|Santo Domingo|2007-2008|CAMPO ALEGRE|2007-10-01|13:10|1370.0|Sin alerta|No definido|Incendios intencionales|1.5|0.0|0.0|0.0|0.0|0.0|0.0|0.0|0.0|0.0|1.5|-33.86472222222222|-71.72944444444444|WGS84
Valparaíso|Marga Marga|Limache|2007-2008|LOS LAURELES|2007-10-02|12:05|81.0|Sin alerta|No definido|Tránsito de personasvehículos o aeronaves|0.0|0.0|0.0|0.02|0.0|0.0|0.03|0.05|0.0|0.0|0.1|-32.971666666666664|-71.30583333333334|WGS84
Valparaíso|Marga Marga|Quilpué|2007-2008|TRANQUE RECREO|2007-10-02|16:15|105.0|Sin alerta|No definido|Tránsito de personasvehículos o aeronaves|0.0|0.0|0.0|0.1|0.0|0.0|0.0|0.2|0.0|0.0|0.3|-33.07833333333333|-71.38361111111111|WGS84
Valparaíso|Valparaíso|Viña del Mar|2007-2008|LOMAS DEL SPORTING|2007-10-03|18:15|78.0|Sin alerta|No definido|Actividades recreativas|0.0|0.0|0.0|0.01|0.0|0.0|0.0|0.01|0.0|0.0|0.02|-33.021388888888886|-71.53194444444445|WGS84
Valparaíso|Valparaíso|Valparaíso|2007-2008|CERRO JIMENEZ 1|2007-10-04|12:35|236.0|Sin alerta|No definido|Incendios intencionales|0.0|0.0|0.0|0.15|0.0|0.0|0.0|0.0|0.0|0.35|0.5|-33.06444444444445|-71.62944444444445|WGS84
Valparaíso|Valparaíso|Valparaíso|2007-2008|CERRO JIMENEZ 2|2007-10-04|20:30|860.0|Sin alerta|No definido|Actividades recreativas|0.0|0.0|0.0|0.01|0.0|0.0|0.01|0.01|0.0|0.0|0.03|-33.055277777777775|-71.62916666666666|WGS84
Valparaíso|Valparaíso|Valparaíso|2007-2008|FUNDO LOS OLIVOS PLACILLA|2007-10-06|16:37|133.0|Sin alerta|No definido|Tránsito de personasvehículos o aeronaves|0.0|0.0|0.0|0.2|0.0|0.0|0.2|0.0|0.0|0.6|1.0|-33.08361111111111|-71.57666666666667|WGS84
Valparaíso|Valparaíso|Valparaíso|2007-2008|FUNDO EL LLANO|2007-10-06|18:10|76.0|Sin alerta|No definido|Actividades recreativas|0.0|0.04|0.0|0.0|0.0|0.0|0.0|0.0|0.0|0.06|0.1|-33.10194444444444|-71.55583333333334|WGS84
Valparaíso|Valparaíso|Valparaíso|2007-2008|LAGUNA VERDE|2007-10-07|15:00|110.0|Sin alerta|No definido|Actividades recreativas|0.0|0.0|0.0|0.0|0.0|0.0|0.0|0.0|0.0|0.05|0.05|-33.1175|-71.67388888888888|WGS84
Valparaíso|Valparaíso|Viña del Mar|2007-2008|VILLA MONTE|2007-10-08|14:10|65.0|Sin alerta|No definido|Actividades recreativas|0.0|0.0|0.0|0.0|0.0|0.01|0.0|0.02|0.0|0.0|0.03|-33.03888888888889|-71.55388888888889|WGS84
Valparaíso|Valparaíso|Valparaíso|2007-2008|FUNDO ADELAIDA|2007-10-09|13:30|240.0|Sin alerta|No definido|Tránsito de personasvehículos o aeronaves|0.0|0.0|0.5|1.0|0.0|0.0|0.0|0.0|0.0|0.0|1.5|-33.10138888888889|-71.58777777777777|WGS84
Valparaíso|San Antonio|San Antonio|2007-2008|VISTA HERMOSA|2007-10-09|12:15|132.0|Sin alerta|No definido|Tránsito de personasvehículos o aeronaves|0.0|0.0|0.3|0.01|0.0|0.0|0.05|0.34|0.0|0.0|0.7|-33.56055555555555|-71.61222222222223|WGS84
Valparaíso|Valparaíso|Valparaíso|2007-2008|FUNDO EL LLANO|2007-10-10|09:57|327.0|Sin alerta|No definido|Tránsito de personasvehículos o aeronaves|0.0|0.0|0.0|0.03|0.0|0.0|0.14|0.03|0.0|0.0|0.2|-33.10194444444444|-71.55583333333334|WGS84
Valparaíso|Petorca|La Ligua|2007-2008|LA POLCURA|2007-10-10|10:20|280.0|Sin alerta|No definido|Faenas agrícolas y pecuarias|0.0|0.0|0.0|2.0|0.0|0.0|1.0|2.0|0.0|0.0|5.0|-32.24805555555555|-70.89472222222223|WGS84
Valparaíso|Valparaíso|Valparaíso|2007-2008|PLACILLA|2007-10-11|17:05|67.0|Sin alerta|No definido|Tránsito de personasvehículos o aeronaves|0.0|0.0|0.0|0.01|0.0|0.0|0.0|0.0|0.0|0.0|0.01|-33.111111111111114|-71.54527777777778|WGS84
Valparaíso|Valparaíso|Viña del Mar|2007-2008|CENIZAS PUERTA 2|2007-10-13|13:24|51.0|Sin alerta|No definido|Tránsito de personasvehículos o aeronaves|0.0|0.0|0.0|0.01|0.0|0.0|0.0|0.0|0.0|0.0|0.01|-33.102222222222224|-71.545|WGS84
Valparaíso|Valparaíso|Viña del Mar|2007-2008|FUNDO LAS CENIZAS EX PALMA 20|2007-10-15|17:25|342.0|Sin alerta|No definido|Incendios intencionales|0.0|0.0|0.0|0.3|0.0|0.0|0.0|0.0|0.0|0.0|0.3|-33.1025|-71.53416666666666|WGS84
Valparaíso|Valparaíso|Valparaíso|2007-2008|CURVA EL PARQUE|2007-10-16|14:30|360.0|Sin alerta|No definido|No definida|0.0|0.0|0.0|0.0|0.0|0.0|0.0|0.0|0.0|0.0|0.0|-33.10194444444444|-71.55583333333334|WGS84
Valparaíso|Valparaíso|Valparaíso|2007-2008|CERRO SAN JUAN DE DIOS|2007-10-16|15:49|125.0|Sin alerta|No definido|Tránsito de personasvehículos o aeronaves|0.0|0.0|0.0|0.0|0.0|0.0|0.5|0.0|0.0|0.0|0.5|-33.064166666666665|-71.64027777777778|WGS84
Valparaíso|Valparaíso|Concón|2007-2008|BOSQUES DE MONTEMAR|2007-10-16|18:20|124.0|Sin alerta|No definido|Actividades recreativas|0.0|0.0|0.2|0.0|0.0|0.0|0.3|0.0|0.0|0.0|0.5|-32.93138888888889|-71.51861111111111|WGS84
Valparaíso|Valparaíso|Valparaíso|2007-2008|LAGUNA VERDE|2007-10-16|18:10|89.0|Sin alerta|No definido|Tránsito de personasvehículos o aeronaves|0.0|1.0|0.0|0.8|0.0|0.0|0.0|0.0|0.0|0.0|1.8|-33.10888888888889|-71.66305555555556|WGS84
Valparaíso|Valparaíso|Valparaíso|2007-2008|PAJONAL|2007-10-16|18:20|1335.0|Sin alerta|No definido|Faenas forestales|0.0|0.0|0.0|8.0|0.0|0.0|0.0|0.0|0.0|7.0|15.0|-33.06472222222222|-71.60805555555555|WGS84
Valparaíso|Valparaíso|Valparaíso|2007-2008|R.N.L.P ENTRADA PRINCIPAL|2007-10-16|20:55|52.0|Sin alerta|No definido|Tránsito de personasvehículos o aeronaves|0.0|0.0|0.0|0.0|0.0|0.0|0.0|0.01|0.0|0.0|0.01|-33.18388888888889|-71.51527777777778|WGS84
Valparaíso|Valparaíso|Concón|2007-2008|LOMAS DE MONTEMAR|2007-10-18|14:50|240.0|Sin alerta|No definido|Actividades recreativas|0.0|1.0|0.0|0.0|0.0|0.0|0.5|0.5|0.0|0.0|2.0|-32.93138888888889|-71.51861111111111|WGS84
Valparaíso|Valparaíso|Quintero|2007-2008|VALLE  ALEGRE|2007-10-19|12:30|255.0|Sin alerta|No definido|Incendios intencionales|0.0|0.0|0.4|0.0|0.0|0.0|0.0|0.0|0.0|0.0|0.4|-32.78805555555556|-71.47194444444445|WGS84
Valparaíso|Valparaíso|Concón|2007-2008|BOSQUES DE MONTEMAR|2007-10-19|16:30|105.0|Sin alerta|No definido|Tránsito de personasvehículos o aeronaves|0.0|0.0|0.0|0.0|0.0|0.0|0.0|0.05|0.0|0.01|0.06|-32.93138888888889|-71.51861111111111|WGS84
Valparaíso|Valparaíso|Concón|2007-2008|LOMAS DE MONTEMAR|2007-10-20|12:05|110.0|Sin alerta|No definido|Incendios intencionales|0.0|0.0|0.0|0.0|0.0|0.0|0.05|0.1|0.0|0.0|0.15|-32.940555555555555|-71.5188888888889|WGS84
Valparaíso|Valparaíso|Valparaíso|2007-2008|LA ISLA|2007-10-20|19:45|68.0|Sin alerta|No definido|Tránsito de personasvehículos o aeronaves|0.0|0.0|0.0|0.0|0.0|0.0|0.01|0.02|0.0|0.0|0.03|-33.06527777777778|-71.58666666666667|WGS84
Valparaíso|Quillota|Calera|2007-2008|CERRO LA CRUZ|2007-10-21|14:20|310.0|Sin alerta|No definido|Tránsito de personasvehículos o aeronaves|0.0|0.0|0.0|0.0|0.0|0.0|1.0|2.0|0.0|0.0|3.0|-32.78527777777778|-71.13027777777778|WGS84
Valparaíso|Marga Marga|Olmué|2007-2008|LO CASTRO OLMUE|2007-10-21|14:18|262.0|Sin alerta|No definido|Tránsito de personasvehículos o aeronaves|0.0|0.0|0.0|0.0|0.0|1.0|3.0|2.0|0.0|0.0|6.0|-33.07388888888889|-71.12638888888888|WGS84
Valparaíso|Valparaíso|Valparaíso|2007-2008|FUNDO EL LLANO|2007-10-21|17:25|42.0|Sin alerta|No definido|Actividades recreativas|0.0|0.01|0.0|0.0|0.0|0.0|0.0|0.01|0.0|0.0|0.02|-33.11055555555556|-71.5775|WGS84
Valparaíso|Valparaíso|Valparaíso|2007-2008|POBLACION CENTRAL|2007-10-23|16:18|57.0|Sin alerta|No definido|Actividades recreativas|0.0|0.0|0.0|0.03|0.0|0.0|0.0|0.0|0.0|0.0|0.03|-33.11944444444445|-71.57777777777778|WGS84
Valparaíso|San Antonio|San Antonio|2007-2008|FUNDO MIRAMAR|2007-10-23|14:45|175.0|Sin alerta|No definido|Tránsito de personasvehículos o aeronaves|0.5|0.0|0.0|0.0|0.0|0.0|0.0|1.5|0.0|0.0|2.0|-33.57|-71.59083333333334|WGS84
Valparaíso|Valparaíso|Valparaíso|2007-2008|RESERVA NACIONAL LAGO PEÑUELAS|2007-10-23|21:55|73.0|Sin alerta|No definido|Tránsito de personasvehículos o aeronaves|0.0|0.0|0.0|0.02|0.0|0.0|0.0|0.03|0.0|0.0|0.05|-33.14694444444444|-71.55694444444444|WGS84
Valparaíso|San Antonio|San Antonio|2007-2008|FUNDO MIRAMAR|2007-10-25|14:35|177.0|Sin alerta|No definido|Tránsito de personasvehículos o aeronaves|5.5|0.0|0.0|0.0|0.0|0.0|0.5|2.0|0.0|0.0|8.0|-33.57|-71.59083333333334|WGS84
Valparaíso|Valparaíso|Viña del Mar|2007-2008|REÑACA ALTO|2007-10-25|17:38|102.0|Sin alerta|No definido|Actividades recreativas|0.0|0.0|0.0|0.0|0.0|0.2|0.1|0.2|0.0|0.0|0.5|-32.97694444444444|-71.49861111111112|WGS84
Valparaíso|Valparaíso|Valparaíso|2007-2008|LA MARIPOSA  PEÑUELAS|2007-10-26|12:55|425.0|Sin alerta|No definido|Incendios intencionales|0.0|0.0|15.0|8.0|0.0|0.0|5.0|0.0|0.0|2.0|30.0|-33.13777777777778|-71.5675|WGS84
Valparaíso|Valparaíso|Valparaíso|2007-2008|ANTENA AGRICULTURA|2007-10-26|14:51|68.0|Sin alerta|No definido|Actividades recreativas|0.0|0.0|0.0|0.0|0.0|0.0|0.4|0.6|0.0|0.0|1.0|-33.055277777777775|-71.62916666666666|WGS84
Valparaíso|Marga Marga|Quilpué|2007-2008|CRUCE COLLIGUAY SONACOL|2007-10-26|15:51|188.0|Sin alerta|No definido|Tránsito de personasvehículos o aeronaves|0.0|0.0|0.0|1.5|0.0|0.0|0.5|4.0|0.0|0.0|6.0|-33.16027777777778|-71.34305555555555|WGS84
Valparaíso|Marga Marga|Quilpué|2007-2008|POMPEYA SUR|2007-10-26|16:42|83.0|Sin alerta|No definido|Actividades recreativas|0.0|0.0|0.0|0.0|0.0|0.0|0.05|0.1|0.0|0.0|0.15|-33.04972222222222|-71.46861111111112|WGS84
Valparaíso|Marga Marga|Quilpué|2007-2008|FUNDO LOS QUILLAYES|2007-10-27|11:10|164.0|Sin alerta|No definido|Tránsito de personasvehículos o aeronaves|0.0|0.0|0.0|0.0|0.0|0.0|0.01|0.03|0.0|0.0|0.04|-33.15138888888889|-71.33194444444445|WGS84
Valparaíso|Valparaíso|Viña del Mar|2007-2008|MIRADOR DE REÑACA|2007-10-27|17:28|82.0|Sin alerta|No definido|Actividades recreativas|0.0|0.0|0.0|0.02|0.0|0.0|0.0|0.08|0.0|0.0|0.1|-32.995|-71.49916666666667|WGS84
Valparaíso|San Antonio|San Antonio|2007-2008|FUNDO MIRAMAR|2007-10-29|09:00|217.0|Sin alerta|No definido|Incendios intencionales|0.0|0.0|0.0|1.1|0.0|0.0|0.0|0.32|0.0|0.0|1.4200000000000002|-33.57944444444445|-71.58055555555555|WGS84
Valparaíso|Marga Marga|Limache|2007-2008|TABOLANGO|2007-10-29|13:00|267.0|Sin alerta|No definido|Tránsito de personasvehículos o aeronaves|0.0|0.0|0.0|0.9|0.0|0.0|0.1|0.6|0.0|0.0|1.6|-32.91583333333333|-71.39|WGS84
Valparaíso|San Antonio|Cartagena|2007-2008|LO ZARATE|2007-10-29|14:00|90.0|Sin alerta|No definido|Incendios intencionales|0.0|0.0|0.0|0.03|0.0|0.0|0.0|0.02|0.0|0.0|0.05|-33.526666666666664|-71.51416666666667|WGS84
Valparaíso|Valparaíso|Valparaíso|2007-2008|CURAUMILLA|2007-10-29|15:57|195.0|Sin alerta|No definido|Incendios intencionales|0.0|8.0|0.0|0.0|0.0|0.0|3.0|1.0|0.0|3.0|15.0|-33.11694444444444|-71.69555555555556|WGS84
Valparaíso|Valparaíso|Viña del Mar|2007-2008|FUNDO LAS CENIZAS|2007-10-31|17:40|50.0|Sin alerta|No definido|Tránsito de personasvehículos o aeronaves|0.0|0.0|0.0|0.04|0.0|0.0|0.0|0.0|0.0|0.0|0.04|-33.102222222222224|-71.545|WGS84
Valparaíso|Valparaíso|Valparaíso|2007-2008|PAJONAL|2007-11-01|02:10|1022.0|Sin alerta|No definido|Incendios intencionales|0.0|0.0|0.0|1.5|0.0|0.0|0.0|0.0|0.0|0.5|2.0|-33.08222222222222|-71.64083333333333|WGS84
Valparaíso|San Antonio|Cartagena|2007-2008|QUEBRADA HONDA|2007-11-01|13:10|1275.0|Sin alerta|No definido|Incendios intencionales|0.0|0.0|0.0|0.5|0.0|0.0|3.5|11.7|0.0|0.0|15.7|-33.526666666666664|-71.51416666666667|WGS84
Valparaíso|Quillota|Quillota|2007-2008|CAJON SAN PEDRO|2007-11-01|18:15|117.0|Sin alerta|No definido|Actividades recreativas|0.0|0.0|0.0|0.0|0.0|0.0|0.25|0.0|0.0|0.0|0.25|-32.92944444444444|-71.14444444444445|WGS84
Valparaíso|Valparaíso|Viña del Mar|2007-2008|FUNDO 7 HERMANAS|2007-11-02|14:22|38.0|Sin alerta|No definido|Tránsito de personasvehículos o aeronaves|0.0|0.0|0.0|0.0|0.0|0.0|0.01|0.0|0.0|0.0|0.01|-33.06583333333333|-71.55472222222222|WGS84
Valparaíso|Valparaíso|Valparaíso|2007-2008|CAMINO A LAGUNA VERDE|2007-11-02|17:27|58.0|Sin alerta|No definido|Tránsito de personasvehículos o aeronaves|0.0|0.0|0.0|0.0|0.0|0.0|0.01|0.0|0.0|0.0|0.01|-33.055277777777775|-71.64|WGS84
Valparaíso|Valparaíso|Viña del Mar|2007-2008|ACHUPALLAS LOMA LA TORRE|2007-11-03|11:41|205.0|Sin alerta|No definido|Actividades recreativas|0.0|0.0|0.0|0.0|0.0|0.0|0.0|0.1|0.0|0.0|0.1|-33.01305555555555|-71.49972222222222|WGS84
Valparaíso|San Antonio|El Quisco|2007-2008|FORESTAL SAN RICARDO|2007-11-03|15:15|225.0|Sin alerta|No definido|No definida|0.0|0.0|0.0|0.0|0.0|0.0|0.0|0.0|0.0|0.0|0.0|-33.42444444444445|-71.66194444444444|WGS84
Valparaíso|Valparaíso|Concón|2007-2008|CON CON BAJO|2007-11-03|15:33|104.0|Sin alerta|No definido|Tránsito de personasvehículos o aeronaves|0.0|0.0|0.0|0.0|0.0|0.0|0.03|0.07|0.0|0.0|0.1|-32.9325|-71.46527777777777|WGS84
Valparaíso|Valparaíso|Valparaíso|2007-2008|PASO DEL AGUA R.N.L.P|2007-11-03|17:20|245.0|Sin alerta|No definido|Actividades recreativas|0.0|0.0|0.0|0.12|0.0|0.0|0.0|0.0|0.0|0.0|0.12|-33.120555555555555|-71.52416666666667|WGS84
Valparaíso|Valparaíso|Viña del Mar|2007-2008|FUNDO LAS CENIZAS  RUCA EL INDIO|2007-11-03|17:50|888.0|Sin alerta|No definido|Incendios intencionales|0.0|12.0|0.0|0.0|0.0|0.0|0.0|0.0|0.0|3.0|15.0|-33.11138888888889|-71.53444444444445|WGS84
Valparaíso|Valparaíso|Valparaíso|2007-2008|FUNDO EL SAUCE CAMINO A LAGUNA VERD|2007-11-03|17:53|1084.0|Sin alerta|No definido|Tránsito de personasvehículos o aeronaves|0.0|0.0|1.0|0.0|0.0|0.0|2.0|1.0|0.0|0.0|4.0|-33.109722222222224|-71.62027777777777|WGS84
Valparaíso|Valparaíso|Valparaíso|2007-2008|CERRO MARIPOSA|2007-11-04|17:36|68.0|Sin alerta|No definido|Actividades recreativas|0.0|0.0|0.0|0.0|0.0|0.0|0.02|0.03|0.0|0.0|0.05|-33.06472222222222|-71.61888888888889|WGS84
Valparaíso|San Antonio|San Antonio|2007-2008|FUNDO EL CHEUQUE|2007-11-05|15:10|205.0|Sin alerta|No definido|Tránsito de personasvehículos o aeronaves|0.0|0.0|0.0|0.75|0.0|0.0|0.0|0.05|0.0|0.0|0.8|-33.70777777777778|-71.46555555555555|WGS84
Valparaíso|Valparaíso|Puchuncavi|2007-2008|TIRIYUCA|2007-11-05|16:15|70.0|Sin alerta|No definido|Tránsito de personasvehículos o aeronaves|0.0|0.0|0.0|0.0|0.0|0.05|0.95|2.0|0.0|0.0|3.0|-32.72555555555556|-71.43833333333333|WGS84
Valparaíso|Valparaíso|Viña del Mar|2007-2008|LOMAS SPORTING|2007-11-05|17:44|71.0|Sin alerta|No definido|Actividades recreativas|0.0|0.0|0.0|0.0|0.0|0.0|0.01|0.03|0.0|0.0|0.04|-33.021388888888886|-71.53194444444445|WGS84
Valparaíso|San Antonio|Cartagena|2007-2008|LAS PALMAS|2007-11-06|12:55|330.0|Sin alerta|No definido|Accidentes eléctricos|0.0|0.0|0.0|0.0|0.0|0.0|0.1|0.45|0.0|0.0|0.55|-33.573055555555555|-71.45111111111112|WGS84
Valparaíso|Valparaíso|Viña del Mar|2007-2008|BOSQUES DE MONTEMAR|2007-11-06|14:13|84.0|Sin alerta|No definido|Actividades recreativas|0.0|0.02|0.0|0.0|0.0|0.0|0.0|0.13|0.0|0.0|0.15|-32.94888888888889|-71.54055555555556|WGS84
Valparaíso|San Antonio|San Antonio|2007-2008|EL CHEUQUE|2007-11-06|12:00|380.0|Sin alerta|No definido|Actividades extinción incendios forestalesincendios estructurales u otros|0.0|0.0|0.0|2.8|0.0|0.0|0.2|0.2|0.0|0.0|3.2|-33.70777777777778|-71.46555555555555|WGS84
Valparaíso|San Antonio|San Antonio|2007-2008|FUNDO DE LLO LLEO|2007-11-06|16:15|175.0|Sin alerta|No definido|Actividades recreativas|0.0|0.0|0.03|0.0|0.0|0.0|0.01|0.02|0.0|0.0|0.06|-33.5975|-71.58111111111111|WGS84
Valparaíso|San Antonio|San Antonio|2007-2008|EL CANELO|2007-11-06|16:19|161.0|Sin alerta|No definido|Actividades recreativas|0.0|0.0|0.02|0.0|0.0|0.0|0.0|0.01|0.0|0.0|0.03|-33.60638888888889|-71.5813888888889|WGS84
Valparaíso|Valparaíso|Valparaíso|2007-2008|LAGUNA EL PLATEADO|2007-11-06|18:34|69.0|Sin alerta|No definido|Incendios intencionales|0.0|0.0|0.0|0.0|0.0|0.0|0.02|0.01|0.0|0.0|0.03|-33.073055555555555|-71.64055555555555|WGS84
Valparaíso|Valparaíso|Casablanca|2007-2008|LAS DICHAS|2007-11-07|13:49|197.0|Sin alerta|No definido|Tránsito de personasvehículos o aeronaves|0.0|0.0|0.0|0.2|0.0|0.0|0.8|2.0|0.0|0.0|3.0|-33.28305555555556|-71.51805555555555|WGS84
Valparaíso|San Antonio|Algarrobo|2007-2008|EL BOCHINCHE|2007-11-07|13:59|256.0|Sin alerta|No definido|Incendios intencionales|0.0|0.0|0.0|0.2|0.0|0.0|2.8|3.5|0.0|0.0|6.5|-33.30888888888889|-71.5725|WGS84
Valparaíso|San Antonio|El Quisco|2007-2008|HUALLILEMU|2007-11-07|14:49|119.0|Sin alerta|No definido|Incendios intencionales|0.0|0.0|0.0|0.0|0.0|0.0|0.2|0.4|0.0|0.0|0.6000000000000001|-33.42444444444445|-71.66194444444444|WGS84
Valparaíso|Valparaíso|Viña del Mar|2007-2008|FUNDO CENIZAS|2007-11-07|15:34|36.0|Sin alerta|No definido|Incendios intencionales|0.0|0.0|0.0|0.03|0.0|0.0|0.0|0.0|0.0|0.0|0.03|-33.102222222222224|-71.545|WGS84
Valparaíso|San Antonio|San Antonio|2007-2008|FUNDO DE LLO LLEO|2007-11-07|15:00|75.0|Sin alerta|No definido|Actividades recreativas|0.0|0.0|0.0|0.0|0.0|0.0|0.0|0.01|0.0|0.0|0.01|-33.60611111111111|-71.59194444444445|WGS84
Valparaíso|Valparaíso|Valparaíso|2007-2008|EL PLATEADO|2007-11-07|18:35|72.0|Sin alerta|No definido|Incendios intencionales|0.0|0.0|0.0|0.04|0.0|0.0|0.03|0.01|0.0|0.0|0.08|-33.0825|-71.61944444444444|WGS84
Valparaíso|San Antonio|San Antonio|2007-2008|FUNDO LLO LLEO|2007-11-09|16:50|83.0|Sin alerta|No definido|Incendios intencionales|0.0|0.0|0.02|0.0|0.0|0.0|0.0|0.0|0.0|0.0|0.02|-33.60638888888889|-71.5813888888889|WGS84
Valparaíso|San Antonio|San Antonio|2007-2008|POTRERILLOS|2007-11-09|19:05|120.0|Sin alerta|No definido|Incendios intencionales|0.0|0.0|0.0|0.1|0.0|0.0|0.0|0.05|0.0|0.0|0.15|-33.56111111111111|-71.59055555555555|WGS84
Valparaíso|San Antonio|San Antonio|2007-2008|FUNDO MIRAMAR|2007-11-10|14:00|106.0|Sin alerta|No definido|Incendios intencionales|0.0|0.0|0.01|0.0|0.0|0.0|0.0|0.0|0.0|0.0|0.01|-33.58805555555556|-71.59138888888889|WGS84
Valparaíso|San Antonio|San Antonio|2007-2008|FUNDO LLO LLEO|2007-11-10|15:10|135.0|Sin alerta|No definido|Incendios intencionales|0.0|0.0|0.0|0.0|0.0|0.0|0.3|1.2|0.0|0.0|1.5|-33.60638888888889|-71.5813888888889|WGS84
Valparaíso|San Antonio|El Quisco|2007-2008|LOMA LINDA|2007-11-11|11:30|383.0|Sin alerta|No definido|Incendios intencionales|0.0|0.0|0.0|0.0|0.0|0.02|0.03|0.05|0.0|0.0|0.1|-33.433055555555555|-71.67277777777778|WGS84
Valparaíso|Valparaíso|Valparaíso|2007-2008|VILLA RAPA NUI|2007-11-11|16:30|48.0|Sin alerta|No definido|Tránsito de personasvehículos o aeronaves|0.0|0.0|0.0|0.05|0.0|0.0|0.0|0.0|0.0|0.0|0.05|-33.05638888888889|-71.57583333333334|WGS84
Valparaíso|Valparaíso|Valparaíso|2007-2008|LAS CHACARILLAS|2007-11-11|17:04|1273.0|Sin alerta|No definido|Tránsito de personasvehículos o aeronaves|0.0|0.0|0.0|2.0|0.0|0.0|0.5|0.0|0.0|0.0|2.5|-33.11972222222222|-71.56694444444445|WGS84
Valparaíso|Marga Marga|Quilpué|2007-2008|LOS MOLLES|2007-11-12|12:24|86.0|Sin alerta|No definido|Tránsito de personasvehículos o aeronaves|0.0|0.0|0.0|0.0|0.0|0.0|0.0|0.1|0.0|0.0|0.1|-33.096666666666664|-71.37333333333333|WGS84
Valparaíso|Valparaíso|Viña del Mar|2007-2008|LAS CENIZAS|2007-11-12|14:24|84.0|Sin alerta|No definido|Incendios intencionales|0.0|0.0|0.0|0.03|0.0|0.0|0.01|0.0|0.0|0.0|0.04|-33.102222222222224|-71.545|WGS84
Valparaíso|Marga Marga|Limache|2007-2008|LLIU LLIU|2007-11-12|14:43|134.0|Sin alerta|No definido|Tránsito de personasvehículos o aeronaves|0.0|0.0|0.0|0.1|0.0|0.0|0.1|0.2|0.0|0.0|0.4|-33.05416666666667|-71.2225|WGS84
Valparaíso|Valparaíso|Valparaíso|2007-2008|LOS PAJARITOS   LAS CENIZAS|2007-11-12|15:05|225.0|Sin alerta|No definido|Incendios intencionales|0.0|0.7|0.0|0.0|0.0|0.0|0.3|0.5|0.0|0.0|1.5|-33.093333333333334|-71.54472222222222|WGS84
Valparaíso|Valparaíso|Valparaíso|2007-2008|R N L P PASO DEL AGUA|2007-11-12|16:53|117.0|Sin alerta|No definido|Tránsito de personasvehículos o aeronaves|0.0|0.0|0.0|2.0|0.0|0.0|0.0|0.0|0.0|0.0|2.0|-33.12|-71.55611111111111|WGS84
Valparaíso|Valparaíso|Viña del Mar|2007-2008|RUCA EL INDIO  LAS CENIZAS|2007-11-12|17:23|95.0|Sin alerta|No definido|Incendios intencionales|0.0|1.0|0.0|0.0|0.0|0.0|0.0|0.0|0.0|0.0|1.0|-33.1025|-71.53416666666666|WGS84
Valparaíso|Quillota|Hijuelas|2007-2008|OCOA RABUCO|2007-11-12|21:00|912.0|Sin alerta|No definido|Tránsito de personasvehículos o aeronaves|0.0|0.0|0.0|0.0|0.0|0.5|1.0|1.5|0.0|0.0|3.0|-32.84861111111111|-71.1211111111111|WGS84
Valparaíso|San Antonio|San Antonio|2007-2008|POTRERILLO|2007-11-13|12:20|75.0|Sin alerta|No definido|Incendios intencionales|0.0|0.0|0.0|0.01|0.0|0.0|0.0|0.09|0.0|0.0|0.0999999999999999|-33.56111111111111|-71.59055555555555|WGS84
Valparaíso|Petorca|Zapallar|2007-2008|LA FORESTA|2007-11-13|13:40|440.0|Sin alerta|No definido|Tránsito de personasvehículos o aeronaves|0.0|0.0|0.0|0.0|0.0|0.0|2.0|6.0|0.0|0.0|8.0|-32.53055555555556|-71.2625|WGS84
Valparaíso|San Antonio|Cartagena|2007-2008|COLENGUADO|2007-11-13|15:05|80.0|Sin alerta|No definido|Incendios intencionales|0.0|0.0|0.0|0.12|0.0|0.0|0.0|0.13|0.0|0.0|0.25|-33.54361111111111|-71.56861111111111|WGS84
Valparaíso|Valparaíso|Valparaíso|2007-2008|POBLACION EMERGENCIA PLACILLA|2007-11-13|17:42|59.0|Sin alerta|No definido|Tránsito de personasvehículos o aeronaves|0.0|0.0|0.0|0.02|0.0|0.0|0.0|0.0|0.0|0.04|0.06|-33.11972222222222|-71.56694444444445|WGS84
Valparaíso|Valparaíso|Viña del Mar|2007-2008|JARDIN BOTANICO|2007-11-13|21:35|895.0|Sin alerta|No definido|Incendios intencionales|0.0|0.0|0.0|0.6|0.0|0.0|0.0|0.4|0.0|0.0|1.0|-33.04|-71.50027777777778|WGS84
Valparaíso|San Antonio|El Tabo|2007-2008|FUNDO EL CANELO|2007-11-14|13:55|46.0|Sin alerta|No definido|Incendios intencionales|0.0|0.0|0.0|0.0|0.0|0.0|0.01|0.05|0.0|0.0|0.06|-33.461666666666666|-71.60916666666667|WGS84
Valparaíso|San Antonio|Cartagena|2007-2008|QUILLAICILLO|2007-11-14|14:31|149.0|Sin alerta|No definido|Incendios intencionales|0.0|0.0|0.0|0.92|0.0|0.0|0.0|0.08|0.0|0.0|1.0|-33.5175|-71.52472222222222|WGS84
Valparaíso|San Antonio|Cartagena|2007-2008|CUESTA LO ABARCA|2007-11-14|16:23|47.0|Sin alerta|No definido|Incendios intencionales|0.0|0.0|0.0|0.0|0.0|0.0|0.01|0.01|0.0|0.0|0.02|-33.52583333333333|-71.55722222222222|WGS84
Valparaíso|San Antonio|San Antonio|2007-2008|FUNDO LLO LLEO|2007-11-14|16:30|95.0|Sin alerta|No definido|Incendios intencionales|0.0|0.0|0.0|0.01|0.0|0.0|0.0|0.04|0.0|0.0|0.05|-33.60611111111111|-71.59194444444445|WGS84
Valparaíso|San Antonio|San Antonio|2007-2008|POTRERILLOS|2007-11-15|09:00|169.0|Sin alerta|No definido|Tránsito de personasvehículos o aeronaves|0.0|0.0|0.0|0.2|0.0|0.0|0.0|0.15|0.0|0.0|0.35|-33.56111111111111|-71.59055555555555|WGS84
Valparaíso|Marga Marga|Villa Alemana|2007-2008|POBLACION PRAT|2007-11-15|17:54|96.0|Sin alerta|No definido|Tránsito de personasvehículos o aeronaves|0.0|0.0|0.0|0.0|0.0|0.0|0.04|0.06|0.0|0.0|0.1|-33.069722222222225|-71.36194444444445|WGS84
Valparaíso|San Antonio|San Antonio|2007-2008|FUNDO MIRAMAR|2007-11-16|11:50|145.0|Sin alerta|No definido|Actividades recreativas|0.01|0.0|0.0|0.0|0.0|0.0|0.0|0.0|0.0|0.0|0.01|-33.579166666666666|-71.5911111111111|WGS84
Valparaíso|San Antonio|San Antonio|2007-2008|FUNDO LLO LLEO|2007-11-16|14:00|150.0|Sin alerta|No definido|Tránsito de personasvehículos o aeronaves|0.0|0.0|0.0|0.15|0.0|0.0|0.0|0.0|0.0|0.0|0.15|-33.60611111111111|-71.59194444444445|WGS84
Valparaíso|San Antonio|San Antonio|2007-2008|PELANCURA|2007-11-16|19:00|105.0|Sin alerta|No definido|Incendios intencionales|0.0|0.0|0.0|0.0|0.0|0.0|0.01|0.03|0.0|0.0|0.04|-33.56055555555555|-71.61222222222223|WGS84
Valparaíso|Valparaíso|Valparaíso|2007-2008|FUNDO SAN JUAN|2007-11-17|09:30|190.0|Sin alerta|No definido|Incendios intencionales|0.2|0.0|0.0|0.0|0.0|0.0|0.0|0.0|0.0|0.0|0.2|-33.18361111111111|-71.52583333333334|WGS84
Valparaíso|Valparaíso|Valparaíso|2007-2008|LA POLCURA|2007-11-17|10:00|165.0|Sin alerta|No definido|Incendios intencionales|0.0|0.0|0.0|0.4|0.0|0.0|0.0|0.3|0.0|0.0|0.7|-33.21861111111111|-71.58055555555555|WGS84
Valparaíso|San Antonio|Cartagena|2007-2008|LA MARQUEZA|2007-11-17|11:50|97.0|Sin alerta|No definido|Tránsito de personasvehículos o aeronaves|0.0|0.0|0.0|0.0|0.0|0.0|0.0|0.04|0.0|0.0|0.04|-33.618611111111115|-71.42|WGS84
Valparaíso|San Antonio|Santo Domingo|2007-2008|LAS VIÑAS|2007-11-17|14:30|330.0|Sin alerta|No definido|Incendios de causa desconocida|0.0|0.0|0.0|0.0|0.0|17.0|4.0|4.0|0.0|0.0|25.0|-33.80305555555555|-71.66277777777778|WGS84
Valparaíso|Valparaíso|Viña del Mar|2007-2008|SANTA JULIA|2007-11-17|15:17|80.0|Sin alerta|No definido|Actividades recreativas|0.0|0.0|0.0|0.0|0.0|0.0|0.2|0.3|0.0|0.0|0.5|-32.99527777777778|-71.48833333333333|WGS84
Valparaíso|Valparaíso|Casablanca|2007-2008|LO VASQUEZ|2007-11-17|17:58|1252.0|Sin alerta|No definido|Quema de desechos|0.0|0.0|0.0|0.0|0.0|0.0|4.0|1.0|0.0|0.0|5.0|-33.2625|-71.63555555555556|WGS84
Valparaíso|Valparaíso|Valparaíso|2007-2008|LOS OLIVOS  QUINTA COPTON|2007-11-17|18:54|1068.0|Sin alerta|No definido|Incendios intencionales|0.01|0.0|0.0|0.04|0.0|0.0|0.01|0.02|0.0|0.0|0.08|-33.10166666666667|-71.5663888888889|WGS84
Valparaíso|Valparaíso|Valparaíso|2007-2008|RUTA 66 ENTRADA RODELILLO|2007-11-18|11:38|42.0|Sin alerta|No definido|Incendios intencionales|0.0|0.0|0.0|0.0|0.0|0.0|0.01|0.01|0.0|0.0|0.02|-33.06583333333333|-71.55472222222222|WGS84
Valparaíso|Valparaíso|Valparaíso|2007-2008|RUTA 66 UNIVERSIDAD VIÑA DEL MAR|2007-11-18|15:03|57.0|Sin alerta|No definido|Incendios intencionales|0.0|0.0|0.0|0.0|0.0|0.0|0.5|0.2|0.0|0.0|0.7|-33.06583333333333|-71.55472222222222|WGS84
Valparaíso|Marga Marga|Olmué|2007-2008|LOS CONDORES|2007-11-18|14:52|208.0|Sin alerta|No definido|Incendios intencionales|0.0|0.0|0.0|0.0|0.0|0.0|0.4|0.3|0.0|0.0|0.7|-33.08277777777778|-71.1375|WGS84
Valparaíso|San Antonio|San Antonio|2007-2008|FUNDO DE LLO LLEO|2007-11-18|19:00|110.0|Sin alerta|No definido|Actividades recreativas|0.0|0.0|0.0|0.2|0.0|0.0|0.0|0.1|0.0|0.0|0.3|-33.59722222222222|-71.59166666666667|WGS84
Valparaíso|San Antonio|San Antonio|2007-2008|FUNDO DE LLO LLEO|2007-11-19|13:30|120.0|Sin alerta|No definido|Incendios intencionales|0.0|0.0|0.0|0.2|0.0|0.0|0.0|0.15|0.0|0.0|0.35|-33.60611111111111|-71.59194444444445|WGS84
Valparaíso|Marga Marga|Quilpué|2007-2008|FUNDO SAN JORGE|2007-11-19|15:12|103.0|Sin alerta|No definido|Tránsito de personasvehículos o aeronaves|0.0|0.0|0.0|0.0|0.0|0.0|0.2|0.3|0.0|0.0|0.5|-33.032222222222224|-71.43583333333333|WGS84
Valparaíso|Valparaíso|Valparaíso|2007-2008|CERRO SAN JUAN DE DIOS|2007-11-19|15:43|102.0|Sin alerta|No definido|Actividades recreativas|0.0|0.0|0.0|0.0|0.0|0.0|0.02|0.03|0.0|0.0|0.05|-33.055277777777775|-71.62916666666666|WGS84
Valparaíso|Marga Marga|Quilpué|2007-2008|POMPEYA SUR|2007-11-19|16:05|128.0|Sin alerta|No definido|Actividades recreativas|0.0|0.0|0.0|0.0|0.0|0.0|3.0|2.0|0.0|0.0|5.0|-33.05888888888889|-71.45805555555556|WGS84
Valparaíso|San Antonio|San Antonio|2007-2008|FUNDO DE LLO LLEO|2007-11-19|15:40|90.0|Sin alerta|No definido|Incendios intencionales|0.0|0.0|0.0|0.3|0.0|0.0|0.0|0.2|0.0|0.0|0.5|-33.60611111111111|-71.59194444444445|WGS84
Valparaíso|Valparaíso|Valparaíso|2007-2008|RUTA 66   U V M|2007-11-19|17:05|43.0|Sin alerta|No definido|Tránsito de personasvehículos o aeronaves|0.0|0.0|0.0|0.0|0.0|0.0|0.0|0.01|0.0|0.0|0.01|-33.06583333333333|-71.55472222222222|WGS84
Valparaíso|Valparaíso|Valparaíso|2007-2008|POBLACION PRAT PLACILLA|2007-11-19|18:33|32.0|Sin alerta|No definido|Incendios intencionales|0.0|0.0|0.0|0.01|0.0|0.0|0.0|0.01|0.0|0.0|0.02|-33.10166666666667|-71.5663888888889|WGS84
Valparaíso|San Antonio|San Antonio|2007-2008|PELANCURA|2007-11-19|17:40|115.0|Sin alerta|No definido|Tránsito de personasvehículos o aeronaves|0.0|0.0|0.03|0.0|0.0|0.0|0.0|0.12|0.0|0.0|0.15|-33.56055555555555|-71.61222222222223|WGS84
Valparaíso|Valparaíso|Valparaíso|2007-2008|MARINA MERCANTE|2007-11-19|18:42|130.0|Sin alerta|No definido|Actividades recreativas|0.0|0.0|0.0|0.5|0.0|0.0|0.5|2.0|0.0|0.0|3.0|-33.036944444444444|-71.65027777777777|WGS84
Valparaíso|Valparaíso|Valparaíso|2007-2008|CAMINO LA POLVORA|2007-11-20|08:35|100.0|Sin alerta|No definido|Tránsito de personasvehículos o aeronaves|0.0|0.0|0.0|0.03|0.0|0.0|0.07|0.1|0.0|0.0|0.2|-33.0825|-71.61944444444444|WGS84
Valparaíso|San Antonio|San Antonio|2007-2008|FUNDO EL CANELO|2007-11-20|14:30|140.0|Sin alerta|No definido|Incendios intencionales|0.0|0.0|0.0|0.02|0.0|0.0|0.13|0.1|0.0|0.0|0.25|-33.60638888888889|-71.5813888888889|WGS84
Valparaíso|Valparaíso|Valparaíso|2007-2008|CERRO SAN JUAN DE DIOS|2007-11-20|19:39|991.0|Sin alerta|No definido|Tránsito de personasvehículos o aeronaves|0.0|0.0|0.0|0.0|0.0|0.0|0.5|0.5|0.0|0.0|1.0|-33.055277777777775|-71.62916666666666|WGS84
Valparaíso|Valparaíso|Valparaíso|2007-2008|PASO DEL AGUA  R.N.L.P|2007-11-20|21:25|837.0|Sin alerta|No definido|Tránsito de personasvehículos o aeronaves|0.0|0.0|0.0|1.0|0.0|0.0|0.0|0.0|0.0|0.0|1.0|-33.120555555555555|-71.53472222222223|WGS84
Valparaíso|Valparaíso|Viña del Mar|2007-2008|MIRAFLORES ALTO|2007-11-22|13:12|115.0|Sin alerta|No definido|Incendios intencionales|0.0|0.0|0.0|0.0|0.0|0.0|0.6|0.4|0.0|0.0|1.0|-33.02166666666667|-71.5213888888889|WGS84
Valparaíso|Valparaíso|Viña del Mar|2007-2008|BOSQUES MONTEMAR|2007-11-22|12:11|163.0|Sin alerta|No definido|Tránsito de personasvehículos o aeronaves|0.0|0.2|0.0|0.0|0.0|0.0|0.05|0.0|0.0|0.15|0.4|-32.94972222222222|-71.50861111111111|WGS84
Valparaíso|Valparaíso|Viña del Mar|2007-2008|JARDIN BOTANICO|2007-11-22|14:51|156.0|Sin alerta|No definido|Tránsito de personasvehículos o aeronaves|0.0|0.0|0.0|0.0|0.0|0.0|1.0|2.0|0.0|0.0|3.0|-33.04|-71.50027777777778|WGS84
Valparaíso|San Antonio|San Antonio|2007-2008|CERRO LA VIRGEN|2007-11-22|12:40|290.0|Sin alerta|No definido|Tránsito de personasvehículos o aeronaves|0.0|0.3|0.0|0.0|0.0|0.0|0.0|1.7|0.0|0.0|2.0|-33.569722222222225|-71.6125|WGS84
Valparaíso|San Antonio|San Antonio|2007-2008|EL CANELO|2007-11-22|16:00|125.0|Sin alerta|No definido|Tránsito de personasvehículos o aeronaves|0.0|0.0|0.02|0.18|0.0|0.0|0.1|0.2|0.0|0.0|0.5|-33.60638888888889|-71.5813888888889|WGS84
Valparaíso|Valparaíso|Viña del Mar|2007-2008|FUNDO 7 HERMANAS|2007-11-22|17:30|100.0|Sin alerta|No definido|Tránsito de personasvehículos o aeronaves|0.0|0.0|0.0|0.0|0.0|0.0|0.06|0.04|0.0|0.0|0.1|-33.048611111111114|-71.52194444444444|WGS84
Valparaíso|Valparaíso|Valparaíso|2007-2008|FUNDO LAS MERCEDES|2007-11-23|08:53|216.0|Sin alerta|No definido|Tránsito de personasvehículos o aeronaves|0.0|0.0|0.0|0.08|0.0|0.0|0.02|0.15|0.0|0.0|0.25|-33.12027777777778|-71.54555555555555|WGS84
Valparaíso|Valparaíso|Valparaíso|2007-2008|PARQUE INDUSTRIAL|2007-11-23|12:54|66.0|Sin alerta|No definido|Actividades recreativas|0.0|0.02|0.0|0.0|0.0|0.0|0.0|0.0|0.0|0.03|0.05|-33.10138888888889|-71.58777777777777|WGS84
Valparaíso|Marga Marga|Limache|2007-2008|LIMACHITO|2007-11-23|15:40|133.0|Sin alerta|No definido|Actividades recreativas|0.0|0.0|0.0|0.0|0.0|0.0|0.0|0.05|0.0|0.0|0.05|-32.98638888888889|-71.4775|WGS84
Valparaíso|Marga Marga|Villa Alemana|2007-2008|HIPODROMO   POB. PRAT VILLA ALEMANA|2007-11-23|16:56|89.0|Sin alerta|No definido|Accidentes eléctricos|0.0|0.0|0.0|0.2|0.0|0.0|0.4|0.6|0.0|0.0|1.2000000000000002|-33.060833333333335|-71.35111111111111|WGS84
Valparaíso|San Antonio|San Antonio|2007-2008|FUNDO MIRAMAR|2007-11-23|17:00|120.0|Sin alerta|No definido|Incendios intencionales|0.0|0.0|0.0|0.2|0.0|0.0|0.0|0.15|0.0|0.0|0.35|-33.58833333333333|-71.58083333333333|WGS84
Valparaíso|Valparaíso|Valparaíso|2007-2008|LA POLVORA  PUERTO SECO|2007-11-23|19:26|1080.0|Sin alerta|No definido|Tránsito de personasvehículos o aeronaves|0.0|0.0|0.0|1.0|0.0|0.0|0.5|1.5|0.0|0.0|3.0|-33.06472222222222|-71.60805555555555|WGS84
Valparaíso|Marga Marga|Olmué|2007-2008|LO CASTRO QUEBRADA EL  MAQUI|2007-11-24|12:40|335.0|Sin alerta|No definido|Tránsito de personasvehículos o aeronaves|0.0|0.0|0.0|0.0|0.0|0.0|7.0|0.0|0.0|0.0|7.0|-33.100833333333334|-71.13777777777777|WGS84
Valparaíso|Valparaíso|Viña del Mar|2007-2008|MIRAFLORES|2007-11-24|16:02|41.0|Sin alerta|No definido|Accidentes eléctricos|0.0|0.0|0.0|0.0|0.0|0.0|0.0|0.03|0.0|0.0|0.03|-33.01277777777778|-71.51027777777777|WGS84
Valparaíso|Marga Marga|Limache|2007-2008|LIMACHITO|2007-11-24|18:49|121.0|Sin alerta|No definido|Actividades recreativas|0.0|0.0|0.0|0.2|0.0|0.0|0.15|0.05|0.0|0.0|0.3999999999999999|-32.99916666666667|-71.28527777777778|WGS84
Valparaíso|Marga Marga|Villa Alemana|2007-2008|2000 MIL MTS CERRO LA VIRGEN|2007-11-25|16:25|79.0|Sin alerta|No definido|Tránsito de personasvehículos o aeronaves|0.0|0.0|0.0|0.0|0.0|0.0|0.06|0.04|0.0|0.0|0.1|-33.02472222222222|-71.36083333333333|WGS84
Valparaíso|Valparaíso|Viña del Mar|2007-2008|PUERTAS BLANCAS|2007-11-25|18:55|43.0|Sin alerta|No definido|Tránsito de personasvehículos o aeronaves|0.0|0.0|0.0|0.02|0.0|0.0|0.0|0.0|0.0|0.03|0.05|-33.102777777777774|-71.52361111111111|WGS84
Valparaíso|Marga Marga|Quilpué|2007-2008|POBLACION MENA|2007-11-26|15:18|55.0|Sin alerta|No definido|Actividades recreativas|0.0|0.0|0.0|0.0|0.0|0.0|0.1|0.1|0.0|0.0|0.2|-33.05861111111111|-71.46888888888888|WGS84
Valparaíso|Valparaíso|Viña del Mar|2007-2008|VILLA HERMOSA|2007-11-26|16:34|55.0|Sin alerta|No definido|Actividades recreativas|0.0|0.0|0.0|0.0|0.0|0.0|0.0|0.1|0.0|0.0|0.1|-33.03138888888889|-71.4786111111111|WGS84
Valparaíso|Valparaíso|Viña del Mar|2007-2008|LAS CENIZAS|2007-11-27|11:47|122.0|Sin alerta|No definido|Tránsito de personasvehículos o aeronaves|0.0|0.0|0.0|0.07|0.0|0.0|0.0|0.18|0.0|0.0|0.25|-33.10333333333333|-71.49138888888889|WGS84
Valparaíso|San Antonio|San Antonio|2007-2008|FUNDO LLO LLEO|2007-11-27|13:00|138.0|Sin alerta|No definido|Incendios intencionales|0.0|0.0|0.0|0.05|0.0|0.0|0.0|0.0|0.0|0.0|0.05|-33.60583333333334|-71.60277777777777|WGS84
Valparaíso|Valparaíso|Valparaíso|2007-2008|CANAL CHACAO|2007-11-27|15:47|70.0|Sin alerta|No definido|Tránsito de personasvehículos o aeronaves|0.0|0.0|0.0|0.0|0.0|0.0|0.0|0.05|0.0|0.0|0.05|-33.03111111111111|-71.48944444444444|WGS84
Valparaíso|Valparaíso|Casablanca|2007-2008|LAS DICHAS|2007-11-28|10:50|172.0|Sin alerta|No definido|Tránsito de personasvehículos o aeronaves|0.0|0.0|0.0|0.0|0.0|0.0|0.04|0.06|0.0|0.0|0.1|-33.283611111111114|-71.49666666666667|WGS84
Valparaíso|Valparaíso|Valparaíso|2007-2008|CERRO JIMENEZ|2007-11-28|13:10|155.0|Sin alerta|No definido|Tránsito de personasvehículos o aeronaves|0.0|0.0|0.0|0.0|0.0|0.03|0.05|0.07|0.0|0.0|0.15|-33.055277777777775|-71.62916666666666|WGS84
Valparaíso|Valparaíso|Casablanca|2007-2008|TAPIHUE|2007-11-28|14:00|195.0|Sin alerta|No definido|Actividades recreativas|0.0|0.0|0.0|0.0|0.0|1.0|3.0|3.0|0.0|0.0|7.0|-33.31361111111111|-71.33638888888889|WGS84
Valparaíso|San Antonio|El Tabo|2007-2008|PEAJE LAS CRUCES|2007-11-28|14:25|145.0|Sin alerta|No definido|Incendios intencionales|0.0|0.0|0.01|0.6|0.0|0.0|0.02|0.17|0.0|0.2|1.0|-33.47083333333333|-71.5988888888889|WGS84
Valparaíso|Valparaíso|Casablanca|2007-2008|FUNDO PORVENIR|2007-11-28|15:45|166.0|Sin alerta|No definido|Tránsito de personasvehículos o aeronaves|0.0|0.0|0.0|0.0|0.0|0.3|0.3|0.2|0.0|0.0|0.8|-33.27472222222222|-71.48555555555555|WGS84
Valparaíso|San Antonio|El Quisco|2007-2008|PUNTA DE TRALCA|2007-11-29|13:25|120.0|Sin alerta|No definido|Tránsito de personasvehículos o aeronaves|0.0|0.0|0.0|0.0|0.0|0.0|0.3|0.1|0.0|0.0|0.4|-33.423611111111114|-71.69416666666666|WGS84
Valparaíso|San Antonio|San Antonio|2007-2008|CERRO LAVIRGEN|2007-11-29|14:20|68.0|Sin alerta|No definido|Tránsito de personasvehículos o aeronaves|0.0|0.0|0.1|0.0|0.0|0.0|0.0|0.1|0.0|0.0|0.2|-33.56055555555555|-71.61222222222223|WGS84
Valparaíso|Valparaíso|Quintero|2007-2008|RITOQUE|2007-11-29|16:15|136.0|Sin alerta|No definido|Tránsito de personasvehículos o aeronaves|0.0|0.0|0.0|0.0|0.0|0.0|0.03|1.0|0.0|0.0|1.03|-32.79611111111111|-71.52555555555556|WGS84
Valparaíso|Marga Marga|Quilpué|2007-2008|EL RETIRO|2007-11-29|18:36|51.0|Sin alerta|No definido|Tránsito de personasvehículos o aeronaves|0.0|0.0|0.0|0.0|0.0|0.0|0.03|0.07|0.0|0.0|0.1|-33.03194444444444|-71.44666666666667|WGS84
Valparaíso|Valparaíso|Concón|2007-2008|VILLA PRIMAVERA|2007-11-29|19:30|1036.0|Sin alerta|No definido|Tránsito de personasvehículos o aeronaves|0.0|0.5|0.0|0.0|0.0|0.0|0.0|0.7|0.0|0.0|1.2|-32.94|-71.54027777777777|WGS84
Valparaíso|San Antonio|Cartagena|2007-2008|TUMBA DEL POETA|2007-11-29|20:50|27.0|Sin alerta|No definido|Incendios intencionales|0.0|0.0|0.0|0.0|0.0|0.0|0.0|0.01|0.0|0.0|0.01|-33.551944444444445|-71.60111111111111|WGS84
Valparaíso|Marga Marga|Villa Alemana|2007-2008|LAS PARCELAS PEÑA BLANCA|2007-11-30|13:05|94.0|Sin alerta|No definido|Incendios intencionales|0.0|0.0|0.0|0.0|0.0|0.0|0.05|0.15|0.0|0.0|0.2|-33.070277777777775|-71.33|WGS84
Valparaíso|Marga Marga|Villa Alemana|2007-2008|RUMIE|2007-11-30|14:35|58.0|Sin alerta|No definido|Actividades recreativas|0.0|0.0|0.0|0.0|0.0|0.0|0.04|0.06|0.0|0.0|0.1|-33.03277777777778|-71.40388888888889|WGS84
Valparaíso|Valparaíso|Valparaíso|2007-2008|PLACILLA|2007-11-30|14:55|35.0|Sin alerta|No definido|Actividades recreativas|0.0|0.0|0.0|0.0|0.0|0.0|0.0|0.01|0.0|0.0|0.01|-33.11083333333333|-71.56666666666666|WGS84
Valparaíso|San Antonio|San Antonio|2007-2008|VISTA HERMOSA|2007-11-30|16:20|60.0|Sin alerta|No definido|Incendios intencionales|0.0|0.0|0.0|0.1|0.0|0.0|0.0|0.9|0.0|0.0|1.0|-33.560833333333335|-71.60138888888889|WGS84
Valparaíso|Valparaíso|Valparaíso|2007-2008|EL PLATEADO|2007-11-30|16:50|53.0|Sin alerta|No definido|Actividades recreativas|0.0|0.0|0.0|0.0|0.0|0.0|0.01|0.0|0.0|0.0|0.01|-33.073055555555555|-71.64055555555555|WGS84
Valparaíso|Marga Marga|Quilpué|2007-2008|TENIENTE SERRANO|2007-11-30|17:30|55.0|Sin alerta|No definido|Tránsito de personasvehículos o aeronaves|0.0|0.0|0.0|0.0|0.0|0.0|0.02|0.08|0.0|0.0|0.1|-33.06861111111111|-71.41555555555556|WGS84
Valparaíso|Quillota|Quillota|2007-2008|SAN PEDRO|2007-11-30|17:50|155.0|Sin alerta|No definido|Incendios intencionales|0.0|0.0|0.0|1.0|0.0|0.0|0.6|0.4|0.0|0.0|2.0|-32.945277777777775|-71.2625|WGS84
Valparaíso|Valparaíso|Viña del Mar|2007-2008|RUTA 66|2007-12-01|12:30|42.0|Sin alerta|No definido|Actividades recreativas|0.0|0.0|0.0|0.0|0.0|0.0|0.0|0.1|0.0|0.0|0.1|-33.05694444444445|-71.55444444444444|WGS84
Valparaíso|Valparaíso|Valparaíso|2007-2008|LOMA NEGRA|2007-12-01|12:23|152.0|Sin alerta|No definido|Tránsito de personasvehículos o aeronaves|0.0|0.1|0.0|0.1|0.0|0.0|0.0|0.0|0.0|0.05|0.25|-33.10194444444444|-71.55583333333334|WGS84
Valparaíso|San Antonio|El Quisco|2007-2008|FUNDO MEQUIGUANO|2007-12-01|13:30|155.0|Sin alerta|No definido|Tránsito de personasvehículos o aeronaves|0.0|0.0|0.0|0.3|0.0|0.0|0.2|0.3|0.0|0.0|0.8|-33.45111111111111|-71.67333333333333|WGS84
Valparaíso|San Antonio|San Antonio|2007-2008|AUTODROMO SAN JUAN|2007-12-01|13:50|1185.0|Sin alerta|No definido|Tránsito de personasvehículos o aeronaves|0.0|0.0|0.0|21.0|0.0|13.6|1.7|33.7|0.0|0.0|70.0|-33.67|-71.55083333333333|WGS84
Valparaíso|Marga Marga|Quilpué|2007-2008|BELLOTO NORTE|2007-12-01|15:12|113.0|Sin alerta|No definido|Actividades recreativas|0.0|0.0|0.0|0.0|0.0|0.0|0.3|0.5|0.0|0.0|0.8|-33.02388888888889|-71.4036111111111|WGS84
Valparaíso|San Antonio|San Antonio|2007-2008|LA MARQUEZA|2007-12-01|13:50|340.0|Sin alerta|No definido|Accidentes eléctricos|0.0|0.0|0.0|0.5|0.0|0.0|1.5|1.0|0.0|0.0|3.0|-33.63722222222222|-71.39888888888889|WGS84
Valparaíso|San Antonio|San Antonio|2007-2008|PARCELACION EL ÑANCO|2007-12-01|14:05|235.0|Sin alerta|No definido|Tránsito de personasvehículos o aeronaves|0.0|0.0|0.0|0.0|0.0|0.0|0.5|1.0|0.0|0.0|1.5|-33.64361111111111|-71.5286111111111|WGS84
Valparaíso|San Antonio|San Antonio|2007-2008|FUNDO LLO LLEO|2007-12-01|15:30|270.0|Sin alerta|No definido|Tránsito de personasvehículos o aeronaves|0.0|0.5|0.0|0.8|0.0|0.0|0.2|0.8|0.0|0.0|2.3|-33.60666666666667|-71.57055555555556|WGS84
Valparaíso|Marga Marga|Quilpué|2007-2008|CRUCE COLLIGUAY|2007-12-01|16:00|133.0|Sin alerta|No definido|Incendios intencionales|0.0|0.0|0.0|0.0|0.0|0.0|0.2|1.0|0.0|0.0|1.2|-33.15138888888889|-71.33194444444445|WGS84
Valparaíso|Quillota|Nogales|2007-2008|LA PEÑA|2007-12-01|16:55|96.0|Sin alerta|No definido|Tránsito de personasvehículos o aeronaves|0.0|0.0|0.0|0.0|0.0|0.0|0.1|0.3|0.0|0.0|0.4|-32.72138888888889|-71.18194444444444|WGS84
Valparaíso|Valparaíso|Valparaíso|2007-2008|LAS CENIZAS|2007-12-01|18:26|58.0|Sin alerta|No definido|Tránsito de personasvehículos o aeronaves|0.0|0.0|0.0|0.0|0.0|0.0|0.0|0.0|0.0|0.0|0.0|-33.111111111111114|-71.55583333333334|WGS84
Valparaíso|Valparaíso|Valparaíso|2007-2008|POBLACION SANTA MONICA|2007-12-01|19:50|54.0|Sin alerta|No definido|Actividades recreativas|0.0|0.0|0.0|0.0|0.0|0.0|0.01|0.0|0.0|0.0|0.01|-33.05638888888889|-71.57583333333334|WGS84
Valparaíso|San Antonio|San Antonio|2007-2008|FUNDO LLO LLEO|2007-12-02|01:00|578.0|Sin alerta|No definido|Tránsito de personasvehículos o aeronaves|0.0|0.0|0.4|0.0|0.0|0.0|0.0|0.2|0.0|0.0|0.6000000000000001|-33.5975|-71.58111111111111|WGS84
Valparaíso|Marga Marga|Limache|2007-2008|HUINCA|2007-12-02|06:15|423.0|Sin alerta|No definido|Tránsito de personasvehículos o aeronaves|0.0|0.0|0.0|0.12|0.0|0.0|0.15|0.03|0.0|0.0|0.3|-32.97222222222222|-71.27388888888889|WGS84
Valparaíso|San Antonio|San Antonio|2007-2008|FUNDO MIRAMAR|2007-12-02|13:08|72.0|Sin alerta|No definido|Tránsito de personasvehículos o aeronaves|0.0|0.0|0.0|0.0|0.0|0.0|0.0|0.3|0.0|0.0|0.3|-33.579166666666666|-71.5911111111111|WGS84
Valparaíso|Petorca|Papudo|2007-2008|PULLALLY|2007-12-02|12:50|100.0|Sin alerta|No definido|No definida|0.0|0.0|0.0|0.0|0.0|0.0|0.0|0.0|0.0|0.0|0.0|-32.43944444444445|-71.31361111111111|WGS84
Valparaíso|Marga Marga|Quilpué|2007-2008|POMPEYA SUR|2007-12-02|17:22|174.0|Sin alerta|No definido|Actividades recreativas|0.0|0.0|0.0|0.0|0.0|0.0|5.0|3.0|0.0|0.0|8.0|-33.04972222222222|-71.46861111111112|WGS84
Valparaíso|Valparaíso|Valparaíso|2007-2008|CURAUMILLA|2007-12-02|17:12|126.0|Sin alerta|No definido|Incendios intencionales|0.0|0.0|0.0|0.0|0.0|0.0|0.0|0.01|0.0|0.0|0.01|-33.09916666666667|-71.695|WGS84
Valparaíso|Valparaíso|Viña del Mar|2007-2008|JARDIN BOTANICO|2007-12-02|18:15|118.0|Sin alerta|No definido|Incendios intencionales|0.0|0.0|0.0|0.0|0.0|0.0|0.01|0.01|0.0|0.0|0.02|-33.03111111111111|-71.48944444444444|WGS84
Valparaíso|Marga Marga|Quilpué|2007-2008|LAS CUCHARAS|2007-12-02|18:53|83.0|Sin alerta|No definido|Tránsito de personasvehículos o aeronaves|0.0|0.0|0.0|0.0|0.0|0.0|0.2|0.2|0.0|0.0|0.4|-33.05833333333333|-71.47944444444444|WGS84
Valparaíso|San Antonio|San Antonio|2007-2008|VISTA HERMOSA|2007-12-03|14:45|120.0|Sin alerta|No definido|Tránsito de personasvehículos o aeronaves|0.0|0.0|0.0|0.0|0.0|0.0|0.0|0.08|0.0|0.0|0.08|-33.56055555555555|-71.61222222222223|WGS84
Valparaíso|Marga Marga|Quilpué|2007-2008|VILLA CUMING|2007-12-03|16:06|82.0|Sin alerta|No definido|Tránsito de personasvehículos o aeronaves|0.0|0.0|0.0|0.08|0.0|0.0|0.0|0.12|0.0|0.0|0.2|-33.05916666666667|-71.43666666666667|WGS84
Valparaíso|Valparaíso|Viña del Mar|2007-2008|EL OLIVAR|2007-12-03|16:18|71.0|Sin alerta|No definido|Incendios intencionales|0.0|0.0|0.0|0.0|0.0|0.0|0.0|0.02|0.0|0.0|0.02|-33.040277777777774|-71.48972222222223|WGS84
Valparaíso|Valparaíso|Valparaíso|2007-2008|LOMA NEGRA|2007-12-03|21:15|885.0|Sin alerta|No definido|Incendios intencionales|0.0|0.0|0.0|0.1|0.0|0.0|0.0|0.1|0.0|0.0|0.2|-33.10194444444444|-71.55583333333334|WGS84
Valparaíso|San Antonio|San Antonio|2007-2008|FUNDO MIRAMAR|2007-12-04|08:15|95.0|Sin alerta|No definido|Incendios intencionales|0.0|0.0|0.0|0.0|0.0|0.0|0.0|0.3|0.0|0.0|0.3|-33.57|-71.59083333333334|WGS84
Valparaíso|Valparaíso|Valparaíso|2007-2008|PLAYA ANCHA|2007-12-04|11:35|91.0|Sin alerta|No definido|Actividades recreativas|0.0|0.0|0.0|0.0|0.0|0.0|0.0|0.5|0.0|0.0|0.5|-33.02777777777778|-71.635|WGS84
Valparaíso|Valparaíso|Valparaíso|2007-2008|PAJONAL|2007-12-04|12:28|203.0|Sin alerta|No definido|Incendios intencionales|0.0|0.0|0.0|0.1|0.0|0.0|0.05|0.05|0.0|0.0|0.2|-33.07388888888889|-71.60833333333333|WGS84
Valparaíso|San Antonio|San Antonio|2007-2008|FUNDO LLO LLEO|2007-12-04|12:40|70.0|Sin alerta|No definido|Incendios intencionales|0.0|0.0|0.0|0.35|0.0|0.0|0.0|0.0|0.0|0.0|0.35|-33.60583333333334|-71.60277777777777|WGS84
Valparaíso|San Antonio|San Antonio|2007-2008|FUNDO MIRAMAR|2007-12-04|12:50|60.0|Sin alerta|No definido|Actividades recreativas|0.0|0.0|0.0|0.0|0.0|0.0|0.0|0.04|0.0|0.0|0.04|-33.57|-71.59083333333334|WGS84
Valparaíso|Marga Marga|Quilpué|2007-2008|POMPEYA SUR|2007-12-04|13:24|108.0|Sin alerta|No definido|Actividades recreativas|0.0|0.0|0.0|0.0|0.0|0.0|0.4|0.6|0.0|0.0|1.0|-33.05916666666667|-71.4475|WGS84
Valparaíso|Marga Marga|Villa Alemana|2007-2008|LOS MAITENES|2007-12-04|14:55|83.0|Sin alerta|No definido|Tránsito de personasvehículos o aeronaves|0.0|0.0|0.0|0.0|0.0|0.0|1.0|1.0|0.0|0.0|2.0|-33.060833333333335|-71.35111111111111|WGS84
Valparaíso|Marga Marga|Quilpué|2007-2008|VILLA CUMING|2007-12-04|15:31|84.0|Sin alerta|No definido|Actividades recreativas|0.0|0.0|0.0|0.1|0.0|0.0|0.0|0.2|0.0|0.0|0.3|-33.05916666666667|-71.4475|WGS84
Valparaíso|Marga Marga|Villa Alemana|2007-2008|POBLACION PRAT|2007-12-04|15:44|53.0|Sin alerta|No definido|Actividades recreativas|0.0|0.0|0.0|0.01|0.0|0.0|0.0|0.0|0.0|0.0|0.01|-33.07|-71.35138888888889|WGS84
Valparaíso|San Antonio|Cartagena|2007-2008|CAPELLANIA|2007-12-04|15:50|60.0|Sin alerta|No definido|Quema de desechos|0.0|0.0|0.0|0.0|0.0|0.0|0.0|0.1|0.0|0.0|0.1|-33.54333333333334|-71.57944444444445|WGS84
Valparaíso|San Antonio|San Antonio|2007-2008|VISTA HERMOSA|2007-12-04|15:00|154.0|Sin alerta|No definido|No definida|0.0|0.0|0.0|0.05|0.0|0.0|0.0|0.15|0.0|0.0|0.2|-33.56055555555555|-71.61222222222223|WGS84
Valparaíso|San Antonio|San Antonio|2007-2008|FUNDO DE LLO LLEO|2007-12-04|17:10|120.0|Sin alerta|No definido|Incendios intencionales|0.0|0.0|0.0|0.1|0.0|0.0|0.0|0.05|0.0|0.0|0.15|-33.60611111111111|-71.59194444444445|WGS84
Valparaíso|Marga Marga|Villa Alemana|2007-2008|POBLACION WILSON|2007-12-04|17:57|54.0|Sin alerta|No definido|Tránsito de personasvehículos o aeronaves|0.0|0.0|0.0|0.0|0.0|0.0|0.0|0.04|0.0|0.0|0.04|-33.043055555555554|-71.34|WGS84
Valparaíso|San Antonio|San Antonio|2007-2008|VISTA HERMOSA|2007-12-05|13:50|80.0|Sin alerta|No definido|Actividades recreativas|0.0|0.0|0.0|0.15|0.0|0.0|0.0|0.35|0.0|0.0|0.5|-33.56055555555555|-71.61222222222223|WGS84
Valparaíso|Valparaíso|Viña del Mar|2007-2008|LOURDES|2007-12-05|14:27|128.0|Sin alerta|No definido|Actividades recreativas|0.0|0.0|0.0|0.0|0.0|0.0|0.7|0.3|0.0|0.0|1.0|-33.03916666666667|-71.54305555555555|WGS84
Valparaíso|San Antonio|San Antonio|2007-2008|FUNDO MIRAMAR|2007-12-05|14:50|85.0|Sin alerta|No definido|Actividades recreativas|0.02|0.0|0.0|0.0|0.0|0.0|0.0|0.0|0.0|0.0|0.02|-33.58805555555556|-71.59138888888889|WGS84
Valparaíso|San Antonio|San Antonio|2007-2008|VISTA HERMOSA 2|2007-12-05|16:15|51.0|Sin alerta|No definido|Actividades recreativas|0.0|0.0|0.0|0.1|0.0|0.0|0.0|0.25|0.0|0.0|0.35|-33.56055555555555|-71.61222222222223|WGS84
Valparaíso|Marga Marga|Villa Alemana|2007-2008|BAQUEDANO|2007-12-05|17:28|30.0|Sin alerta|No definido|Actividades recreativas|0.0|0.0|0.0|0.0|0.0|0.0|0.0|0.01|0.0|0.0|0.01|-33.04277777777778|-71.35055555555556|WGS84
Valparaíso|Marga Marga|Villa Alemana|2007-2008|LAS AMERICAS|2007-12-05|17:56|90.0|Sin alerta|No definido|Tránsito de personasvehículos o aeronaves|0.0|0.0|0.0|0.0|0.0|0.0|0.2|0.3|0.0|0.0|0.5|-33.01833333333333|-71.3825|WGS84
Valparaíso|San Antonio|San Antonio|2007-2008|FUNDO DE LLO LLEO|2007-12-05|17:20|100.0|Sin alerta|No definido|Incendios intencionales|0.0|0.0|0.0|0.0|0.0|0.0|0.0|0.4|0.0|0.0|0.4|-33.61527777777778|-71.58166666666666|WGS84
Valparaíso|Valparaíso|Valparaíso|2007-2008|PLACILLA|2007-12-06|13:52|48.0|Sin alerta|No definido|Actividades recreativas|0.0|0.0|0.0|0.0|0.0|0.0|0.0|0.01|0.0|0.0|0.01|-33.12027777777778|-71.54555555555555|WGS84
Valparaíso|Marga Marga|Quilpué|2007-2008|POBLACION EL MIRADOR|2007-12-06|15:13|65.0|Sin alerta|No definido|Tránsito de personasvehículos o aeronaves|0.0|0.0|0.0|0.0|0.0|0.0|0.1|0.1|0.0|0.0|0.2|-33.05888888888889|-71.45805555555556|WGS84
Valparaíso|Marga Marga|Quilpué|2007-2008|EL RETIRO ZOO DE QUILPUE|2007-12-06|16:32|96.0|Sin alerta|No definido|No definida|0.0|0.0|0.0|0.05|0.0|0.0|0.0|0.15|0.0|0.0|0.2|-33.041111111111114|-71.44694444444444|WGS84
Valparaíso|Valparaíso|Valparaíso|2007-2008|LA PLANCHADA|2007-12-06|16:46|49.0|Sin alerta|No definido|Incendios intencionales|0.0|0.0|0.0|0.08|0.0|0.0|0.04|0.08|0.0|0.0|0.2|-33.05638888888889|-71.57583333333334|WGS84
Valparaíso|Valparaíso|Viña del Mar|2007-2008|EL OLIVAR|2007-12-06|17:07|87.0|Sin alerta|No definido|Tránsito de personasvehículos o aeronaves|0.0|0.0|0.0|0.0|0.0|0.0|0.1|0.15|0.0|0.0|0.25|-33.03111111111111|-71.48944444444444|WGS84
Valparaíso|Petorca|Cabildo|2007-2008|SAN LORENZO|2007-12-06|17:00|74.0|Sin alerta|No definido|Faenas agrícolas y pecuarias|0.0|0.0|0.0|0.0|0.0|0.0|0.2|0.3|0.0|0.0|0.5|-32.41777777777778|-70.99388888888889|WGS84
Valparaíso|Valparaíso|Valparaíso|2007-2008|EX PUERTA 2 CENIZAS|2007-12-06|22:25|115.0|Sin alerta|No definido|Tránsito de personasvehículos o aeronaves|0.0|0.0|0.0|0.2|0.0|0.0|0.0|0.0|0.0|0.0|0.2|-33.111111111111114|-71.55583333333334|WGS84
Valparaíso|Marga Marga|Quilpué|2007-2008|FUNDO SAN JORGE|2007-12-07|14:25|195.0|Sin alerta|No definido|Incendios intencionales|0.0|0.0|0.0|0.3|0.0|0.0|0.5|0.7|0.0|0.0|1.5|-33.02361111111111|-71.41416666666667|WGS84
Valparaíso|Petorca|La Ligua|2007-2008|LA BALLENA|2007-12-07|14:45|55.0|Sin alerta|No definido|Tránsito de personasvehículos o aeronaves|0.0|0.0|0.0|0.0|0.0|0.0|0.0|0.05|0.0|0.0|0.05|-32.274166666666666|-71.46861111111112|WGS84
Valparaíso|Marga Marga|Villa Alemana|2007-2008|RUMIE|2007-12-07|16:10|100.0|Sin alerta|No definido|Tránsito de personasvehículos o aeronaves|0.0|0.0|0.0|0.0|0.0|0.0|0.1|0.2|0.0|0.0|0.3|-33.01833333333333|-71.3825|WGS84
Valparaíso|San Antonio|San Antonio|2007-2008|FUNDO DE LLO LLEO|2007-12-07|15:00|178.0|Sin alerta|No definido|Tránsito de personasvehículos o aeronaves|0.0|0.0|0.09|0.0|0.0|0.0|0.0|0.0|0.0|0.0|0.09|-33.60611111111111|-71.59194444444445|WGS84
Valparaíso|San Felipe de Aconcagua|Llay-Llay|2007-2008|LAS CHILCAS|2007-12-07|16:28|212.0|Sin alerta|No definido|Tránsito de personasvehículos o aeronaves|0.0|0.0|0.0|0.0|0.0|0.0|1.0|2.0|0.0|0.0|3.0|-32.8525|-70.87555555555555|WGS84
Valparaíso|San Antonio|Algarrobo|2007-2008|BOCHINCHE|2007-12-08|14:10|90.0|Sin alerta|No definido|Tránsito de personasvehículos o aeronaves|0.0|0.0|0.0|0.02|0.0|0.0|0.0|0.04|0.0|0.0|0.06|-33.30916666666667|-71.56166666666667|WGS84
Valparaíso|San Antonio|San Antonio|2007-2008|PARCELA SAN JUAN|2007-12-08|14:53|49.0|Sin alerta|No definido|Tránsito de personasvehículos o aeronaves|0.0|0.0|0.0|0.0|0.0|0.0|0.03|0.02|0.0|0.0|0.05|-33.634166666666665|-71.54972222222223|WGS84
Valparaíso|San Antonio|Cartagena|2007-2008|SAN SEBASTIAN|2007-12-08|15:00|104.0|Sin alerta|No definido|Actividades recreativas|0.0|0.0|0.0|0.0|0.0|0.0|0.01|0.09|0.0|0.0|0.0999999999999999|-33.52527777777778|-71.57888888888888|WGS84
Valparaíso|Valparaíso|Casablanca|2007-2008|LO VASQUEZ|2007-12-08|16:07|27.0|Sin alerta|No definido|Actividades recreativas|0.0|0.0|0.0|0.0|0.0|0.0|0.05|0.01|0.0|0.0|0.06|-33.266666666666666|-71.43166666666667|WGS84
Valparaíso|Valparaíso|Viña del Mar|2007-2008|POBLACION PUERTO AYSEN|2007-12-08|16:44|45.0|Sin alerta|No definido|Tránsito de personasvehículos o aeronaves|0.0|0.0|0.0|0.0|0.0|0.0|0.01|0.01|0.0|0.0|0.02|-33.04833333333333|-71.53277777777778|WGS84
Valparaíso|Marga Marga|Quilpué|2007-2008|VILLA PORVENIR|2007-12-08|16:52|58.0|Sin alerta|No definido|Actividades recreativas|0.0|0.0|0.0|0.0|0.0|0.0|0.01|0.01|0.0|0.0|0.02|-33.05916666666667|-71.43666666666667|WGS84
Valparaíso|Marga Marga|Quilpué|2007-2008|BELLOTO|2007-12-08|17:36|69.0|Sin alerta|No definido|Actividades recreativas|0.0|0.0|0.0|0.0|0.0|0.0|0.0|0.01|0.0|0.0|0.01|-33.03277777777778|-71.40388888888889|WGS84
Valparaíso|Marga Marga|Villa Alemana|2007-2008|FUNDO EL CARMEN|2007-12-08|20:20|49.0|Sin alerta|No definido|Actividades recreativas|0.0|0.0|0.0|0.0|0.0|0.0|0.0|0.01|0.0|0.0|0.01|-33.04333333333334|-71.32916666666667|WGS84
Valparaíso|Valparaíso|Casablanca|2007-2008|LA VINILLA|2007-12-09|13:25|184.0|Sin alerta|No definido|Incendios intencionales|0.0|0.0|0.0|0.0|0.0|0.0|2.0|1.0|0.0|0.0|3.0|-33.35888888888889|-71.3375|WGS84
Valparaíso|Valparaíso|Valparaíso|2007-2008|TRANQUE EL PERAL|2007-12-09|14:26|74.0|Sin alerta|No definido|Incendios intencionales|0.0|0.0|0.0|0.05|0.0|0.0|0.0|0.15|0.0|0.0|0.2|-33.111111111111114|-71.54527777777778|WGS84
Valparaíso|San Antonio|San Antonio|2007-2008|FUNDO DE LLO LLEO|2007-12-09|15:00|49.0|Sin alerta|No definido|Accidentes eléctricos|0.0|0.0|0.0|0.0|0.0|0.0|0.0|0.03|0.0|0.0|0.03|-33.59722222222222|-71.59166666666667|WGS84
Valparaíso|Valparaíso|Casablanca|2007-2008|LOS MAITENES|2007-12-09|15:24|161.0|Sin alerta|No definido|Incendios intencionales|0.0|0.0|0.0|0.1|0.0|0.0|0.0|0.1|0.0|0.0|0.2|-33.42111111111111|-71.38222222222223|WGS84
Valparaíso|Marga Marga|Quilpué|2007-2008|COLINAS DE ORO|2007-12-09|17:43|95.0|Sin alerta|No definido|Incendios intencionales|0.0|0.0|0.0|0.0|0.0|0.0|0.02|0.03|0.0|0.0|0.05|-33.05916666666667|-71.43666666666667|WGS84
Valparaíso|Valparaíso|Viña del Mar|2007-2008|RUTA 66 RHONA|2007-12-09|18:18|35.0|Sin alerta|No definido|Incendios intencionales|0.0|0.0|0.0|0.0|0.0|0.0|0.0|0.01|0.0|0.0|0.01|-33.05694444444445|-71.55444444444444|WGS84
Valparaíso|Valparaíso|Valparaíso|2007-2008|FUNDO LAS CENIZAS|2007-12-09|22:00|60.0|Sin alerta|No definido|Incendios intencionales|0.0|0.0|0.0|0.06|0.0|0.0|0.0|0.04|0.0|0.0|0.1|-33.10194444444444|-71.55583333333334|WGS84
Valparaíso|Valparaíso|Valparaíso|2007-2008|EL VERGEL|2007-12-10|09:00|170.0|Sin alerta|No definido|Incendios intencionales|0.0|0.0|0.0|0.0|0.0|0.0|0.0|0.0|0.0|0.15|0.15|-33.08277777777778|-71.60861111111112|WGS84
Valparaíso|Valparaíso|Puchuncavi|2007-2008|CAU CAU|2007-12-10|14:04|101.0|Sin alerta|No definido|Incendios intencionales|0.0|0.0|0.0|0.0|0.0|0.0|0.0|0.0|0.0|0.25|0.25|-32.744166666666665|-71.40666666666667|WGS84
Valparaíso|Marga Marga|Quilpué|2007-2008|EL RETIRO|2007-12-10|15:40|92.0|Sin alerta|No definido|Actividades recreativas|0.0|0.0|0.0|0.0|0.0|0.0|0.1|0.2|0.0|0.0|0.3|-33.03194444444444|-71.44666666666667|WGS84
Valparaíso|Valparaíso|Valparaíso|2007-2008|PARCELAS DE PLACILLA|2007-12-10|16:06|49.0|Sin alerta|No definido|Actividades recreativas|0.0|0.0|0.0|0.02|0.0|0.0|0.0|0.0|0.0|0.04|0.06|-33.111111111111114|-71.54527777777778|WGS84
Valparaíso|San Antonio|San Antonio|2007-2008|FUNDO MIRAMAR|2007-12-10|15:30|95.0|Sin alerta|No definido|Incendios intencionales|0.0|0.0|0.0|0.0|0.0|0.0|0.01|0.01|0.0|0.0|0.02|-33.57|-71.59083333333334|WGS84
Valparaíso|San Antonio|San Antonio|2007-2008|FUNDO DE LLO LLEO|2007-12-10|16:50|135.0|Sin alerta|No definido|Incendios intencionales|0.0|0.0|0.05|0.0|0.0|0.0|0.0|0.0|0.0|0.0|0.05|-33.60666666666667|-71.57055555555556|WGS84
Valparaíso|San Antonio|San Antonio|2007-2008|FUNDO DE LLO LLEO|2007-12-10|17:10|155.0|Sin alerta|No definido|Incendios intencionales|0.0|0.0|0.0|0.0|0.0|0.0|0.02|0.2|0.0|0.0|0.22|-33.60666666666667|-71.57055555555556|WGS84
Valparaíso|Marga Marga|Quilpué|2007-2008|EL RETIRO 2|2007-12-10|17:53|64.0|Sin alerta|No definido|Actividades recreativas|0.0|0.0|0.0|0.01|0.0|0.0|0.01|0.03|0.0|0.0|0.05|-33.032222222222224|-71.43583333333333|WGS84
Valparaíso|Valparaíso|Viña del Mar|2007-2008|JARDIN BOTANICO|2007-12-10|18:28|81.0|Sin alerta|No definido|Incendios intencionales|0.0|0.0|0.0|0.0|0.0|0.0|0.3|0.5|0.0|0.0|0.8|-33.04|-71.50027777777778|WGS84
Valparaíso|Valparaíso|Viña del Mar|2007-2008|JARDIN BOTANICO|2007-12-10|18:35|60.0|Sin alerta|No definido|Incendios intencionales|0.0|0.0|0.0|0.0|0.0|0.0|0.0|0.01|0.0|0.0|0.01|-33.04|-71.50027777777778|WGS84
Valparaíso|Valparaíso|Valparaíso|2007-2008|LOMA NEGRA|2007-12-11|13:02|34.0|Sin alerta|No definido|Tránsito de personasvehículos o aeronaves|0.0|0.01|0.0|0.0|0.0|0.0|0.02|0.0|0.0|0.0|0.03|-33.10194444444444|-71.55583333333334|WGS84
Valparaíso|Marga Marga|Villa Alemana|2007-2008|LAS AMERICAS|2007-12-11|13:44|45.0|Sin alerta|No definido|Tránsito de personasvehículos o aeronaves|0.0|0.0|0.0|0.0|0.0|0.0|0.01|0.02|0.0|0.0|0.03|-33.01833333333333|-71.3825|WGS84
Valparaíso|Marga Marga|Limache|2007-2008|SANTA ROSA|2007-12-11|14:02|233.0|Sin alerta|No definido|Quema de desechos|0.0|0.0|0.0|0.5|0.0|0.0|1.0|1.5|0.0|0.0|3.0|-33.01833333333333|-71.21083333333333|WGS84
Valparaíso|Marga Marga|Quilpué|2007-2008|BELLOTO NORTE|2007-12-11|14:34|123.0|Sin alerta|No definido|Tránsito de personasvehículos o aeronaves|0.0|0.0|0.0|0.5|0.0|0.0|3.0|1.5|0.0|0.0|5.0|-33.02333333333333|-71.43555555555555|WGS84
Valparaíso|Valparaíso|Valparaíso|2007-2008|FUNDO EL LLANO I|2007-12-11|14:43|112.0|Sin alerta|No definido|Tránsito de personasvehículos o aeronaves|0.0|0.03|0.0|0.0|0.0|0.0|0.02|0.03|0.0|0.0|0.08|-33.12888888888889|-71.56722222222223|WGS84
Valparaíso|San Antonio|Cartagena|2007-2008|POSADA ABAJO EL ROSARIO|2007-12-11|14:15|122.0|Sin alerta|No definido|Faenas forestales|0.0|0.0|0.0|0.15|0.0|0.0|0.0|0.25|0.0|0.0|0.4|-33.4825|-71.45916666666666|WGS84
Valparaíso|Valparaíso|Valparaíso|2007-2008|EL LLANO 2|2007-12-11|15:54|97.0|Sin alerta|No definido|Incendios intencionales|0.0|1.0|0.0|0.5|0.0|0.0|0.0|0.0|0.0|0.0|1.5|-33.11944444444445|-71.57777777777778|WGS84
Valparaíso|Valparaíso|Viña del Mar|2007-2008|JARDIN BOTANICO|2007-12-11|15:52|1311.0|Sin alerta|No definido|Incendios intencionales|0.0|0.0|0.0|0.0|0.0|3.0|4.0|8.0|0.0|0.0|15.0|-33.040277777777774|-71.48972222222223|WGS84
Valparaíso|Valparaíso|Viña del Mar|2007-2008|CHORRILLOS|2007-12-11|15:56|25.0|Sin alerta|No definido|Tránsito de personasvehículos o aeronaves|0.0|0.0|0.0|0.0|0.0|0.0|0.0|0.02|0.0|0.0|0.02|-33.0575|-71.53305555555555|WGS84
Valparaíso|Marga Marga|Quilpué|2007-2008|EL RETIRO|2007-12-11|17:05|113.0|Sin alerta|No definido|Tránsito de personasvehículos o aeronaves|0.0|0.0|0.0|0.05|0.0|0.0|0.15|0.6|0.0|0.0|0.8|-33.03194444444444|-71.44666666666667|WGS84
Valparaíso|Marga Marga|Quilpué|2007-2008|LAGUNA QUILPUE|2007-12-11|17:05|194.0|Sin alerta|No definido|Tránsito de personasvehículos o aeronaves|0.0|0.5|0.0|0.0|0.0|2.0|2.5|0.5|0.0|0.0|5.5|-33.08694444444444|-71.40527777777778|WGS84
Valparaíso|San Antonio|San Antonio|2007-2008|VISTA HERMOSA|2007-12-11|16:20|120.0|Sin alerta|IFIUr-Fo|Incendios intencionales|0.0|0.0|0.0|0.02|0.0|0.0|0.0|0.1|0.0|0.0|0.12|-33.56305555555556|-71.6075|WGS84
Valparaíso|Valparaíso|Valparaíso|2007-2008|QUINTA COPTON|2007-12-11|18:13|78.0|Sin alerta|IFor-Vn|Actividades recreativas|0.0|0.3|0.0|0.0|0.0|0.0|0.0|0.1|0.0|0.0|0.4|-33.11055555555556|-71.5775|WGS84
Valparaíso|Valparaíso|Viña del Mar|2007-2008|VILLA HERMOSA|2007-12-11|18:39|111.0|Sin alerta|No definido|Actividades recreativas|0.0|0.0|0.0|0.0|0.0|0.0|0.2|0.3|0.0|0.0|0.5|-33.024166666666666|-71.47666666666667|WGS84
Valparaíso|Valparaíso|Viña del Mar|2007-2008|POBLACION EMPORCHI|2007-12-11|22:33|82.0|Sin alerta|IFIUr-Fo|Tránsito de personasvehículos o aeronaves|0.0|0.0|0.0|0.0|0.0|0.0|0.01|0.04|0.0|0.0|0.05|-33.04361111111111|-71.56944444444444|WGS84
Valparaíso|Valparaíso|Valparaíso|2007-2008|FUNDO LAS MERCEDES|2007-12-12|12:20|68.0|Sin alerta|IFor-Vn|Tránsito de personasvehículos o aeronaves|0.0|0.0|0.0|0.01|0.0|0.0|0.0|0.03|0.0|0.0|0.04|-33.12444444444444|-71.55222222222223|WGS84
Valparaíso|Valparaíso|Valparaíso|2007-2008|FUNDO 7 HERMANAS|2007-12-12|14:53|111.0|Sin alerta|IFor-Vn|Actividades recreativas|0.0|0.0|0.0|0.0|0.0|0.0|0.13|0.17|0.0|0.0|0.3|-33.04805555555556|-71.54333333333334|WGS84
Valparaíso|San Antonio|San Antonio|2007-2008|CERRO CANTINELA|2007-12-12|14:55|80.0|Sin alerta|IFor-Vn|Incendios intencionales|0.0|0.0|0.0|0.0|0.0|0.0|0.0|1.5|0.0|0.0|1.5|-33.564166666666665|-71.60166666666667|WGS84
Valparaíso|Valparaíso|Valparaíso|2007-2008|POBLACION ARGENTINA|2007-12-12|19:23|75.0|Sin alerta|IFor-Vn|Actividades recreativas|0.0|0.0|0.0|0.0|0.0|0.0|0.02|0.03|0.0|0.0|0.05|-33.05138888888889|-71.47361111111111|WGS84
Valparaíso|San Antonio|San Antonio|2007-2008|CERRO LA VIRGEN|2007-12-13|13:40|80.0|Sin alerta|IFor-Vn|Incendios intencionales|0.0|0.0|0.01|0.0|0.0|0.0|0.0|0.0|0.0|0.0|0.01|-33.56055555555555|-71.61222222222223|WGS84
Valparaíso|San Antonio|El Tabo|2007-2008|LOS CANELOS|2007-12-13|14:30|102.0|Sin alerta|IFor-Vn|Tránsito de personasvehículos o aeronaves|0.0|0.0|0.0|0.02|0.0|0.0|0.0|0.05|0.0|0.0|0.07|-33.47944444444445|-71.60972222222222|WGS84
Valparaíso|Valparaíso|Viña del Mar|2007-2008|JARDIN BOTANICO|2007-12-13|21:05|181.0|Sin alerta|IFor-Vn|Incendios intencionales|0.0|0.0|0.0|0.1|0.0|0.0|0.2|0.0|0.0|0.0|0.3|-33.04666666666667|-71.4975|WGS84
Valparaíso|San Antonio|San Antonio|2007-2008|FUNDO DE LLO LLEO|2007-12-14|10:00|130.0|Sin alerta|IFor-Vn|Incendios intencionales|0.0|0.15|0.0|0.0|0.0|0.0|0.0|0.0|0.0|0.0|0.15|-33.6075|-71.58555555555556|WGS84
Valparaíso|San Antonio|Algarrobo|2007-2008|EL PINAR|2007-12-14|12:00|105.0|Sin alerta|IFor-Vn|Incendios intencionales|0.0|0.0|0.0|0.0|0.0|0.0|0.1|0.4|0.0|0.0|0.5|-33.379444444444445|-71.64972222222222|WGS84
Valparaíso|Valparaíso|Valparaíso|2007-2008|FUNDO EL LLANO|2007-12-14|12:25|52.0|Sin alerta|IFor-Vn|Tránsito de personasvehículos o aeronaves|0.0|0.0|0.0|0.0|0.0|0.0|0.01|0.01|0.0|0.0|0.02|-33.11611111111111|-71.5813888888889|WGS84
Valparaíso|Valparaíso|Viña del Mar|2007-2008|FUNDO LAS MERCEDES|2007-12-14|13:44|107.0|Sin alerta|IFor-Vn|Tránsito de personasvehículos o aeronaves|0.0|0.0|0.0|0.3|0.0|0.0|0.0|0.0|0.0|0.1|0.4|-33.20027777777778|-71.60138888888889|WGS84
Valparaíso|Valparaíso|Casablanca|2007-2008|FUNDO SAN JUAN|2007-12-14|14:20|350.0|Sin alerta|IFor-Vn|Incendios intencionales|0.0|0.7|0.0|0.0|0.0|0.0|0.0|0.0|0.0|0.0|0.7|-33.20027777777778|-71.60138888888889|WGS84
Valparaíso|Marga Marga|Villa Alemana|2007-2008|POBLACION PRAT|2007-12-14|15:50|55.0|Sin alerta|IFor-Vn|Actividades recreativas|0.0|0.0|0.0|0.0|0.0|0.0|0.01|0.01|0.0|0.0|0.02|-33.060833333333335|-71.35111111111111|WGS84
Valparaíso|Marga Marga|Quilpué|2007-2008|BELLOTO NORTE|2007-12-14|16:53|97.0|Sin alerta|IFor-Vn|Incendios intencionales|0.0|0.0|0.0|0.0|0.0|0.0|0.5|1.5|0.0|0.0|2.0|-33.032222222222224|-71.43583333333333|WGS84
Valparaíso|San Antonio|San Antonio|2007-2008|CERRO LA VIRGEN|2007-12-14|17:45|60.0|Sin alerta|IFor-Vn|Incendios intencionales|0.0|0.0|0.0|0.0|0.0|0.0|0.0|0.15|0.0|0.0|0.15|-33.56055555555555|-71.61222222222223|WGS84
Valparaíso|Marga Marga|Quilpué|2007-2008|ESTERO VIEJO|2007-12-14|18:28|48.0|Sin alerta|IFIUr-Fo|Actividades recreativas|0.0|0.0|0.0|0.0|0.0|0.0|0.02|0.03|0.0|0.0|0.05|-33.06|-71.3938888888889|WGS84
Valparaíso|Marga Marga|Limache|2007-2008|TABOLANGO CAROLMO|2007-12-14|18:55|75.0|Sin alerta|IFor-Vn|Actividades recreativas|0.0|0.0|0.0|0.0|0.0|0.0|0.08|0.04|0.0|0.0|0.12|-32.916666666666664|-71.34722222222223|WGS84
Valparaíso|Petorca|La Ligua|2007-2008|QUIMQUIMO|2007-12-15|12:10|440.0|Sin alerta|IFor-Vn|Incendios intencionales|0.0|0.0|0.0|0.0|0.0|0.0|3.0|1.0|0.0|0.0|4.0|-32.43972222222222|-71.29222222222222|WGS84
Valparaíso|San Antonio|San Antonio|2007-2008|LEYDA|2007-12-15|14:00|180.0|Sin alerta|IFor-Vn|Tránsito de personasvehículos o aeronaves|0.0|0.0|0.0|2.0|0.0|0.0|0.5|46.0|0.0|0.0|48.5|-33.60916666666667|-71.4413888888889|WGS84
Valparaíso|Petorca|La Ligua|2007-2008|QUEBRADILLA|2007-12-15|15:20|40.0|Sin alerta|IFor-Vn|Tránsito de personasvehículos o aeronaves|0.0|0.0|0.0|0.0|0.0|0.0|0.0|0.01|0.0|0.0|0.01|-32.4675|-71.25027777777778|WGS84
Valparaíso|San Antonio|Algarrobo|2007-2008|SAN JOSE|2007-12-15|16:00|62.0|Sin alerta|IFor-Vn|Incendios intencionales|0.0|0.0|0.0|0.0|0.0|0.0|0.01|0.05|0.0|0.0|0.06|-33.29944444444445|-71.59361111111112|WGS84
Valparaíso|Valparaíso|Valparaíso|2007-2008|LAS PARCELAS PLACILLA|2007-12-15|17:13|42.0|Sin alerta|IFor-Vn|Actividades recreativas|0.0|0.0|0.0|0.01|0.0|0.0|0.0|0.01|0.0|0.0|0.02|-33.125277777777775|-71.54694444444445|WGS84
Valparaíso|Valparaíso|Valparaíso|2007-2008|SESTO SECTOR CORVI|2007-12-15|18:17|68.0|Sin alerta|IFIUr-Fo|Tránsito de personasvehículos o aeronaves|0.0|0.0|0.0|0.0|0.0|0.0|0.0|0.01|0.0|0.0|0.01|-33.02777777777778|-71.635|WGS84
Valparaíso|Valparaíso|Concón|2007-2008|BOSQUES DE MONTEMAR|2007-12-16|12:30|216.0|Sin alerta|IFor-Vn|Tránsito de personasvehículos o aeronaves|0.0|0.22|0.0|0.0|0.0|0.0|0.0|0.8|0.0|0.0|1.02|-32.94222222222222|-71.52555555555556|WGS84
Valparaíso|Valparaíso|Viña del Mar|2007-2008|TRANQUE CENIZAS|2007-12-16|15:41|199.0|Sin alerta|IFor-Vn|Incendios intencionales|0.0|0.0|0.0|3.0|0.0|0.0|0.0|0.0|0.0|0.5|3.5|-33.10861111111111|-71.53361111111111|WGS84
Valparaíso|Valparaíso|Viña del Mar|2007-2008|VILLA DULCE AMPLIACION|2007-12-16|18:10|65.0|Sin alerta|IFor-Vn|Tránsito de personasvehículos o aeronaves|0.0|0.0|0.0|0.0|0.0|0.0|0.01|0.02|0.0|0.0|0.03|-33.030833333333334|-71.51083333333334|WGS84
Valparaíso|San Antonio|San Antonio|2007-2008|POTRERILLOS|2007-12-16|18:15|65.0|Sin alerta|IFor-Vn|Incendios intencionales|0.0|0.0|0.0|0.0|0.0|0.0|0.0|0.02|0.0|0.0|0.02|-33.56111111111111|-71.59055555555555|WGS84
Valparaíso|Valparaíso|Valparaíso|2007-2008|PARCELAS BOSCO|2007-12-16|19:22|86.0|Sin alerta|IFor-Vn|Quema de desechos|0.0|0.0|0.0|0.0|0.0|0.0|0.01|0.01|0.0|0.0|0.02|-33.055|-71.65083333333334|WGS84
Valparaíso|Valparaíso|Valparaíso|2007-2008|CERRO BARON|2007-12-17|12:13|55.0|Sin alerta|IFIUr-Fo|Actividades recreativas|0.0|0.0|0.0|0.0|0.0|0.0|0.02|0.02|0.0|0.0|0.04|-33.04944444444445|-71.58611111111111|WGS84
Valparaíso|San Antonio|Cartagena|2007-2008|CAMINO VIEJO CARTAGENA|2007-12-17|12:10|105.0|Sin alerta|IFor-Vn|Incendios intencionales|0.0|0.0|0.0|0.0|0.0|0.0|0.0|0.5|0.0|0.0|0.5|-33.56138888888889|-71.58|WGS84
Valparaíso|Valparaíso|Viña del Mar|2007-2008|FORESTAL ALTO|2007-12-17|14:25|64.0|Sin alerta|IFor-Vn|Incendios intencionales|0.0|0.0|0.0|0.0|0.0|0.0|0.01|0.01|0.0|0.0|0.02|-33.03916666666667|-71.54305555555555|WGS84
Valparaíso|Valparaíso|Viña del Mar|2007-2008|LAS CENIZAS|2007-12-17|18:18|33.0|Sin alerta|IFor-Vn|Tránsito de personasvehículos o aeronaves|0.0|0.0|0.0|0.0|0.0|0.0|0.01|0.02|0.0|0.0|0.03|-33.093333333333334|-71.53416666666666|WGS84
Valparaíso|San Antonio|Algarrobo|2007-2008|SAN JERONIMO|2007-12-18|15:20|120.0|Sin alerta|IFor-Vn|Faenas forestales|0.0|0.0|0.1|0.6|0.0|0.0|0.0|0.1|0.0|0.0|0.7999999999999999|-33.318888888888885|-71.52972222222222|WGS84
Valparaíso|Marga Marga|Quilpué|2007-2008|TENIENTE SERRANO|2007-12-18|16:02|122.0|Sin alerta|IFor-Vn|Actividades recreativas|0.0|0.0|0.0|0.2|0.0|0.0|0.3|0.5|0.0|0.0|1.0|-33.06916666666667|-71.4125|WGS84
Valparaíso|Marga Marga|Quilpué|2007-2008|LOMAS DE BELLOTO|2007-12-18|16:05|45.0|Sin alerta|IFIUr-Fo|Actividades recreativas|0.0|0.0|0.0|0.0|0.0|0.0|0.0|0.03|0.0|0.0|0.03|-33.02388888888889|-71.4036111111111|WGS84
Valparaíso|San Antonio|Cartagena|2007-2008|MIRAMAR 3|2007-12-18|16:55|70.0|Sin alerta|IFIUr-Fo|Incendios intencionales|0.0|0.0|0.0|0.0|0.0|0.0|0.05|0.15|0.0|0.0|0.2|-33.534166666666664|-71.59|WGS84
Valparaíso|San Antonio|San Antonio|2007-2008|VISTA HERMOSA|2007-12-18|19:15|70.0|Sin alerta|IFor-Vn|Incendios intencionales|0.0|0.0|0.0|0.01|0.0|0.0|0.0|0.05|0.0|0.0|0.06|-33.56055555555555|-71.61222222222223|WGS84
Valparaíso|Valparaíso|Valparaíso|2007-2008|LAGUNA VERDE  LOS LOBOS|2007-12-19|12:16|323.0|Sin alerta|IFIUr-Fo|Incendios intencionales|0.0|0.1|0.0|0.0|0.0|0.0|0.1|0.3|0.0|0.0|0.5|-33.1175|-71.67388888888888|WGS84
Valparaíso|Valparaíso|Valparaíso|2007-2008|LAGUNA VERDE 2|2007-12-19|14:02|217.0|Sin alerta|IFor-Vn|Actividades recreativas|0.0|0.0|0.0|0.04|0.0|0.0|0.0|0.06|0.0|0.0|0.1|-33.1175|-71.67388888888888|WGS84
Valparaíso|Valparaíso|Valparaíso|2007-2008|PLACILLA|2007-12-19|14:11|38.0|Sin alerta|IFor-Vn|Tránsito de personasvehículos o aeronaves|0.0|0.01|0.0|0.0|0.0|0.0|0.0|0.0|0.0|0.0|0.01|-33.12888888888889|-71.56722222222223|WGS84
Valparaíso|Valparaíso|Valparaíso|2007-2008|LOS LOBOS LAGUNA VERDE III|2007-12-19|14:37|117.0|Sin alerta|IFIUr-Fo|Actividades recreativas|0.0|0.1|0.0|0.0|0.0|0.0|0.4|0.0|0.0|0.0|0.5|-33.108333333333334|-71.67194444444445|WGS84
Valparaíso|Valparaíso|Valparaíso|2007-2008|R.N.L.P AREA DE PESCA|2007-12-19|15:20|120.0|Sin alerta|IFor-Vn|Actividades recreativas|0.0|0.0|0.0|0.0|0.0|0.0|0.01|0.0|0.0|0.0|0.01|-33.16555555555556|-71.53611111111111|WGS84
Valparaíso|Valparaíso|Viña del Mar|2007-2008|LAS PATAGUAS|2007-12-19|15:28|61.0|Sin alerta|IFIUr-Fo|Incendios intencionales|0.0|0.0|0.0|0.0|0.0|0.0|0.01|0.01|0.0|0.0|0.02|-33.03055555555556|-71.5213888888889|WGS84
Valparaíso|Valparaíso|Valparaíso|2007-2008|FUNDO LAS MERCEDES|2007-12-19|16:09|64.0|Sin alerta|IFor-Vn|Tránsito de personasvehículos o aeronaves|0.0|0.0|0.0|0.02|0.0|0.0|0.0|0.0|0.0|0.0|0.02|-33.12027777777778|-71.54555555555555|WGS84
Valparaíso|Marga Marga|Quilpué|2007-2008|LAS ROSAS|2007-12-19|15:53|114.0|Sin alerta|IFIUr-Fo|Actividades recreativas|0.0|0.0|0.0|0.0|0.0|0.0|0.05|0.1|0.0|0.0|0.15|-33.06916666666667|-71.39416666666666|WGS84
Valparaíso|Valparaíso|Casablanca|2007-2008|FUNDO MIRADOR|2007-12-19|16:20|186.0|Sin alerta|IFor-Vn|Quema de desechos|0.0|0.0|0.0|0.1|0.0|0.0|0.0|0.2|0.0|0.0|0.3|-33.33055555555556|-71.4011111111111|WGS84
Valparaíso|Valparaíso|Viña del Mar|2007-2008|GRANADILLA|2007-12-19|23:12|78.0|Sin alerta|IFIUr-Fo|Actividades recreativas|0.0|0.0|0.0|0.0|0.0|0.0|0.0|0.01|0.0|0.0|0.01|-33.02166666666667|-71.5213888888889|WGS84
Valparaíso|Valparaíso|Valparaíso|2007-2008|LAS CENIZAS RUCA DEL INDIO|2007-12-20|13:14|214.0|Sin alerta|IFor-Vn|Incendios intencionales|0.0|0.2|0.0|0.3|0.0|0.0|0.0|0.1|0.0|0.0|0.6|-33.11194444444445|-71.51305555555555|WGS84
Valparaíso|Valparaíso|Valparaíso|2007-2008|LAS CENIZAS PUERTA 2|2007-12-20|15:53|192.0|Sin alerta|IFor-Vn|Incendios intencionales|0.0|0.0|0.0|0.9|0.0|0.0|0.0|0.1|0.0|0.0|1.0|-33.102222222222224|-71.545|WGS84
Valparaíso|San Antonio|San Antonio|2007-2008|FUNDO DE LLO LLEO|2007-12-20|17:20|75.0|Sin alerta|IFor-Vn|Incendios intencionales|0.0|0.0|0.0|0.01|0.0|0.0|0.0|0.02|0.0|0.0|0.03|-33.60611111111111|-71.59194444444445|WGS84
Valparaíso|Valparaíso|Valparaíso|2007-2008|POBLACION EMERGENCIA|2007-12-20|17:45|47.0|Sin alerta|IFor-Vn|Actividades recreativas|0.0|0.0|0.0|0.02|0.0|0.0|0.0|0.0|0.0|0.01|0.03|-33.11388888888889|-71.54944444444445|WGS84
Valparaíso|Valparaíso|Valparaíso|2007-2008|LAS CENIZAS PUERTA 2|2007-12-21|00:15|64.0|Sin alerta|IFor-Vn|Incendios intencionales|0.0|0.0|0.0|0.02|0.0|0.0|0.0|0.0|0.0|0.01|0.03|-33.11194444444445|-71.55416666666666|WGS84
Valparaíso|Valparaíso|Valparaíso|2007-2008|LOMA NEGRA PUERTA 5|2007-12-21|12:31|127.0|Sin alerta|IFor-Vn|Incendios intencionales|0.0|0.05|0.0|0.0|0.0|0.0|0.2|0.0|0.0|0.0|0.25|-33.09305555555556|-71.55555555555556|WGS84
Valparaíso|San Antonio|San Antonio|2007-2008|PELANCURA|2007-12-21|16:00|86.0|Sin alerta|IFor-Vn|Incendios intencionales|0.0|0.0|0.01|0.0|0.0|0.0|0.0|0.0|0.0|0.0|0.01|-33.56055555555555|-71.61222222222223|WGS84
Valparaíso|Valparaíso|Viña del Mar|2007-2008|GRANADILLA CLUB DE CAMPO|2007-12-22|15:51|55.0|Sin alerta|IFor-Vn|Actividades recreativas|0.0|0.0|0.0|0.0|0.0|0.0|0.01|0.01|0.0|0.0|0.02|-33.0125|-71.52111111111111|WGS84
Valparaíso|San Antonio|San Antonio|2007-2008|PIEDRA EL INDIO|2007-12-22|15:40|45.0|Sin alerta|IFor-Vn|Incendios intencionales|0.0|0.0|0.0|0.0|0.0|0.0|0.0|0.02|0.0|0.0|0.02|-33.61527777777778|-71.59222222222222|WGS84
Valparaíso|Valparaíso|Valparaíso|2007-2008|PAJONAL|2007-12-22|16:41|112.0|Sin alerta|IFor-Vn|Actividades recreativas|0.0|0.0|0.0|0.02|0.0|0.0|0.0|0.0|0.0|0.04|0.06|-33.08305555555555|-71.59805555555556|WGS84
Valparaíso|Marga Marga|Quilpué|2007-2008|VILLA OLIMPICA|2007-12-23|11:56|184.0|Sin alerta|IFor-Vn|Quema de desechos|0.0|0.0|0.0|0.0|0.0|0.0|0.2|0.1|0.0|0.0|0.3|-33.05888888888889|-71.45805555555556|WGS84
Valparaíso|Quillota|Hijuelas|2007-2008|EL ROMERAL FUNDO LAS ROSAS|2007-12-23|13:30|120.0|Sin alerta|IFor-Vn|Faenas agrícolas y pecuarias|0.0|0.0|0.0|0.0|0.0|0.0|0.0|0.5|0.0|1.0|1.5|-32.83138888888889|-71.07805555555555|WGS84
Valparaíso|San Antonio|San Antonio|2007-2008|FUNDO MIRAMAR|2007-12-23|14:40|72.0|Sin alerta|IFor-Vn|Incendios intencionales|0.0|0.0|0.01|0.0|0.0|0.0|0.0|0.0|0.0|0.0|0.01|-33.585277777777776|-71.59694444444445|WGS84
Valparaíso|Marga Marga|Olmué|2007-2008|OLMUE PARADERO 17|2007-12-23|16:13|108.0|Sin alerta|IFor-Vn|No definida|0.0|0.0|0.0|0.0|0.0|0.0|0.0|0.0|0.0|0.0|0.0|-33.000277777777775|-71.22111111111111|WGS84
Valparaíso|Valparaíso|Valparaíso|2007-2008|LAGUNA EL PLATEADO|2007-12-23|20:10|60.0|Sin alerta|IFor-Vn|Tránsito de personasvehículos o aeronaves|0.0|0.0|0.0|0.0|0.0|0.0|0.02|0.01|0.0|0.0|0.03|-33.073055555555555|-71.64055555555555|WGS84
Valparaíso|Valparaíso|Casablanca|2007-2008|FUNDO EL MIRADOR|2007-12-24|14:00|73.0|Sin alerta|IFor-Vn|Quema de desechos|0.0|0.0|0.0|0.01|0.0|0.0|0.0|0.02|0.0|0.04|0.07|-33.339444444444446|-71.40138888888889|WGS84
Valparaíso|Valparaíso|Valparaíso|2007-2008|EL MOLLE|2007-12-21|14:12|122.0|Sin alerta|IFor-Vn|Incendios intencionales|0.0|0.0|0.0|0.1|0.0|0.0|0.1|0.1|0.0|0.0|0.3|-33.055277777777775|-71.64|WGS84
Valparaíso|San Antonio|Cartagena|2007-2008|CAMINO VIEJO CARTAGENA|2007-12-24|15:40|70.0|Sin alerta|IFor-Vn|Incendios intencionales|0.0|0.0|0.0|0.0|0.0|0.0|0.0|0.05|0.0|0.0|0.05|-33.560833333333335|-71.60138888888889|WGS84
Valparaíso|Marga Marga|Limache|2007-2008|FUNDO EL MOLINO|2007-12-24|16:30|290.0|Sin alerta|IFor-Vn|Incendios intencionales|0.0|0.0|0.0|0.0|0.0|0.0|1.5|0.5|0.0|0.0|2.0|-32.99916666666667|-71.28527777777778|WGS84
Valparaíso|Petorca|La Ligua|2007-2008|EL ARRAYAN|2007-12-24|17:00|62.0|Sin alerta|IFor-Vn|Tránsito de personasvehículos o aeronaves|0.0|0.0|0.0|0.0|0.0|0.0|0.2|0.1|0.0|0.0|0.3|-32.45861111111111|-71.25027777777778|WGS84
Valparaíso|Petorca|Papudo|2007-2008|FUNDO CABO VERDE|2007-12-24|17:43|77.0|Sin alerta|IFor-Vn|Tránsito de personasvehículos o aeronaves|0.0|0.0|0.0|0.0|0.0|0.0|0.0|1.2|0.0|0.0|1.2|-32.47416666666667|-71.37833333333333|WGS84
Valparaíso|San Antonio|San Antonio|2007-2008|CONTRALORIA|2007-12-25|17:30|100.0|Sin alerta|IFIUr-Fo|Incendios intencionales|0.02|0.0|0.0|0.0|0.0|0.0|0.0|0.04|0.0|0.0|0.06|-33.558055555555555|-71.61555555555556|WGS84
Valparaíso|Petorca|La Ligua|2007-2008|LLAY LLAY VALLE HERMOSO|2007-12-25|17:10|142.0|Sin alerta|IFor-Vn|Incendios intencionales|0.0|0.0|0.0|0.1|0.0|0.0|0.6|0.3|0.0|0.0|1.0|-32.46194444444444|-71.18333333333334|WGS84
Valparaíso|San Antonio|San Antonio|2007-2008|FUNDO DE LLO LLEO|2007-12-26|17:30|110.0|Sin alerta|IFor-Vn|Incendios intencionales|0.0|0.0|0.0|0.03|0.0|0.0|0.0|0.04|0.0|0.0|0.07|-33.60583333333334|-71.60277777777777|WGS84
Valparaíso|Marga Marga|Limache|2007-2008|LIMACHE|2007-12-27|14:36|129.0|Sin alerta|IFor-Vn|Incendios intencionales|0.0|0.0|0.0|0.0|0.0|0.0|0.4|0.6|0.0|0.0|1.0|-33.00833333333333|-71.26416666666667|WGS84
Valparaíso|Valparaíso|Concón|2007-2008|ACONCAGUA|2007-12-27|15:00|186.0|Sin alerta|IFor-Vn|Actividades recreativas|0.0|0.0|0.0|0.0|0.0|0.0|0.35|0.8|0.0|0.0|1.15|-32.922777777777775|-71.49694444444444|WGS84
Valparaíso|San Antonio|El Quisco|2007-2008|PARCELA SAN RAMON|2007-12-27|14:30|135.0|Sin alerta|IFIUr-Fo|Quema de desechos|0.0|0.0|0.0|0.0|0.0|0.0|0.02|0.03|0.0|0.0|0.05|-33.43333333333333|-71.66222222222223|WGS84
Valparaíso|Valparaíso|Valparaíso|2007-2008|CERRO SAN JUAN DE DIOS|2007-12-27|18:12|78.0|Sin alerta|IFor-Vn|Actividades recreativas|0.0|0.0|0.0|0.0|0.0|0.0|0.0|0.01|0.0|0.0|0.01|-33.055277777777775|-71.64|WGS84
Valparaíso|Marga Marga|Quilpué|2007-2008|VILLA OLIMPICA|2007-12-27|20:30|943.0|Sin alerta|IFor-Vn|Incendios intencionales|0.0|0.0|0.0|0.0|0.0|0.0|0.5|0.1|0.0|0.0|0.6|-33.06777777777778|-71.45833333333333|WGS84
Valparaíso|Valparaíso|Valparaíso|2007-2008|CERRO FLORIDA|2007-12-28|13:05|130.0|Sin alerta|IFIUr-Fo|Actividades recreativas|0.0|0.0|0.0|0.2|0.0|0.0|0.6|0.7|0.0|0.0|1.5|-33.05555555555556|-71.61861111111111|WGS84
Valparaíso|Valparaíso|Valparaíso|2007-2008|CERRO JIMENEZ|2007-12-29|14:20|88.0|Sin alerta|No definido|Actividades recreativas|0.0|0.0|0.0|0.0|0.0|0.0|0.02|0.03|0.0|0.0|0.05|-33.055277777777775|-71.62916666666666|WGS84
Valparaíso|San Antonio|San Antonio|2007-2008|VISTA HERMOSA|2007-12-29|15:00|85.0|Sin alerta|IFor-Vn|Incendios intencionales|0.0|0.0|0.0|0.05|0.0|0.0|0.0|0.1|0.0|0.0|0.15|-33.560833333333335|-71.60138888888889|WGS84
Valparaíso|Valparaíso|Casablanca|2007-2008|PLAYA CHICA|2007-12-29|16:08|137.0|Sin alerta|IFIUr-Fo|Actividades recreativas|0.0|0.01|0.0|0.0|0.0|0.0|0.04|0.0|0.0|0.0|0.05|-33.18055555555556|-71.67583333333333|WGS84
Valparaíso|Valparaíso|Viña del Mar|2007-2008|RUTA 66 ROTONDA|2007-12-30|11:15|121.0|Sin alerta|IFor-Vn|Tránsito de personasvehículos o aeronaves|0.0|0.0|0.0|0.0|0.0|0.0|0.1|0.15|0.0|0.0|0.25|-33.077777777777776|-71.54944444444445|WGS84
Valparaíso|Petorca|La Ligua|2007-2008|EL PEUMO|2007-12-30|12:30|73.0|Sin alerta|IFor-Vn|Actividades recreativas|0.0|0.0|0.0|0.0|0.0|0.0|0.1|0.4|0.0|0.0|0.5|-32.46111111111111|-71.22777777777777|WGS84
Valparaíso|Valparaíso|Valparaíso|2007-2008|QUINTA CAPTON|2007-12-30|14:08|35.0|Sin alerta|IFor-Vn|Incendios intencionales|0.0|0.0|0.0|0.01|0.0|0.0|0.0|0.0|0.0|0.0|0.01|-33.10166666666667|-71.57722222222222|WGS84
Valparaíso|Marga Marga|Limache|2007-2008|LLIU LLIU|2007-12-30|14:22|202.0|Sin alerta|IFor-Vn|Tránsito de personasvehículos o aeronaves|0.0|0.0|0.0|0.3|0.0|0.0|0.0|0.1|0.0|0.0|0.4|-33.1|-71.21388888888889|WGS84
Valparaíso|Marga Marga|Villa Alemana|2007-2008|LAS PARCELAS POBLACIÓN PRAT|2007-12-30|14:40|116.0|Sin alerta|IFIUr-Fo|Incendios intencionales|0.0|0.0|0.0|0.1|0.0|0.0|0.3|2.1|0.0|0.0|2.5|-33.060833333333335|-71.35111111111111|WGS84
Valparaíso|Valparaíso|Valparaíso|2007-2008|CERRO LA CRUZ|2007-12-30|15:55|70.0|Sin alerta|IFIUr-Fo|Actividades recreativas|0.0|0.0|0.0|0.0|0.0|0.0|0.1|0.3|0.0|0.0|0.4|-33.07361111111111|-71.61916666666667|WGS84
Valparaíso|Marga Marga|Villa Alemana|2007-2008|LO HIDALGO|2007-12-30|16:45|170.0|Sin alerta|IFor-Vn|Incendios intencionales|0.0|0.0|0.0|0.1|0.0|0.0|0.9|4.0|0.0|0.0|5.0|-33.02611111111111|-71.28583333333333|WGS84
Valparaíso|Valparaíso|Viña del Mar|2007-2008|EL OLIVAR|2007-12-30|17:15|58.0|Sin alerta|IFIUr-Fo|Actividades recreativas|0.0|0.0|0.0|0.0|0.0|0.05|0.0|0.1|0.0|0.0|0.15|-33.03138888888889|-71.4786111111111|WGS84
Valparaíso|Valparaíso|Viña del Mar|2007-2008|FORESTAL ALTO|2007-12-30|17:51|35.0|Sin alerta|IFIUr-Fo|Tránsito de personasvehículos o aeronaves|0.0|0.0|0.0|0.0|0.0|0.01|0.01|0.01|0.0|0.0|0.03|-33.03638888888889|-71.54888888888888|WGS84
Valparaíso|Quillota|Quillota|2007-2008|VILLA HOSPITAL|2007-12-30|17:52|83.0|Sin alerta|IFor-Vn|Actividades recreativas|0.0|0.0|0.0|0.0|0.0|0.0|0.0|0.05|0.0|0.0|0.05|-32.873333333333335|-71.26055555555556|WGS84
Valparaíso|Valparaíso|Viña del Mar|2007-2008|ACHUPALLAS|2007-12-30|18:15|100.0|Sin alerta|IFor-Vn|Actividades recreativas|0.0|0.0|0.0|0.0|0.0|0.0|0.1|0.25|0.0|0.0|0.35|-33.00388888888889|-71.49944444444445|WGS84
Valparaíso|Petorca|Papudo|2007-2008|PARQUE PULLALLY|2007-12-30|17:10|85.0|Sin alerta|IFor-Vn|Tránsito de personasvehículos o aeronaves|0.0|0.0|0.0|0.0|0.0|0.0|0.01|0.01|0.0|0.0|0.02|-32.43944444444445|-71.31361111111111|WGS84
Valparaíso|Quillota|La Cruz|2007-2008|CERRO LA CRUZ QUILLOTA|2007-12-31|13:12|215.0|Sin alerta|IFor-Vn|Incendios intencionales|0.0|0.0|0.0|0.0|0.0|0.0|0.2|0.8|0.0|0.0|1.0|-32.82|-71.20166666666667|WGS84
Valparaíso|Quillota|Quillota|2007-2008|TABOLANGO|2007-12-31|13:27|96.0|Sin alerta|IFor-Vn|Incendios intencionales|0.0|0.0|0.0|0.0|0.0|0.0|0.1|0.15|0.0|0.0|0.25|-32.935|-71.33694444444444|WGS84
Valparaíso|San Antonio|San Antonio|2007-2008|FUNDO DE LLO LLEO|2007-12-31|13:30|65.0|Sin alerta|IFor-Vn|Incendios intencionales|0.0|0.0|0.0|0.03|0.0|0.0|0.0|0.07|0.0|0.0|0.1|-33.60583333333334|-71.60277777777777|WGS84
Valparaíso|Marga Marga|Quilpué|2007-2008|FUNDO SAN JORGE|2007-12-31|15:17|141.0|Sin alerta|IFor-Vn|Incendios intencionales|0.0|0.0|0.0|0.05|0.0|0.03|0.07|0.15|0.0|0.0|0.3|-33.02388888888889|-71.4036111111111|WGS84
Valparaíso|Marga Marga|Villa Alemana|2007-2008|FORESTA EL CARMEN|2007-12-31|15:43|88.0|Sin alerta|IFor-Vn|Actividades recreativas|0.0|0.0|0.0|0.0|0.0|0.0|0.02|0.02|0.0|0.0|0.04|-33.034166666666664|-71.33972222222222|WGS84
Valparaíso|Petorca|Zapallar|2007-2008|BLANQUILLO|2007-12-31|16:00|230.0|Sin alerta|IFor-Vn|Actividades recreativas|0.0|0.0|0.0|0.0|0.0|2.0|2.0|4.0|0.0|0.0|8.0|-32.54888888888889|-71.24166666666666|WGS84
Valparaíso|San Antonio|San Antonio|2007-2008|VISTA HERMOSA|2007-12-31|17:00|45.0|Sin alerta|IFor-Vn|Incendios intencionales|0.0|0.0|0.0|0.0|0.0|0.0|0.0|0.04|0.0|0.0|0.04|-33.55166666666667|-71.61194444444445|WGS84
Valparaíso|Valparaíso|Valparaíso|2007-2008|EL LLANO|2007-12-31|18:25|34.0|Sin alerta|IFor-Vn|Actividades recreativas|0.0|0.0|0.0|0.0|0.0|0.0|0.0|0.01|0.0|0.0|0.01|-33.11083333333333|-71.56666666666666|WGS84
Valparaíso|San Antonio|Cartagena|2007-2008|CAMINO VIEJO CARTAGENA|2007-12-31|18:20|48.0|Sin alerta|IFIUr-Fo|Incendios intencionales|0.0|0.0|0.0|0.0|0.0|0.0|0.02|0.18|0.0|0.0|0.1999999999999999|-33.560833333333335|-71.60138888888889|WGS84
Valparaíso|Valparaíso|Valparaíso|2007-2008|FUNDO LAS MERCEDES|2007-12-31|23:04|631.0|Sin alerta|IFIUr-Fo|Incendios intencionales|0.0|0.0|0.0|1.5|0.0|0.0|0.5|0.2|0.0|0.0|2.2|-33.12916666666667|-71.54583333333333|WGS84
Valparaíso|Valparaíso|Viña del Mar|2007-2008|LIMONARES|2008-01-01|00:50|506.0|Sin alerta|IFIUr-Fo|Accidentes eléctricos|0.0|0.0|0.0|0.0|0.0|0.0|0.01|0.02|0.0|0.0|0.03|-33.03055555555556|-71.5213888888889|WGS84
Valparaíso|Marga Marga|Quilpué|2007-2008|ZOO QUILPUE|2008-01-01|07:57|191.0|Sin alerta|IFor-Vn|Tránsito de personasvehículos o aeronaves|0.0|0.0|0.0|0.0|0.0|0.0|0.2|0.2|0.0|0.0|0.4|-33.04083333333333|-71.4575|WGS84
Valparaíso|Valparaíso|Casablanca|2007-2008|LAS DICHAS|2008-01-01|13:14|137.0|Sin alerta|IFor-Vn|Actividades recreativas|0.0|0.0|0.0|0.7|0.0|0.0|0.0|0.8|0.0|0.0|1.5|-33.26833333333333|-71.50722222222223|WGS84
Valparaíso|Valparaíso|Casablanca|2007-2008|LA VINILLA|2008-01-01|14:58|81.0|Sin alerta|IFor-Vn|Incendios intencionales|0.0|0.0|0.0|0.0|0.0|0.1|0.1|0.1|0.0|0.0|0.3|-33.35027777777778|-71.305|WGS84
Valparaíso|Valparaíso|Valparaíso|2007-2008|QUINTO SECTOR CORVI|2008-01-01|16:12|68.0|Sin alerta|IFIUr-Fo|Actividades recreativas|0.0|0.0|0.0|0.0|0.0|0.0|0.02|0.04|0.0|0.0|0.06|-33.036944444444444|-71.65027777777777|WGS84
Valparaíso|Petorca|Zapallar|2007-2008|BLANQUILLO|2008-01-01|14:12|170.0|Sin alerta|IFor-Vn|Actividades recreativas|0.0|0.0|0.0|0.0|0.0|0.0|0.6|0.4|0.0|0.0|1.0|-32.54888888888889|-71.24166666666666|WGS84
Valparaíso|Marga Marga|Limache|2007-2008|FORESTAL ACE|2008-01-01|18:02|124.0|Sin alerta|IFor-Vn|Incendios intencionales|0.0|0.0|0.0|0.08|0.0|0.0|0.12|0.1|0.0|0.0|0.3|-33.015|-71.39277777777778|WGS84
Valparaíso|Marga Marga|Quilpué|2007-2008|VILLA OLIMPICA|2008-01-01|20:37|92.0|Sin alerta|IFIUr-Fo|Incendios intencionales|0.0|0.0|0.0|0.0|0.0|0.0|0.2|0.4|0.0|0.0|0.6000000000000001|-33.031666666666666|-71.46805555555555|WGS84
Valparaíso|Valparaíso|Casablanca|2007-2008|CASABLANCA|2008-01-02|14:00|97.0|Sin alerta|IFor-Vn|Tránsito de personasvehículos o aeronaves|0.0|0.0|0.0|0.0|0.0|0.0|0.0|2.0|0.0|0.0|2.0|-33.34222222222222|-71.37416666666667|WGS84
Valparaíso|San Antonio|El Tabo|2007-2008|QUILLAICILLO|2008-01-02|13:15|335.0|Sin alerta|IFor-Vn|Faenas forestales|0.0|0.0|0.0|3.5|0.0|0.0|0.0|1.5|0.0|0.0|5.0|-33.490833333333335|-71.5025|WGS84
Valparaíso|Marga Marga|Villa Alemana|2007-2008|POBLACION WILSON|2008-01-02|15:03|93.0|Sin alerta|IFIUr-Fo|Actividades recreativas|0.0|0.0|0.0|0.0|0.0|0.0|0.2|0.3|0.0|0.0|0.5|-33.043055555555554|-71.34|WGS84
Valparaíso|Valparaíso|Viña del Mar|2007-2008|POBLACIÓN LAS PALMAS|2008-01-02|16:11|93.0|Sin alerta|IFIUr-Fo|Actividades recreativas|0.0|0.0|0.0|0.0|0.0|0.0|0.02|0.08|0.0|0.0|0.1|-33.056666666666665|-71.565|WGS84
Valparaíso|Valparaíso|Valparaíso|2007-2008|FUNDO EL LLANO|2008-01-02|19:10|49.0|Sin alerta|IFor-Vn|Tránsito de personasvehículos o aeronaves|0.0|0.01|0.0|0.0|0.0|0.0|0.0|0.0|0.0|0.0|0.01|-33.11277777777778|-71.57972222222222|WGS84
Valparaíso|Marga Marga|Quilpué|2007-2008|FUNDO EL REBAÑO|2008-01-03|15:30|91.0|Sin alerta|IFor-Vn|Actividades recreativas|0.0|0.0|0.0|0.0|0.0|0.0|0.05|0.05|0.0|0.0|0.1|-33.031666666666666|-71.46805555555555|WGS84
Valparaíso|Marga Marga|Olmué|2007-2008|GRANIZO|2008-01-03|15:39|121.0|Sin alerta|No definido|Incendios intencionales|0.0|0.0|0.0|0.0|0.0|0.0|0.0|0.15|0.0|0.0|0.15|-33.001666666666665|-71.13555555555556|WGS84
Valparaíso|Valparaíso|Casablanca|2007-2008|PATAMA|2008-01-03|16:15|53.0|Sin alerta|No definido|Actividades recreativas|0.0|0.0|0.0|0.0|0.0|0.0|0.01|0.01|0.0|0.0|0.02|-33.26583333333333|-71.47472222222223|WGS84
Valparaíso|Valparaíso|Valparaíso|2007-2008|POBLACION  LAS PALMAS|2008-01-03|16:50|79.0|Sin alerta|No definido|Actividades recreativas|0.0|0.0|0.0|0.0|0.0|0.0|0.02|0.08|0.0|0.0|0.1|-33.056666666666665|-71.565|WGS84
Valparaíso|San Antonio|San Antonio|2007-2008|CERRO CENTINELA|2008-01-03|19:50|75.0|Sin alerta|IFor-Vn|Incendios intencionales|0.0|0.0|0.1|0.0|0.0|0.0|0.0|0.0|0.0|0.0|0.1|-33.56055555555555|-71.61222222222223|WGS84
Valparaíso|Valparaíso|Valparaíso|2007-2008|LAS CENIZAS|2008-01-03|20:29|53.0|Sin alerta|IFor-Vn|Actividades recreativas|0.0|0.0|0.0|0.0|0.0|0.0|0.01|0.02|0.0|0.0|0.03|-33.102222222222224|-71.545|WGS84
Valparaíso|Valparaíso|Valparaíso|2007-2008|CERRO JIMENEZ|2008-01-04|14:00|66.0|Sin alerta|No definido|Actividades recreativas|0.0|0.0|0.0|0.0|0.0|0.0|0.01|0.02|0.0|0.0|0.03|-33.055277777777775|-71.62916666666666|WGS84
Valparaíso|Marga Marga|Villa Alemana|2007-2008|SANTA ANA|2008-01-04|17:00|39.0|Sin alerta|No definido|Tránsito de personasvehículos o aeronaves|0.0|0.0|0.0|0.0|0.0|0.0|0.0|0.02|0.0|0.0|0.02|-33.069722222222225|-71.36194444444445|WGS84
Valparaíso|Valparaíso|Casablanca|2007-2008|LA ROTUNDA|2008-01-05|13:29|347.0|Sin alerta|No definido|No definida|0.0|0.0|0.0|0.0|0.0|0.0|0.0|0.0|0.0|0.0|0.0|-33.27611111111111|-71.42111111111112|WGS84
Valparaíso|Marga Marga|Quilpué|2007-2008|BELLOTO NORTE|2008-01-05|17:00|106.0|Sin alerta|No definido|Incendios intencionales|0.0|0.0|0.0|0.0|0.0|0.0|0.1|0.2|0.0|0.0|0.3|-33.032222222222224|-71.43583333333333|WGS84
Valparaíso|Valparaíso|Puchuncavi|2007-2008|PUCHUNCAVI|2008-01-06|12:50|340.0|Sin alerta|No definido|Actividades recreativas|0.0|0.0|0.0|4.0|0.0|0.0|4.0|2.0|0.0|0.0|10.0|-32.735277777777775|-71.40638888888888|WGS84
Valparaíso|San Antonio|San Antonio|2007-2008|FUNDO DE LLO LLEO|2008-01-06|14:35|75.0|Sin alerta|No definido|Incendios intencionales|0.0|0.0|0.0|0.3|0.0|0.0|0.0|0.1|0.0|0.0|0.4|-33.60611111111111|-71.59194444444445|WGS84
Valparaíso|San Antonio|San Antonio|2007-2008|FUNDO MIRAMAR|2008-01-06|16:05|30.0|Sin alerta|No definido|Incendios intencionales|0.0|0.0|0.0|0.0|0.0|0.0|0.0|0.08|0.0|0.0|0.08|-33.579166666666666|-71.5911111111111|WGS84
Valparaíso|San Antonio|San Antonio|2007-2008|FUNDO MIRAMAR 2|2008-01-06|16:10|40.0|Sin alerta|No definido|Incendios intencionales|0.0|0.0|0.0|0.0|0.0|0.0|0.0|0.01|0.0|0.0|0.01|-33.579166666666666|-71.5911111111111|WGS84
Valparaíso|San Antonio|San Antonio|2007-2008|FUNDO MIRAMAR 3|2008-01-06|16:50|70.0|Sin alerta|No definido|Incendios intencionales|0.0|0.0|0.02|0.0|0.0|0.0|0.0|0.0|0.0|0.0|0.02|-33.579166666666666|-71.5911111111111|WGS84
Valparaíso|San Antonio|San Antonio|2007-2008|FUNDO DE LLO LLEO|2008-01-06|18:35|45.0|Sin alerta|No definido|Incendios intencionales|0.0|0.0|0.0|0.01|0.0|0.0|0.0|0.02|0.0|0.0|0.03|-33.58833333333333|-71.58083333333333|WGS84
Valparaíso|San Antonio|San Antonio|2007-2008|MAITENLAHUE|2008-01-07|08:30|170.0|Sin alerta|No definido|Accidentes eléctricos|0.0|0.0|0.0|0.0|0.0|0.0|0.0|0.01|0.0|0.0|0.01|-33.86666666666667|-71.63222222222223|WGS84
Valparaíso|Marga Marga|Quilpué|2007-2008|POBLACION LOS CASTAÑOS|2008-01-07|16:27|124.0|Sin alerta|No definido|No definida|0.0|0.0|0.0|0.0|0.0|0.0|0.0|0.0|0.0|0.0|0.0|-33.06861111111111|-71.42611111111111|WGS84
Valparaíso|Petorca|La Ligua|2007-2008|LA FORESTA|2008-01-07|14:40|80.0|Sin alerta|No definido|Tránsito de personasvehículos o aeronaves|0.0|0.0|0.0|0.0|0.0|0.0|0.1|0.2|0.0|0.0|0.3|-32.53916666666667|-71.28416666666666|WGS84
Valparaíso|San Antonio|El Quisco|2007-2008|BOLAS DE ORO|2008-01-07|16:30|58.0|Sin alerta|No definido|Tránsito de personasvehículos o aeronaves|0.0|0.0|0.0|0.0|0.0|0.0|0.0|0.0|0.0|0.03|0.03|-33.42388888888889|-71.68333333333334|WGS84
Valparaíso|Valparaíso|Valparaíso|2007-2008|PORVENIR BAJO|2008-01-07|16:53|87.0|Sin alerta|No definido|Actividades recreativas|0.0|0.0|0.0|0.0|0.0|0.0|0.0|0.02|0.0|0.0|0.02|-33.01888888888889|-71.64972222222222|WGS84
Valparaíso|San Antonio|El Quisco|2007-2008|HUALLILEMU|2008-01-07|17:20|50.0|Sin alerta|No definido|Actividades recreativas|0.0|0.01|0.0|0.0|0.0|0.0|0.0|0.0|0.0|0.0|0.01|-33.397222222222226|-71.67166666666667|WGS84
Valparaíso|San Antonio|San Antonio|2007-2008|VISTA HERMOSA|2008-01-07|18:25|55.0|Sin alerta|No definido|Incendios intencionales|0.0|0.0|0.0|0.02|0.0|0.0|0.0|0.1|0.0|0.0|0.12|-33.55166666666667|-71.61194444444445|WGS84
Valparaíso|San Antonio|San Antonio|2007-2008|FUNDO DE LLO LLEO|2008-01-07|18:50|65.0|Sin alerta|No definido|Incendios intencionales|0.0|0.0|0.0|0.0|0.0|0.0|0.0|0.01|0.0|0.0|0.01|-33.60611111111111|-71.59194444444445|WGS84
Valparaíso|Valparaíso|Valparaíso|2007-2008|VILLA LOS PORTUARIOS|2008-01-07|19:37|50.0|Sin alerta|No definido|Actividades recreativas|0.0|0.0|0.0|0.0|0.0|0.0|0.01|0.02|0.0|0.0|0.03|-33.05638888888889|-71.58638888888889|WGS84
Valparaíso|San Antonio|El Tabo|2007-2008|LOS CANELOS|2008-01-08|11:50|130.0|Sin alerta|No definido|Tránsito de personasvehículos o aeronaves|0.0|0.1|0.0|0.0|0.0|0.0|0.0|0.2|0.0|0.0|0.3|-33.48833333333334|-71.62083333333334|WGS84
Valparaíso|San Antonio|San Antonio|2007-2008|CERRO CENTINELA|2008-01-08|13:10|110.0|Sin alerta|No definido|Incendios intencionales|0.0|0.0|0.03|0.0|0.0|0.0|0.0|0.0|0.0|0.0|0.03|-33.56944444444444|-71.62333333333333|WGS84
Valparaíso|Marga Marga|Quilpué|2007-2008|LA PATAGUA|2008-01-08|14:40|60.0|Sin alerta|No definido|Actividades recreativas|0.0|0.0|0.0|0.02|0.0|0.0|0.0|0.02|0.0|0.0|0.04|-33.06861111111111|-71.41555555555556|WGS84
Valparaíso|San Antonio|San Antonio|2007-2008|FUNDO DE LLO LLEO|2008-01-08|15:50|170.0|Sin alerta|No definido|Incendios intencionales|0.0|0.0|0.0|0.4|0.0|0.0|0.0|0.1|0.0|0.0|0.5|-33.60611111111111|-71.59194444444445|WGS84
Valparaíso|San Antonio|San Antonio|2007-2008|FUNDO LAS LAJAS|2008-01-08|16:02|148.0|Sin alerta|No definido|Incendios intencionales|0.0|0.0|0.0|0.0|0.0|0.02|0.0|0.01|0.0|0.0|0.03|-33.60611111111111|-71.59194444444445|WGS84
Valparaíso|San Antonio|San Antonio|2007-2008|POTRERO LAS LAJAS|2008-01-08|16:00|180.0|Sin alerta|No definido|Incendios intencionales|0.0|0.0|0.1|0.0|0.0|0.0|0.05|0.01|0.0|7.48|7.640000000000001|-33.60638888888889|-71.5813888888889|WGS84
