Región|Provincia|Comuna|Temporada|Nombre|Fecha|Hora inicio|Duración (minutos)|Alerta|Escenario|Causa|Superficie quemada: Pino A [ha]|Superficie quemada: Pino B [ha]|Superficie quemada: Pino C [ha]|Superficie quemada: Eucalípto [ha]|Superficie quemada: Otras plantas [ha]|Superficie quemada: Arbolado [ha]|Superficie quemada: Matorral [ha]|Superficie quemada: Pastizal [ha]|Superficie quemada: Agrícola [ha]|Superficie quemada: Desechos [ha]|Superficie quemada total [ha]|Latitud|Longitud|Datum
Coquimbo|Elqui|Coquimbo|2008-2009|PLAYA CHANGA|2008-10-13|12:30|390.0|Sin alerta|No definido|No definida|0.0|0.0|0.0|0.0|0.0|0.0|0.5|1.5|0.0|0.0|2.0|-29.96805555555556|-71.3163888888889|WGS84
Coquimbo|Limarí|Ovalle|2008-2009|BOSQUE LA CHIMBA|2008-10-16|12:15|525.0|Sin alerta|No definido|No definida|0.0|0.0|0.0|4.0|0.0|0.0|0.0|0.0|0.0|0.0|4.0|-30.63722222222222|-71.22777777777777|WGS84
Coquimbo|Limarí|Ovalle|2008-2009|PACHINGO|2008-11-27|11:00|240.0|Sin alerta|No definido|No definida|0.0|0.0|0.0|0.5|0.0|0.0|0.0|0.1|0.0|0.0|0.6|-30.47777777777778|-71.54694444444445|WGS84
Coquimbo|Limarí|Ovalle|2008-2009|LA PLACA|2008-11-27|12:30|300.0|Sin alerta|No definido|No definida|0.0|0.0|0.0|0.0|0.0|0.0|0.3|0.1|0.0|0.0|0.4|-30.58972222222222|-71.35166666666667|WGS84
Coquimbo|Limarí|Ovalle|2008-2009|BOSQUE LA CHIMBA 1|2008-11-30|20:00|1080.0|Sin alerta|No definido|No definida|0.0|0.0|0.0|2.8|0.0|0.0|0.1|0.1|0.0|0.0|3.0|-30.61027777777777|-71.2063888888889|WGS84
Coquimbo|Limarí|Ovalle|2008-2009|BOSQUE LA CHIMBA 2|2008-12-01|18:30|1170.0|Sin alerta|No definido|No definida|0.0|0.0|0.0|0.4|0.0|0.0|0.1|0.0|0.0|0.0|0.5|-30.61944444444444|-71.2063888888889|WGS84
Coquimbo|Choapa|Illapel|2008-2009|ALCAPARROZA|2008-12-03|19:00|1060.0|Sin alerta|No definido|No definida|0.0|0.0|0.0|0.0|0.0|0.0|0.5|1.0|0.0|0.0|1.5|-31.453055555555554|-70.97333333333333|WGS84
Coquimbo|Limarí|Ovalle|2008-2009|RECOLETA|2008-12-08|15:30|1240.0|Sin alerta|No definido|No definida|0.0|0.0|0.0|0.0|0.0|0.5|0.5|1.0|0.0|0.0|2.0|-30.49388888888889|-71.16194444444444|WGS84
Coquimbo|Limarí|Ovalle|2008-2009|LAS PICINAS|2008-12-09|12:00|200.0|Sin alerta|No definido|No definida|0.0|0.0|0.0|0.0|0.0|0.3|0.3|0.4|0.0|0.0|1.0|-30.636944444444445|-71.23805555555556|WGS84
Coquimbo|Limarí|Ovalle|2008-2009|SIBERIA|2008-12-10|15:00|1350.0|Sin alerta|No definido|No definida|0.0|0.0|0.0|0.0|0.0|1.7|3.0|2.0|0.0|0.0|6.7|-30.61722222222222|-71.33166666666666|WGS84
Coquimbo|Limarí|Monte Patria|2008-2009|JUNTAS|2008-12-13|16:00|1190.0|Sin alerta|No definido|No definida|0.0|0.0|0.0|0.0|0.0|0.5|1.9|0.5|0.1|0.0|3.0|-30.72361111111111|-70.88527777777777|WGS84
Coquimbo|Limarí|Ovalle|2008-2009|COSTANERA|2008-12-14|14:30|130.0|Sin alerta|No definido|No definida|0.0|0.0|0.0|0.09|0.0|0.0|0.02|0.0|0.0|0.0|0.11|-30.61944444444444|-71.2063888888889|WGS84
Coquimbo|Choapa|Salamanca|2008-2009|EL CHACAY|2008-12-14|14:20|280.0|Sin alerta|No definido|No definida|0.0|0.0|0.0|2.0|0.0|8.0|14.0|36.0|0.0|0.0|60.0|-31.869722222222222|-70.62472222222222|WGS84
Coquimbo|Elqui|La Serena|2008-2009|ALTOVALSOL|2008-12-17|18:00|220.0|Sin alerta|No definido|No definida|0.0|0.0|0.0|0.5|0.0|0.0|0.0|0.0|0.0|0.0|0.5|-29.935|-71.13944444444445|WGS84
Coquimbo|Choapa|Salamanca|2008-2009|PORTONES|2008-12-21|15:10|1180.0|Sin alerta|No definido|No definida|0.0|0.0|0.0|0.0|0.0|0.0|25.0|43.0|0.0|0.0|68.0|-31.85527777777778|-70.62666666666667|WGS84
Coquimbo|Elqui|La Serena|2008-2009|PARQUE COLL|2008-12-24|15:50|100.0|Sin alerta|No definido|No definida|0.0|0.0|0.0|0.2|0.0|0.0|0.3|0.5|0.0|0.0|1.0|-29.914722222222224|-71.26333333333334|WGS84
Coquimbo|Limarí|Ovalle|2008-2009|LOS LOROS|2008-12-26|09:00|370.0|Sin alerta|No definido|No definida|0.0|0.0|0.0|0.0|0.0|0.0|1.4|0.1|0.0|0.0|1.5|-30.73833333333333|-71.60583333333334|WGS84
Coquimbo|Choapa|Los Vilos|2008-2009|LOS MAQUIS|2009-01-25|14:30|345.0|Sin alerta|No definido|No definida|0.0|0.0|0.0|0.0|0.0|1.0|1.0|3.0|0.0|0.0|5.0|-32.11222222222222|-71.45361111111112|WGS84
Coquimbo|Limarí|Ovalle|2008-2009|ALGARROBO|2009-01-27|12:30|235.0|Sin alerta|No definido|No definida|0.0|0.0|0.0|0.0|0.0|0.4|0.6|0.0|0.0|3.0|4.0|-30.6175|-71.31083333333333|WGS84
Coquimbo|Choapa|Los Vilos|2008-2009|QUEBRADA SECA|2009-02-05|17:15|155.0|Sin alerta|No definido|No definida|0.0|0.0|0.0|0.0|0.0|1.0|3.0|5.0|0.0|0.0|9.0|-32.102777777777774|-71.46388888888889|WGS84
Coquimbo|Choapa|Los Vilos|2008-2009|MATADERO|2009-02-08|13:30|150.0|Sin alerta|No definido|No definida|0.0|0.0|0.0|0.0|0.0|0.0|0.3|0.7|0.0|0.0|1.0|-32.11138888888889|-71.48527777777778|WGS84
Coquimbo|Limarí|Ovalle|2008-2009|VIÑITA|2009-02-09|18:00|120.0|Sin alerta|No definido|No definida|0.0|0.0|0.0|0.0|0.0|0.0|0.05|0.04|0.01|0.0|0.0999999999999999|-30.59305555555555|-71.16416666666667|WGS84
Coquimbo|Limarí|Ovalle|2008-2009|EL TRAPICHE|2009-02-10|13:35|240.0|Sin alerta|No definido|No definida|0.0|0.0|0.0|0.0|0.0|0.2|1.3|0.5|0.0|0.0|2.0|-30.607222222222227|-71.38361111111111|WGS84
Coquimbo|Limarí|Ovalle|2008-2009|EL TRAPICHE 1|2009-02-11|15:00|57.0|Sin alerta|No definido|No definida|0.0|0.0|0.0|0.0|0.0|0.0|0.05|0.1|0.0|0.0|0.15|-30.61638888888889|-71.38361111111111|WGS84
Coquimbo|Elqui|La Serena|2008-2009|CUATRO ESQUINAS|2009-02-12|17:00|70.0|Sin alerta|No definido|No definida|0.0|0.0|0.0|0.0|0.0|0.0|0.0|0.01|0.0|0.0|0.01|-29.94166666666667|-71.27416666666667|WGS84
Coquimbo|Limarí|Ovalle|2008-2009|SAN JULIAN|2009-02-13|16:30|260.0|Sin alerta|No definido|No definida|0.0|0.0|0.0|0.5|0.0|2.0|0.0|0.5|0.0|0.0|3.0|-30.64416666666667|-71.33222222222223|WGS84
Coquimbo|Limarí|Ovalle|2008-2009|SAN JULIAN 1|2009-02-18|18:00|46.0|Sin alerta|No definido|No definida|0.0|0.0|0.0|0.0|0.0|0.0|0.01|0.0|0.0|0.0|0.01|-30.65361111111111|-71.32194444444444|WGS84
Coquimbo|Limarí|Ovalle|2008-2009|ORURO|2009-02-23|16:00|130.0|Sin alerta|No definido|No definida|0.0|0.0|0.0|0.0|0.0|0.0|0.02|0.01|0.0|0.0|0.03|-30.651111111111103|-71.4575|WGS84
Coquimbo|Limarí|Ovalle|2008-2009|SOTAQUI|2009-02-24|12:00|360.0|Sin alerta|No definido|No definida|0.0|0.0|0.0|5.0|0.0|0.0|1.5|1.5|0.0|0.0|8.0|-30.638888888888893|-71.12333333333333|WGS84
Coquimbo|Elqui|La Serena|2008-2009|PUERTAS DEL MAR|2009-03-20|11:50|70.0|Sin alerta|No definido|No definida|0.0|0.0|0.0|0.0|0.0|0.0|0.01|0.01|0.0|0.0|0.02|-29.905555555555555|-71.27333333333333|WGS84
Coquimbo|Elqui|La Serena|2008-2009|VICENTE ZORRILLA|2009-03-25|12:30|43.0|Sin alerta|No definido|No definida|0.0|0.0|0.0|0.0|0.0|0.0|0.03|0.0|0.0|0.0|0.03|-29.896944444444443|-71.2525|WGS84
Valparaíso|Quillota|Calera|2008-2009|PACHACAMITA|2008-09-21|11:32|1423.0|Sin alerta|No definido|Tránsito de personasvehículos o aeronaves|0.0|0.0|0.0|5.0|0.0|0.0|6.0|4.0|0.0|0.0|15.0|-32.81138888888889|-71.18416666666667|WGS84
Valparaíso|Valparaíso|Valparaíso|2008-2009|R.N.P.L  SECTOR NORTE|2008-10-22|09:40|168.0|Sin alerta|No definido|Actividades recreativas|0.0|0.0|0.0|0.0|0.01|0.0|0.0|0.0|0.0|0.0|0.01|-33.13805555555555|-71.55666666666667|WGS84
Valparaíso|Valparaíso|Valparaíso|2008-2009|MIRADOR O`HIGGINS|2008-11-03|15:50|61.0|Sin alerta|No definido|Tránsito de personasvehículos o aeronaves|0.0|0.0|0.0|0.0|0.0|0.0|0.01|0.01|0.0|0.0|0.02|-33.06527777777778|-71.58666666666667|WGS84
Valparaíso|Valparaíso|Valparaíso|2008-2009|EL PAJONAL|2008-11-05|16:11|112.0|Sin alerta|No definido|Tránsito de personasvehículos o aeronaves|0.0|0.0|0.0|5.0|0.0|0.0|2.0|0.0|0.0|3.0|10.0|-33.07388888888889|-71.60833333333333|WGS84
Valparaíso|Valparaíso|Valparaíso|2008-2009|LOS PAJARITOS|2008-11-06|12:25|59.0|Sin alerta|No definido|Tránsito de personasvehículos o aeronaves|0.0|0.01|0.0|0.0|0.0|0.0|0.01|0.0|0.0|0.0|0.02|-33.102222222222224|-71.545|WGS84
Valparaíso|Valparaíso|Valparaíso|2008-2009|R.N.L.P SECTOR LAS LATAS|2008-11-06|17:11|110.0|Sin alerta|No definido|Actividades recreativas|0.0|0.0|0.0|0.0|0.0|0.0|0.01|0.01|0.0|0.0|0.02|-33.14805555555556|-71.51416666666667|WGS84
Valparaíso|Quillota|Nogales|2008-2009|ALTO PUCALAN|2008-11-06|17:40|1298.0|Sin alerta|No definido|Confección y/o extracción productos secundarios del bosque|0.0|0.0|0.0|0.0|0.0|0.3|0.5|0.0|0.0|0.0|0.8|-32.6925|-71.2775|WGS84
Valparaíso|Valparaíso|Viña del Mar|2008-2009|JARDIN BOTANICO|2008-11-08|12:29|51.0|Sin alerta|No definido|Tránsito de personasvehículos o aeronaves|0.0|0.0|0.0|0.0|0.0|0.0|0.01|0.02|0.0|0.0|0.03|-33.049166666666665|-71.49|WGS84
Valparaíso|Marga Marga|Olmué|2008-2009|LO CASTRO|2008-11-08|12:51|489.0|Sin alerta|No definido|Tránsito de personasvehículos o aeronaves|0.0|0.0|0.0|0.0|0.0|0.0|0.03|0.07|0.0|0.0|0.1|-33.08444444444444|-71.0411111111111|WGS84
Valparaíso|Valparaíso|Viña del Mar|2008-2009|VILLA ARAUCO|2008-11-08|14:54|64.0|Sin alerta|No definido|Tránsito de personasvehículos o aeronaves|0.0|0.0|0.0|0.0|0.0|0.0|0.2|0.1|0.0|0.0|0.3|-33.022222222222226|-71.48916666666666|WGS84
Valparaíso|Valparaíso|Valparaíso|2008-2009|NUEVO PLACILLA|2008-11-08|16:29|83.0|Sin alerta|No definido|Tránsito de personasvehículos o aeronaves|0.0|0.0|0.0|0.05|0.0|0.0|0.05|0.0|0.0|0.0|0.1|-33.12083333333333|-71.51333333333334|WGS84
Valparaíso|Valparaíso|Viña del Mar|2008-2009|JARDIN BOTANICO 2|2008-11-08|17:49|68.0|Sin alerta|No definido|Tránsito de personasvehículos o aeronaves|0.0|0.0|0.0|0.1|0.0|0.0|0.0|0.05|0.0|0.0|0.15|-33.04|-71.50027777777778|WGS84
Valparaíso|Valparaíso|Viña del Mar|2008-2009|JARDIN BOTANICO|2008-11-09|13:27|197.0|Sin alerta|No definido|Tránsito de personasvehículos o aeronaves|0.0|0.0|0.0|0.2|0.0|0.0|0.0|0.2|0.0|0.0|0.4|-33.04888888888889|-71.50055555555555|WGS84
Valparaíso|Valparaíso|Valparaíso|2008-2009|VILLA RAPANUI|2008-11-10|14:28|42.0|Sin alerta|No definido|Tránsito de personasvehículos o aeronaves|0.0|0.0|0.0|0.0|0.0|0.0|0.0|0.01|0.0|0.0|0.01|-33.05638888888889|-71.58638888888889|WGS84
Valparaíso|Marga Marga|Limache|2008-2009|LIMACHE SAN ALFONSO|2008-11-11|16:13|122.0|Sin alerta|No definido|Tránsito de personasvehículos o aeronaves|0.0|0.0|0.0|0.0|0.0|0.0|0.5|0.5|0.0|0.0|1.0|-33.00833333333333|-71.26416666666667|WGS84
Valparaíso|Marga Marga|Villa Alemana|2008-2009|FUNDO OLIVARI|2008-11-11|17:38|97.0|Sin alerta|No definido|Tránsito de personasvehículos o aeronaves|0.0|0.0|0.0|0.0|0.0|0.0|0.1|0.2|0.0|0.0|0.3|-33.06944444444444|-71.37277777777778|WGS84
Valparaíso|Valparaíso|Valparaíso|2008-2009|LA PLANCHADA|2008-11-11|18:57|31.0|Sin alerta|No definido|Tránsito de personasvehículos o aeronaves|0.0|0.0|0.0|0.0|0.0|0.0|0.01|0.01|0.0|0.0|0.02|-33.065555555555555|-71.57611111111112|WGS84
Valparaíso|Marga Marga|Villa Alemana|2008-2009|CERRO LA VIRGEN|2008-11-14|18:02|87.0|Sin alerta|No definido|Tránsito de personasvehículos o aeronaves|0.0|0.0|0.0|0.0|0.0|0.0|0.1|0.2|0.0|0.0|0.3|-33.03388888888889|-71.35027777777778|WGS84
Valparaíso|Marga Marga|Villa Alemana|2008-2009|RUMIE|2008-11-15|18:13|122.0|Sin alerta|IFor-Vn|Actividades recreativas|0.0|0.0|0.0|0.0|0.0|0.0|0.1|0.4|0.0|0.0|0.5|-33.01833333333333|-71.3825|WGS84
Valparaíso|San Antonio|San Antonio|2008-2009|LAS LAJAS|2008-11-16|14:00|145.0|Sin alerta|No definido|Incendios intencionales|0.0|0.0|0.0|0.16|0.0|0.0|0.05|0.15|0.0|0.0|0.36|-33.60638888888889|-71.5813888888889|WGS84
Valparaíso|Valparaíso|Valparaíso|2008-2009|FUNDO PAJONAL|2008-11-16|16:06|108.0|Sin alerta|No definido|Tránsito de personasvehículos o aeronaves|0.0|0.0|0.0|0.4|0.0|0.0|0.0|0.0|0.0|0.0|0.4|-33.065|-71.5975|WGS84
Valparaíso|Valparaíso|Valparaíso|2008-2009|PLAYA ANCHA|2008-11-16|17:10|109.0|Sin alerta|No definido|Tránsito de personasvehículos o aeronaves|0.0|0.0|0.0|0.0|0.0|0.0|0.07|0.03|0.0|0.0|0.1|-33.036944444444444|-71.65027777777777|WGS84
Valparaíso|Marga Marga|Quilpué|2008-2009|BELLOTO SUR 10º SECTOR|2008-11-17|16:58|52.0|Sin alerta|No definido|Actividades recreativas|0.0|0.0|0.0|0.0|0.0|0.0|0.0|0.02|0.0|0.0|0.02|-33.06|-71.40444444444445|WGS84
Valparaíso|Valparaíso|Casablanca|2008-2009|FUNDO LAS ROSAS|2008-11-19|12:27|85.0|Sin alerta|No definido|Tránsito de personasvehículos o aeronaves|0.0|0.0|0.0|0.02|0.0|0.0|0.0|0.01|0.0|0.0|0.03|-33.304722222222225|-71.33611111111111|WGS84
Valparaíso|Valparaíso|Viña del Mar|2008-2009|CANAL BEAGLE|2008-11-19|17:23|33.0|Sin alerta|No definido|Actividades recreativas|0.0|0.0|0.0|0.0|0.0|0.0|0.0|0.01|0.0|0.0|0.01|-33.04|-71.50027777777778|WGS84
Valparaíso|Marga Marga|Villa Alemana|2008-2009|COLEGIO SAN NICOLAS|2008-11-20|14:49|56.0|Sin alerta|No definido|Actividades recreativas|0.0|0.0|0.0|0.0|0.0|0.0|0.0|0.03|0.0|0.0|0.03|-33.06055555555555|-71.3725|WGS84
Valparaíso|Marga Marga|Quilpué|2008-2009|LA LAGUNA|2008-11-20|15:35|157.0|Sin alerta|No definido|Tránsito de personasvehículos o aeronaves|0.0|0.0|0.0|0.0|0.0|0.0|0.3|0.2|0.0|0.0|0.5|-33.09583333333333|-71.40555555555555|WGS84
Valparaíso|San Felipe de Aconcagua|San Felipe|2008-2009|EL TOTORAL|2008-11-20|15:28|375.0|Sin alerta|No definido|Tránsito de personasvehículos o aeronaves|0.0|0.0|0.0|1.0|0.0|0.0|6.0|1.0|0.0|0.0|8.0|-32.72805555555556|-70.75555555555556|WGS84
Valparaíso|San Antonio|San Antonio|2008-2009|TREMOLEN|2008-11-20|15:50|110.0|Sin alerta|No definido|Incendios intencionales|0.0|0.0|0.0|0.02|0.0|0.0|0.0|0.02|0.0|0.0|0.04|-33.61555555555555|-71.57083333333334|WGS84
Valparaíso|San Antonio|San Antonio|2008-2009|LAS LAJAS|2008-11-21|14:00|130.0|Sin alerta|No definido|Incendios intencionales|0.0|0.0|0.0|0.2|0.0|0.0|0.0|0.15|0.0|0.0|0.35|-33.60638888888889|-71.5813888888889|WGS84
Valparaíso|San Antonio|Algarrobo|2008-2009|TUNQUEN|2008-11-21|15:00|185.0|Sin alerta|No definido|Tránsito de personasvehículos o aeronaves|0.0|0.0|0.0|0.0|0.0|0.0|0.0|0.01|0.0|0.02|0.03|-33.290277777777774|-71.60416666666667|WGS84
Valparaíso|Valparaíso|Valparaíso|2008-2009|CERRO FLORIDA|2008-11-21|15:50|1207.0|Sin alerta|No definido|Tránsito de personasvehículos o aeronaves|0.0|0.0|0.0|1.0|0.0|0.0|0.2|1.0|0.0|0.0|2.2|-33.06444444444445|-71.62944444444445|WGS84
Valparaíso|San Antonio|San Antonio|2008-2009|TREMOLEN|2008-11-21|14:00|225.0|Sin alerta|No definido|Incendios intencionales|0.0|0.0|0.0|0.0|0.0|0.0|0.05|0.2|0.0|0.0|0.25|-33.61527777777778|-71.59222222222222|WGS84
Valparaíso|Marga Marga|Villa Alemana|2008-2009|LAS VEGAS|2008-11-21|17:20|22.0|Sin alerta|No definido|Actividades recreativas|0.0|0.0|0.0|0.0|0.0|0.0|0.4|3.0|0.0|0.0|3.4|-33.024166666666666|-71.39277777777778|WGS84
Valparaíso|San Antonio|Cartagena|2008-2009|PUERTO NUEVO|2008-11-21|18:15|45.0|Sin alerta|No definido|Actividades recreativas|0.0|0.0|0.0|0.0|0.0|0.0|0.0|0.02|0.0|0.0|0.02|-33.55166666666667|-71.61194444444445|WGS84
Valparaíso|Marga Marga|Quilpué|2008-2009|BELLOTO NORTE|2008-11-22|12:12|35.0|Sin alerta|No definido|Tránsito de personasvehículos o aeronaves|0.0|0.0|0.0|0.0|0.0|0.0|0.0|0.02|0.0|0.0|0.02|-33.0325|-71.42527777777778|WGS84
Valparaíso|Valparaíso|Valparaíso|2008-2009|RODELILLO|2008-11-22|12:50|70.0|Sin alerta|No definido|Incendios intencionales|0.0|0.0|0.0|0.0|0.0|0.0|0.04|0.06|0.0|0.0|0.1|-33.065555555555555|-71.57611111111112|WGS84
Valparaíso|Marga Marga|Quilpué|2008-2009|AGUAS DE LA FORESTA|2008-11-22|14:21|92.0|Sin alerta|No definido|Actividades recreativas|0.0|0.0|0.0|0.0|0.0|0.0|0.3|0.7|0.0|0.0|1.0|-33.06916666666667|-71.39416666666666|WGS84
Valparaíso|San Antonio|San Antonio|2008-2009|FUNDO LLO LLEO|2008-11-22|14:00|150.0|Sin alerta|No definido|Incendios intencionales|0.0|0.0|0.0|0.1|0.0|0.0|0.02|0.3|0.0|0.0|0.42|-33.60638888888889|-71.5813888888889|WGS84
Valparaíso|San Antonio|San Antonio|2008-2009|FUNDO TREMOLEN|2008-11-22|14:20|80.0|Sin alerta|No definido|Incendios intencionales|0.0|0.0|0.0|0.01|0.0|0.0|0.0|0.01|0.0|0.0|0.02|-33.61527777777778|-71.58166666666666|WGS84
Valparaíso|Valparaíso|Valparaíso|2008-2009|PLACILLA|2008-11-22|18:56|30.0|Sin alerta|No definido|Actividades recreativas|0.0|0.0|0.0|0.02|0.0|0.0|0.0|0.0|0.0|0.0|0.02|-33.111111111111114|-71.55583333333334|WGS84
Valparaíso|Marga Marga|Quilpué|2008-2009|LOS COLONOS|2008-11-23|12:45|177.0|Sin alerta|No definido|Tránsito de personasvehículos o aeronaves|0.0|0.0|0.0|0.1|0.0|0.0|0.3|0.6|0.0|0.0|1.0|-33.03277777777778|-71.41444444444444|WGS84
Valparaíso|Valparaíso|Valparaíso|2008-2009|PARCELA REGIMIENTO MAIPO|2008-11-23|14:00|76.0|Sin alerta|No definido|Tránsito de personasvehículos o aeronaves|0.0|0.0|0.0|0.0|0.0|0.0|0.0|0.0|0.0|0.02|0.02|-33.073055555555555|-71.64055555555555|WGS84
Valparaíso|Marga Marga|Villa Alemana|2008-2009|CERRO LA VIRGEN|2008-11-23|16:14|153.0|Sin alerta|No definido|Actividades recreativas|0.0|0.0|0.0|0.0|0.0|0.0|2.0|1.0|0.0|0.0|3.0|-33.033611111111114|-71.36111111111111|WGS84
Valparaíso|San Antonio|San Antonio|2008-2009|FUNDO LLO LLEO|2008-11-24|14:20|48.0|Sin alerta|No definido|Incendios intencionales|0.0|0.0|0.0|0.01|0.0|0.0|0.0|0.0|0.0|0.0|0.01|-33.60583333333334|-71.60277777777777|WGS84
Valparaíso|Marga Marga|Quilpué|2008-2009|BELLOTO NORTE|2008-11-24|14:53|137.0|Sin alerta|No definido|Actividades recreativas|0.0|0.0|0.0|0.0|0.0|0.0|0.2|0.4|0.0|0.0|0.6000000000000001|-33.0325|-71.42527777777778|WGS84
Valparaíso|Marga Marga|Villa Alemana|2008-2009|LAS LOMAS|2008-11-24|16:02|28.0|Sin alerta|No definido|Actividades recreativas|0.0|0.0|0.0|0.0|0.0|0.0|0.02|0.05|0.0|0.0|0.07|-33.03305555555556|-71.39305555555555|WGS84
Valparaíso|Valparaíso|Valparaíso|2008-2009|MONTEDONICO|2008-11-24|18:53|59.0|Sin alerta|No definido|Tránsito de personasvehículos o aeronaves|0.0|0.0|0.0|0.0|0.0|0.0|0.01|0.01|0.0|0.0|0.02|-33.055277777777775|-71.62916666666666|WGS84
Valparaíso|Valparaíso|Valparaíso|2008-2009|PLACILLA|2008-11-26|21:07|71.0|Sin alerta|No definido|Tránsito de personasvehículos o aeronaves|0.0|0.0|0.0|0.01|0.0|0.0|0.0|0.0|0.0|0.0|0.01|-33.111111111111114|-71.55583333333334|WGS84
Valparaíso|San Antonio|El Tabo|2008-2009|FUNDO EL MEMBRILLO|2008-11-27|13:00|178.0|Sin alerta|No definido|Tránsito de personasvehículos o aeronaves|0.0|0.0|0.0|0.0|0.0|0.0|0.0|0.1|0.0|0.15|0.25|-33.45194444444444|-71.64111111111112|WGS84
Valparaíso|San Antonio|San Antonio|2008-2009|AGUA MALA|2008-11-27|13:42|38.0|Sin alerta|No definido|Tránsito de personasvehículos o aeronaves|0.0|0.0|0.0|0.0|0.0|0.0|0.02|0.04|0.0|0.0|0.06|-33.62416666666667|-71.5925|WGS84
Valparaíso|San Antonio|San Antonio|2008-2009|ALTO SAN JUAN|2008-11-27|14:15|65.0|Sin alerta|No definido|Incendios intencionales|0.0|0.0|0.0|0.03|0.0|0.0|0.0|0.01|0.0|0.0|0.04|-33.624722222222225|-71.57111111111111|WGS84
Valparaíso|San Antonio|San Antonio|2008-2009|FUNDO LLOLLEO|2008-11-27|15:10|65.0|Sin alerta|No definido|Incendios intencionales|0.0|0.0|0.0|0.02|0.0|0.0|0.0|0.03|0.0|0.0|0.05|-33.60583333333334|-71.60277777777777|WGS84
Valparaíso|Valparaíso|Viña del Mar|2008-2009|SANTA JULIA|2008-11-28|15:52|73.0|Sin alerta|No definido|Actividades recreativas|0.0|0.0|0.0|0.0|0.0|0.0|0.0|0.02|0.0|0.0|0.02|-33.00361111111111|-71.51|WGS84
Valparaíso|Marga Marga|Quilpué|2008-2009|EX BASURAL|2008-11-28|16:11|79.0|Sin alerta|No definido|Tránsito de personasvehículos o aeronaves|0.0|0.0|0.0|0.0|0.0|0.0|0.05|0.15|0.0|0.0|0.2|-33.02361111111111|-71.41416666666667|WGS84
Valparaíso|Valparaíso|Quintero|2008-2009|EL TEBO HORCON|2008-11-29|08:30|421.0|Sin alerta|IFor-Vn|Quema de desechos|0.0|0.0|0.0|1.5|0.0|0.0|0.0|1.5|0.0|0.0|3.0|-32.724444444444444|-71.49166666666666|WGS84
Valparaíso|Marga Marga|Villa Alemana|2008-2009|POBLACION WILSON|2008-11-29|17:52|68.0|Sin alerta|No definido|Actividades recreativas|0.0|0.0|0.0|0.05|0.0|0.0|0.05|0.15|0.0|0.0|0.25|-33.043055555555554|-71.34|WGS84
Valparaíso|Marga Marga|Limache|2008-2009|LO CAHAPARRO|2008-11-30|17:45|153.0|Sin alerta|No definido|Tránsito de personasvehículos o aeronaves|0.0|0.0|0.0|0.1|0.0|0.0|0.1|0.1|0.0|0.0|0.3|-33.00888888888889|-71.23194444444445|WGS84
Valparaíso|San Antonio|El Tabo|2008-2009|ALTO CHEPICA|2008-12-01|14:20|105.0|Sin alerta|No definido|Faenas forestales|0.0|0.0|0.05|0.0|0.0|0.0|0.0|0.15|0.0|0.0|0.2|-33.43388888888889|-71.64055555555555|WGS84
Valparaíso|Valparaíso|Valparaíso|2008-2009|LOS OLIVOS|2008-12-03|16:39|81.0|Sin alerta|No definido|Actividades recreativas|0.0|0.0|0.0|0.0|0.0|0.0|0.0|0.0|0.0|0.1|0.1|-33.111111111111114|-71.55583333333334|WGS84
Valparaíso|Marga Marga|Quilpué|2008-2009|EL RETIRO|2008-12-03|17:46|29.0|Sin alerta|No definido|Actividades recreativas|0.0|0.0|0.0|0.0|0.0|0.0|0.0|0.1|0.0|0.0|0.1|-33.02333333333333|-71.43555555555555|WGS84
Valparaíso|Marga Marga|Quilpué|2008-2009|VILLA CUMING|2008-12-04|13:29|86.0|Sin alerta|No definido|Actividades recreativas|0.0|0.0|0.0|0.0|0.0|0.0|0.1|0.3|0.0|0.0|0.4|-33.059444444444445|-71.42611111111111|WGS84
Valparaíso|San Antonio|San Antonio|2008-2009|FUNDO LLO LLEO|2008-12-04|13:40|80.0|Sin alerta|No definido|Incendios intencionales|0.0|0.0|0.0|0.2|0.0|0.0|0.0|0.4|0.0|0.0|0.6000000000000001|-33.59722222222222|-71.59166666666667|WGS84
Valparaíso|San Antonio|San Antonio|2008-2009|FUNDO LLO LLEO 2|2008-12-04|14:19|55.0|Sin alerta|No definido|Tránsito de personasvehículos o aeronaves|0.0|0.0|0.0|0.03|0.0|0.0|0.0|0.0|0.0|0.0|0.03|-33.60583333333334|-71.60277777777777|WGS84
Valparaíso|Marga Marga|Quilpué|2008-2009|VILLA CUMING 2|2008-12-04|16:33|28.0|Sin alerta|No definido|Actividades recreativas|0.0|0.0|0.0|0.0|0.0|0.0|0.01|0.01|0.0|0.0|0.02|-33.059444444444445|-71.42611111111111|WGS84
Valparaíso|San Antonio|San Antonio|2008-2009|FUNDO MIRAMAR|2008-12-04|16:45|115.0|Sin alerta|No definido|Incendios intencionales|0.0|0.0|0.0|0.15|0.0|0.0|0.0|0.2|0.0|0.0|0.35|-33.58833333333333|-71.58083333333333|WGS84
Valparaíso|Valparaíso|Puchuncavi|2008-2009|LA CHOCOTA|2008-12-04|16:25|242.0|Sin alerta|No definido|Incendios intencionales|0.0|0.0|0.0|1.0|0.0|0.0|0.0|0.0|0.0|0.0|1.0|-32.724444444444444|-71.49166666666666|WGS84
Valparaíso|Marga Marga|Villa Alemana|2008-2009|LAS AMERICAS|2008-12-05|12:48|209.0|Sin alerta|No definido|Actividades recreativas|0.0|0.0|0.0|0.0|0.0|1.0|1.0|2.0|0.0|0.0|4.0|-33.01833333333333|-71.3825|WGS84
Valparaíso|Quillota|Quillota|2008-2009|EX REGIMIENTO INGENIEROS|2008-12-05|14:25|205.0|Sin alerta|No definido|Actividades recreativas|0.0|0.0|0.0|0.0|0.0|0.0|0.0|4.0|0.0|0.0|4.0|-32.89138888888889|-71.25027777777778|WGS84
Valparaíso|Marga Marga|Villa Alemana|2008-2009|PUYARAL|2008-12-05|16:18|88.0|Sin alerta|No definido|Actividades recreativas|0.0|0.0|0.0|0.0|0.0|0.0|0.05|0.35|0.0|0.0|0.3999999999999999|-33.06|-71.3938888888889|WGS84
Valparaíso|Marga Marga|Limache|2008-2009|LLIU LLIU|2008-12-05|16:48|109.0|Sin alerta|No definido|Actividades recreativas|0.0|0.0|0.0|0.0|0.0|0.0|3.0|0.0|0.0|0.0|3.0|-33.07222222222222|-71.22277777777778|WGS84
Valparaíso|Marga Marga|Villa Alemana|2008-2009|POBLACION WILSON|2008-12-05|17:17|78.0|Sin alerta|No definido|Actividades recreativas|0.0|0.0|0.0|0.1|0.0|0.0|0.0|0.4|0.0|0.0|0.5|-33.05222222222222|-71.34|WGS84
Valparaíso|Marga Marga|Villa Alemana|2008-2009|LA FRONTERA|2008-12-05|17:21|81.0|Sin alerta|No definido|Incendios intencionales|0.0|0.0|0.0|0.1|0.0|0.0|0.1|0.3|0.0|0.0|0.5|-33.06944444444444|-71.37277777777778|WGS84
Valparaíso|Marga Marga|Quilpué|2008-2009|TRANQUE LAS  VACAS|2008-12-05|18:13|67.0|Sin alerta|No definido|Actividades recreativas|0.0|0.0|0.0|0.0|0.0|0.0|0.0|2.0|0.0|0.0|2.0|-33.068888888888885|-71.40472222222222|WGS84
Valparaíso|Valparaíso|Viña del Mar|2008-2009|CANAL BEAGLE|2008-12-05|18:56|52.0|Sin alerta|No definido|Tránsito de personasvehículos o aeronaves|0.0|0.0|0.0|0.0|0.0|0.0|0.1|0.1|0.0|0.0|0.2|-33.040277777777774|-71.48972222222223|WGS84
Valparaíso|Marga Marga|Quilpué|2008-2009|LAS LOMAS|2008-12-06|15:54|103.0|Sin alerta|No definido|Tránsito de personasvehículos o aeronaves|0.0|0.0|0.0|0.0|0.0|0.0|0.05|0.0|0.0|0.0|0.05|-33.03277777777778|-71.40388888888889|WGS84
Valparaíso|Valparaíso|Casablanca|2008-2009|MELOSILLA|2008-12-06|16:23|102.0|Sin alerta|No definido|Accidentes eléctricos|0.0|0.0|0.0|0.02|0.0|0.0|0.0|0.0|0.0|0.0|0.02|-33.19277777777778|-71.5261111111111|WGS84
Valparaíso|Marga Marga|Limache|2008-2009|FUNDO MONASTERIO LLIU LLIU|2008-12-06|17:35|205.0|Sin alerta|No definido|Tránsito de personasvehículos o aeronaves|0.0|0.0|0.0|0.0|0.0|0.0|0.6|0.9|0.0|0.0|1.5|-33.08138888888889|-71.21222222222222|WGS84
Valparaíso|Marga Marga|Quilpué|2008-2009|BELLOTO  SUR|2008-12-06|17:35|73.0|Sin alerta|No definido|Actividades recreativas|0.0|0.0|0.0|0.0|0.0|0.0|0.02|0.04|0.0|0.0|0.06|-33.068888888888885|-71.40472222222222|WGS84
Valparaíso|San Antonio|San Antonio|2008-2009|FUNDO LLO LLEO|2008-12-07|13:45|150.0|Sin alerta|No definido|Incendios intencionales|0.0|0.0|0.0|0.25|0.0|0.0|0.0|0.15|0.0|0.0|0.4|-33.60638888888889|-71.5813888888889|WGS84
Valparaíso|San Antonio|San Antonio|2008-2009|FUNDO LLO LLEO 2|2008-12-07|14:30|105.0|Sin alerta|No definido|Incendios intencionales|0.0|0.0|0.0|0.2|0.0|0.0|0.0|0.1|0.0|0.0|0.3|-33.60638888888889|-71.5813888888889|WGS84
Valparaíso|Valparaíso|Valparaíso|2008-2009|PRIMER SECTOR CORVI|2008-12-07|14:30|76.0|Sin alerta|No definido|Actividades recreativas|0.0|0.0|0.0|0.0|0.0|0.0|0.05|0.15|0.0|0.0|0.2|-33.045833333333334|-71.65055555555556|WGS84
Valparaíso|San Antonio|Cartagena|2008-2009|CAMINO VIEJO CARTAGENA|2008-12-07|16:20|85.0|Sin alerta|No definido|Actividades recreativas|0.0|0.0|0.0|0.0|0.0|0.0|0.0|0.25|0.0|0.0|0.25|-33.56111111111111|-71.59055555555555|WGS84
Valparaíso|Valparaíso|Casablanca|2008-2009|LO VASQUEZ|2008-12-08|15:42|29.0|Sin alerta|No definido|Tránsito de personasvehículos o aeronaves|0.0|0.0|0.0|0.0|0.0|0.0|0.0|0.02|0.0|0.0|0.02|-33.2575|-71.44222222222223|WGS84
Valparaíso|Marga Marga|Villa Alemana|2008-2009|LAS AMERICAS|2008-12-08|16:13|24.0|Sin alerta|No definido|Actividades recreativas|0.0|0.0|0.0|0.0|0.0|0.0|0.0|0.01|0.0|0.0|0.01|-33.033611111111114|-71.37166666666667|WGS84
Valparaíso|Valparaíso|Quintero|2008-2009|QUINTERO|2008-12-08|16:35|164.0|Sin alerta|No definido|Tránsito de personasvehículos o aeronaves|0.0|0.0|0.0|0.0|0.0|0.0|0.3|0.7|0.0|0.0|1.0|-32.80555555555556|-71.50444444444445|WGS84
Valparaíso|Valparaíso|Viña del Mar|2008-2009|FUNDO LAS CENIZAS|2008-12-08|18:05|32.0|Sin alerta|No definido|Tránsito de personasvehículos o aeronaves|0.0|0.0|0.0|0.0|0.0|0.0|0.01|0.01|0.0|0.0|0.02|-33.1025|-71.53416666666666|WGS84
Valparaíso|Valparaíso|Valparaíso|2008-2009|EL MOLLE|2008-12-08|18:17|147.0|Sin alerta|No definido|Tránsito de personasvehículos o aeronaves|0.0|0.0|0.0|0.2|0.0|0.0|1.3|0.0|0.0|0.0|1.5|-33.073055555555555|-71.64055555555555|WGS84
Valparaíso|San Antonio|San Antonio|2008-2009|FUNDO LLO LLEO|2008-12-09|13:15|65.0|Sin alerta|No definido|Incendios intencionales|0.0|0.02|0.0|0.0|0.0|0.0|0.0|0.0|0.0|0.0|0.02|-33.61527777777778|-71.59222222222222|WGS84
Valparaíso|San Antonio|San Antonio|2008-2009|FUNDO LLO LLEO|2008-12-09|13:15|95.0|Sin alerta|No definido|Incendios intencionales|0.0|0.0|0.0|0.0|0.0|0.0|0.05|0.3|0.0|0.0|0.35|-33.61527777777778|-71.58166666666666|WGS84
Valparaíso|San Antonio|San Antonio|2008-2009|FUNDO EL PIÑEO|2008-12-09|13:50|95.0|Sin alerta|No definido|Incendios intencionales|0.0|0.0|0.0|0.15|0.0|0.0|0.0|0.4|0.0|0.0|0.55|-33.60638888888889|-71.5813888888889|WGS84
Valparaíso|Marga Marga|Limache|2008-2009|LLIU LLIU|2008-12-09|14:48|112.0|Sin alerta|No definido|Tránsito de personasvehículos o aeronaves|0.0|0.0|0.0|0.0|0.0|0.0|0.3|0.4|0.0|0.0|0.7|-33.09027777777778|-71.22333333333333|WGS84
Valparaíso|Marga Marga|Quilpué|2008-2009|LAGUNA QUILPUE|2008-12-09|16:08|123.0|Sin alerta|No definido|Incendios intencionales|0.0|0.0|0.0|0.0|0.0|0.0|0.2|0.5|0.0|0.0|0.7|-33.07805555555556|-71.405|WGS84
Valparaíso|San Antonio|San Antonio|2008-2009|VISTA HERMOSA|2008-12-09|15:45|210.0|Sin alerta|No definido|Tránsito de personasvehículos o aeronaves|0.0|0.0|0.0|0.2|0.0|0.0|0.0|1.0|0.0|0.0|1.2|-33.56055555555555|-71.61222222222223|WGS84
Valparaíso|Quillota|Quillota|2008-2009|CERRO MAYACA|2008-12-09|16:13|151.0|Sin alerta|No definido|Incendios intencionales|0.0|0.0|0.0|0.15|0.0|0.5|0.25|0.6|0.0|0.0|1.5|-32.864444444444445|-71.24972222222222|WGS84
Valparaíso|San Antonio|Cartagena|2008-2009|QUILLAICILLO|2008-12-09|16:15|150.0|Sin alerta|No definido|Incendios intencionales|0.0|0.0|0.0|1.5|0.0|0.0|0.5|5.0|0.0|0.0|7.0|-33.51777777777778|-71.50333333333333|WGS84
Valparaíso|Marga Marga|Villa Alemana|2008-2009|POBLACION WILSON|2008-12-09|17:00|43.0|Sin alerta|No definido|Actividades recreativas|0.0|0.0|0.0|0.0|0.0|0.0|0.0|0.5|0.0|0.0|0.5|-33.043055555555554|-71.34|WGS84
Valparaíso|Marga Marga|Quilpué|2008-2009|ZOO QUILPUE|2008-12-09|18:18|67.0|Sin alerta|No definido|Quema de desechos|0.0|0.0|0.0|0.0|0.0|0.0|0.0|0.02|0.0|0.0|0.02|-33.05027777777778|-71.43638888888889|WGS84
Valparaíso|Marga Marga|Limache|2008-2009|LLIU LLIU|2008-12-10|15:20|212.0|Sin alerta|No definido|Incendios intencionales|0.0|0.0|0.0|0.0|0.0|0.0|1.0|1.0|0.0|0.0|2.0|-33.09027777777778|-71.22333333333333|WGS84
Valparaíso|Marga Marga|Villa Alemana|2008-2009|POBLACION WILSON|2008-12-10|15:37|53.0|Sin alerta|No definido|Actividades recreativas|0.0|0.0|0.0|0.0|0.0|0.0|0.1|0.2|0.0|0.0|0.3|-33.034166666666664|-71.33972222222222|WGS84
Valparaíso|Valparaíso|Puchuncavi|2008-2009|EL TEBO|2008-12-11|09:36|390.0|Sin alerta|No definido|Incendios intencionales|0.0|0.0|0.0|1.0|0.0|0.0|0.0|2.0|0.0|0.0|3.0|-32.724444444444444|-71.50222222222222|WGS84
Valparaíso|San Antonio|San Antonio|2008-2009|FUNDO LLO LLEO|2008-12-12|13:00|164.0|Sin alerta|No definido|Incendios intencionales|0.0|0.1|0.0|0.0|0.0|0.0|0.5|1.0|0.0|0.0|1.6|-33.60638888888889|-71.5813888888889|WGS84
Valparaíso|San Antonio|San Antonio|2008-2009|FUNDO LLO LLEO 2|2008-12-12|13:45|45.0|Sin alerta|No definido|Tránsito de personasvehículos o aeronaves|0.0|0.0|0.0|0.0|0.0|0.0|0.0|0.02|0.0|0.0|0.02|-33.60583333333334|-71.60277777777777|WGS84
Valparaíso|Valparaíso|Concón|2008-2009|VILLA PRIMAVERA|2008-12-12|15:22|114.0|Sin alerta|IFIUr-Fo|Tránsito de personasvehículos o aeronaves|0.0|0.2|0.0|0.0|0.0|0.0|0.0|0.2|0.0|0.0|0.4|-32.95777777777778|-71.5325|WGS84
Valparaíso|San Antonio|San Antonio|2008-2009|FUNDO MIRAMAR|2008-12-12|15:25|92.0|Sin alerta|No definido|Actividades recreativas|0.0|0.0|0.0|0.0|0.0|0.0|0.0|6.0|0.0|0.0|6.0|-33.58805555555556|-71.59138888888889|WGS84
Valparaíso|Marga Marga|Villa Alemana|2008-2009|POBLACION WILSON|2008-12-12|17:25|131.0|Sin alerta|No definido|Actividades recreativas|0.0|0.0|0.0|0.0|0.0|0.0|0.0|1.5|0.0|0.0|1.5|-33.05222222222222|-71.34|WGS84
Valparaíso|San Antonio|Cartagena|2008-2009|COMUNIDAD EL VIAJANTE|2008-12-12|19:00|80.0|Sin alerta|IFor-PI|No definida|0.0|0.0|0.0|0.02|0.0|0.0|0.0|0.03|0.0|0.0|0.05|-33.52527777777778|-71.57888888888888|WGS84
Valparaíso|Petorca|Cabildo|2008-2009|SAN LORENZO|2008-12-13|16:50|100.0|Sin alerta|No definido|Tránsito de personasvehículos o aeronaves|0.0|0.0|0.0|0.02|0.0|0.0|0.0|0.18|0.0|0.0|0.1999999999999999|-32.426944444444445|-70.99416666666667|WGS84
Valparaíso|Marga Marga|Limache|2008-2009|FUNDO LORETO|2008-12-14|14:00|213.0|Sin alerta|No definido|Incendios intencionales|0.0|0.0|0.0|0.0|0.0|0.5|1.5|2.0|0.0|0.0|4.0|-32.98138888888889|-71.26333333333334|WGS84
Valparaíso|Valparaíso|Puchuncavi|2008-2009|EL TEBO|2008-12-15|17:55|165.0|Sin alerta|No definido|Actividades recreativas|0.0|0.0|0.0|1.0|0.0|0.0|0.0|0.0|0.0|0.5|1.5|-32.724444444444444|-71.49166666666666|WGS84
Valparaíso|San Antonio|San Antonio|2008-2009|FUNDO DE LLO LLEO|2008-12-16|13:45|55.0|Sin alerta|No definido|Incendios intencionales|0.0|0.0|0.0|0.06|0.0|0.0|0.0|0.09|0.0|0.0|0.15|-33.596944444444446|-71.6025|WGS84
Valparaíso|San Antonio|San Antonio|2008-2009|FUNDO DE LLO LLEO 2|2008-12-16|14:00|198.0|Sin alerta|IFor-Vn|Incendios intencionales|0.0|0.0|0.0|0.05|0.0|0.0|0.0|0.15|0.0|0.0|0.2|-33.60583333333334|-71.60277777777777|WGS84
Valparaíso|San Antonio|San Antonio|2008-2009|VISTA HERMOSA|2008-12-16|17:50|52.0|Sin alerta|No definido|Actividades recreativas|0.0|0.0|0.0|0.15|0.0|0.0|0.0|0.2|0.0|0.0|0.35|-33.56055555555555|-71.61222222222223|WGS84
Valparaíso|Valparaíso|Viña del Mar|2008-2009|CANAL BEAGLE|2008-12-16|20:00|80.0|Sin alerta|No definido|Actividades recreativas|0.0|0.0|0.0|0.1|0.0|0.0|0.1|0.0|0.0|0.0|0.2|-33.04|-71.50027777777778|WGS84
Valparaíso|Valparaíso|Viña del Mar|2008-2009|LAJARILLA|2008-12-17|12:35|131.0|Sin alerta|No definido|Accidentes eléctricos|0.0|0.0|0.0|0.0|0.0|0.0|0.5|1.0|0.0|0.0|1.5|-32.967777777777776|-71.49833333333333|WGS84
Valparaíso|Marga Marga|Quilpué|2008-2009|TENIENTE SERRANO|2008-12-17|13:19|133.0|Sin alerta|No definido|Incendios intencionales|0.0|0.0|0.0|0.0|0.0|0.0|0.3|0.4|0.0|0.0|0.7|-33.06861111111111|-71.41555555555556|WGS84
Valparaíso|San Antonio|San Antonio|2008-2009|FUNDO LLO LLEO|2008-12-17|12:30|147.0|Sin alerta|No definido|Actividades recreativas|0.0|0.0|0.0|0.1|0.0|0.0|0.0|0.15|0.0|0.0|0.25|-33.596944444444446|-71.6025|WGS84
Valparaíso|Marga Marga|Quilpué|2008-2009|6º SECTOR BELLOTO SUR|2008-12-17|13:55|83.0|Sin alerta|No definido|Actividades recreativas|0.0|0.0|0.0|0.0|0.0|0.0|0.0|0.04|0.0|0.0|0.04|-33.06916666666667|-71.39416666666666|WGS84
Valparaíso|San Antonio|San Antonio|2008-2009|FUNDO LLO LLEO|2008-12-17|14:30|50.0|Sin alerta|No definido|Actividades recreativas|0.0|0.0|0.0|0.01|0.0|0.0|0.0|0.01|0.0|0.0|0.02|-33.60611111111111|-71.59194444444445|WGS84
Valparaíso|San Antonio|San Antonio|2008-2009|FUNDO LLO LLEO 3|2008-12-17|15:30|63.0|Sin alerta|No definido|Actividades recreativas|0.0|0.0|0.0|0.0|0.0|0.0|0.0|0.15|0.0|0.0|0.15|-33.61527777777778|-71.59222222222222|WGS84
Valparaíso|Marga Marga|Limache|2008-2009|MEDIA LUNA  CAMINO LLIU LLIU|2008-12-17|16:00|103.0|Sin alerta|No definido|Quema de desechos|0.0|0.0|0.0|0.05|0.0|0.0|0.0|0.02|0.0|0.0|0.07|-33.06333333333333|-71.2225|WGS84
Valparaíso|Valparaíso|Valparaíso|2008-2009|RAPA NUI|2008-12-17|16:50|38.0|Sin alerta|No definido|Incendios intencionales|0.0|0.0|0.0|0.0|0.0|0.0|0.0|0.01|0.0|0.0|0.01|-33.05638888888889|-71.58638888888889|WGS84
Valparaíso|Marga Marga|Villa Alemana|2008-2009|FUNDO OLIVARI|2008-12-17|17:42|86.0|Sin alerta|No definido|Incendios intencionales|0.0|0.0|0.0|0.0|0.0|0.0|0.01|0.02|0.0|0.0|0.03|-33.06944444444444|-71.38333333333334|WGS84
Valparaíso|Marga Marga|Limache|2008-2009|POBLACION 18 DE SEPTIEMBRE|2008-12-18|12:40|92.0|Sin alerta|No definido|Quema de desechos|0.0|0.0|0.0|0.0|0.0|0.0|0.1|0.1|0.0|0.0|0.2|-33.0175|-71.26416666666667|WGS84
Valparaíso|Valparaíso|Valparaíso|2008-2009|CERRO ROCUANT|2008-12-18|13:31|64.0|Sin alerta|No definido|Actividades recreativas|0.0|0.0|0.0|0.0|0.0|0.0|0.1|0.1|0.0|0.0|0.2|-33.074444444444445|-71.57638888888889|WGS84
Valparaíso|Marga Marga|Villa Alemana|2008-2009|POBLACION WILSON PARADERO 3|2008-12-18|14:44|57.0|Sin alerta|No definido|Actividades recreativas|0.0|0.0|0.0|0.0|0.0|0.0|0.04|0.06|0.0|0.0|0.1|-33.043055555555554|-71.34|WGS84
Valparaíso|San Antonio|San Antonio|2008-2009|FUNDO LLO LLEO|2008-12-19|13:50|70.0|Sin alerta|No definido|Tránsito de personasvehículos o aeronaves|0.0|0.0|0.0|0.0|0.0|0.0|0.0|0.03|0.0|0.0|0.03|-33.61527777777778|-71.59222222222222|WGS84
Valparaíso|Quillota|Quillota|2008-2009|EL MANZANAR|2008-12-19|14:38|1348.0|Sin alerta|No definido|Tránsito de personasvehículos o aeronaves|0.0|0.0|0.0|0.0|0.0|0.0|11.0|17.0|2.0|0.0|30.0|-32.907222222222224|-71.36833333333334|WGS84
Valparaíso|Valparaíso|Valparaíso|2008-2009|EL MANZANO|2008-12-19|15:35|59.0|Sin alerta|No definido|Tránsito de personasvehículos o aeronaves|0.0|0.0|0.0|0.04|0.0|0.0|0.0|0.06|0.0|0.0|0.1|-33.07388888888889|-71.60833333333333|WGS84
Valparaíso|Valparaíso|Valparaíso|2008-2009|NUEVO PLACILLA|2008-12-19|15:31|113.0|Sin alerta|No definido|Tránsito de personasvehículos o aeronaves|0.0|0.0|0.0|0.0|0.0|0.0|0.5|0.5|0.0|0.0|1.0|-33.12027777777778|-71.54555555555555|WGS84
Valparaíso|Valparaíso|Viña del Mar|2008-2009|SPORTING|2008-12-19|17:27|64.0|Sin alerta|No definido|Actividades recreativas|0.0|0.0|0.0|0.2|0.0|0.0|0.1|0.2|0.0|0.0|0.5|-33.021388888888886|-71.53194444444445|WGS84
Valparaíso|Marga Marga|Quilpué|2008-2009|BELLOTO NORTE|2008-12-19|17:15|150.0|Sin alerta|No definido|Tránsito de personasvehículos o aeronaves|0.0|0.0|0.0|0.0|0.0|0.0|0.5|1.5|0.0|0.0|2.0|-33.02388888888889|-71.4036111111111|WGS84
Valparaíso|Valparaíso|Quintero|2008-2009|QUINTERO|2008-12-20|11:48|254.0|Sin alerta|No definido|Incendios intencionales|0.0|0.0|0.0|0.0|0.0|0.0|10.0|10.0|0.0|0.0|20.0|-32.79694444444444|-71.48277777777778|WGS84
Valparaíso|Valparaíso|Valparaíso|2008-2009|LA CHACARILLA|2008-12-20|16:08|1222.0|Sin alerta|No definido|Incendios intencionales|0.0|6.0|0.0|111.0|0.0|0.0|0.0|0.0|0.0|2.0|119.0|-33.10138888888889|-71.58777777777777|WGS84
Valparaíso|Valparaíso|Viña del Mar|2008-2009|5º  SECTOR GOMEZ CARREÑO|2008-12-20|20:00|55.0|Sin alerta|No definido|Actividades recreativas|0.0|0.0|0.0|0.0|0.0|0.0|0.1|0.1|0.0|0.0|0.2|-32.99444444444445|-71.52055555555556|WGS84
Valparaíso|San Antonio|San Antonio|2008-2009|FUNDO MIRAMAR|2008-12-21|13:15|45.0|Sin alerta|IFor-Vn|Incendios intencionales|0.0|0.0|0.0|12.2|0.0|0.0|1.0|0.4|0.0|0.0|13.6|-33.584722222222226|-71.57888888888888|WGS84
Valparaíso|San Antonio|San Antonio|2008-2009|FUNDO LLO LLEO|2008-12-21|14:10|140.0|Sin alerta|No definido|Incendios intencionales|0.0|0.01|0.0|0.15|0.0|0.0|0.0|0.05|0.0|0.0|0.21|-33.5975|-71.58111111111111|WGS84
Valparaíso|San Antonio|San Antonio|2008-2009|FUNDO LLO LLEO 2|2008-12-21|14:25|105.0|Sin alerta|No definido|Actividades recreativas|0.0|0.0|0.0|0.0|0.01|0.0|0.0|0.01|0.0|0.0|0.02|-33.60611111111111|-71.59194444444445|WGS84
Valparaíso|Marga Marga|Villa Alemana|2008-2009|EL PANGAL|2008-12-21|17:32|218.0|Sin alerta|No definido|Incendios intencionales|0.0|0.0|0.0|0.0|0.0|0.0|2.0|4.0|0.0|0.0|6.0|-33.035|-71.28611111111111|WGS84
Valparaíso|Marga Marga|Villa Alemana|2008-2009|POBLACION WILSON|2008-12-21|18:13|168.0|Sin alerta|No definido|Incendios intencionales|0.0|0.0|0.0|0.0|0.0|1.0|3.0|6.0|0.0|0.0|10.0|-33.034166666666664|-71.33972222222222|WGS84
Valparaíso|Marga Marga|Villa Alemana|2008-2009|FUNDO OLIVARI|2008-12-22|14:03|54.0|Sin alerta|No definido|Tránsito de personasvehículos o aeronaves|0.0|0.0|0.0|0.0|0.0|0.0|0.0|0.05|0.0|0.0|0.05|-33.06|-71.3938888888889|WGS84
Valparaíso|Marga Marga|Olmué|2008-2009|CAJON GRANDE|2008-12-22|14:11|175.0|Sin alerta|No definido|Tránsito de personasvehículos o aeronaves|0.0|0.0|0.0|0.0|0.0|0.0|0.05|0.15|0.0|0.0|0.2|-32.98361111111111|-71.135|WGS84
Valparaíso|Valparaíso|Viña del Mar|2008-2009|REÑACA ALTO|2008-12-22|14:40|110.0|Sin alerta|No definido|Tránsito de personasvehículos o aeronaves|0.0|0.0|0.0|0.0|0.0|0.0|0.03|0.03|0.0|0.0|0.06|-32.99527777777778|-71.48833333333333|WGS84
Valparaíso|Valparaíso|Viña del Mar|2008-2009|VILLA PRIMAVERA|2008-12-22|14:36|160.0|Sin alerta|No definido|Tránsito de personasvehículos o aeronaves|0.0|0.25|0.0|0.0|0.0|0.0|0.0|0.1|0.0|0.0|0.35|-32.93138888888889|-71.51861111111111|WGS84
Valparaíso|Valparaíso|Valparaíso|2008-2009|FUNDO LAS CENIZAS|2008-12-22|15:35|40.0|Sin alerta|No definido|Tránsito de personasvehículos o aeronaves|0.0|0.0|0.0|0.0|0.0|0.0|0.0|0.01|0.0|0.0|0.01|-33.1025|-71.53416666666666|WGS84
Valparaíso|Valparaíso|Quintero|2008-2009|CRUCE QUINTERO|2008-12-22|15:57|153.0|Sin alerta|No definido|Tránsito de personasvehículos o aeronaves|0.0|0.0|0.0|0.0|0.0|0.0|1.0|2.0|0.0|0.0|3.0|-32.797222222222224|-71.47222222222223|WGS84
Valparaíso|San Antonio|San Antonio|2008-2009|FUNDO EL QUILLAY|2008-12-22|16:12|113.0|Sin alerta|No definido|Faenas agrícolas y pecuarias|0.0|0.0|0.0|0.2|0.0|0.0|0.0|0.1|0.0|0.0|0.3|-33.6625|-71.48583333333333|WGS84
Valparaíso|Marga Marga|Quilpué|2008-2009|TRANQUE LAS VACAS|2008-12-22|18:57|110.0|Sin alerta|No definido|Actividades recreativas|0.0|0.0|0.0|1.0|0.0|0.0|0.0|1.5|0.0|0.0|2.5|-33.068888888888885|-71.40472222222222|WGS84
Valparaíso|San Antonio|San Antonio|2008-2009|LA MARQUEZA|2008-12-23|15:15|85.0|Sin alerta|No definido|Otras actividades|0.0|0.0|0.0|0.0|0.0|0.0|0.0|1.5|0.0|0.0|1.5|-33.62833333333333|-71.38805555555555|WGS84
Valparaíso|Valparaíso|Viña del Mar|2008-2009|FUNDO CENIZAS|2008-12-23|16:50|52.0|Sin alerta|No definido|Tránsito de personasvehículos o aeronaves|0.0|0.0|0.0|0.0|0.0|0.0|0.0|0.0|0.0|0.01|0.01|-33.111111111111114|-71.54527777777778|WGS84
Valparaíso|Valparaíso|Viña del Mar|2008-2009|VILLA PRIMAVERA|2008-12-24|13:50|87.0|Sin alerta|No definido|Tránsito de personasvehículos o aeronaves|0.0|0.0|0.0|0.0|0.0|0.0|0.04|0.06|0.0|0.0|0.1|-32.940555555555555|-71.5188888888889|WGS84
Valparaíso|Marga Marga|Villa Alemana|2008-2009|LO HIDALGO|2008-12-25|12:35|166.0|Sin alerta|No definido|Actividades extinción incendios forestalesincendios estructurales u otros|0.0|0.0|0.0|0.05|0.0|0.0|0.2|0.15|0.0|0.0|0.4|-33.035|-71.29694444444445|WGS84
Valparaíso|Marga Marga|Quilpué|2008-2009|FUNDO SAN JORGE|2008-12-25|12:53|76.0|Sin alerta|No definido|Accidentes eléctricos|0.0|0.0|0.0|0.0|0.0|0.0|0.04|0.06|0.0|0.0|0.1|-33.0325|-71.42527777777778|WGS84
Valparaíso|San Antonio|San Antonio|2008-2009|FUNDO LLO LLEO|2008-12-25|13:10|101.0|Sin alerta|No definido|Incendios intencionales|0.0|0.0|0.0|0.06|0.0|0.0|0.0|0.0|0.0|0.0|0.06|-33.60583333333334|-71.60277777777777|WGS84
Valparaíso|Marga Marga|Quilpué|2008-2009|LOS PINOS|2008-12-25|16:00|91.0|Sin alerta|No definido|Tránsito de personasvehículos o aeronaves|0.0|0.0|0.0|0.03|0.0|0.0|0.0|0.07|0.0|0.0|0.1|-33.05972222222222|-71.41527777777777|WGS84
Valparaíso|Marga Marga|Limache|2008-2009|INDEPENDENCIA TABOLANGO|2008-12-25|17:10|1156.0|Sin alerta|No definido|Actividades recreativas|0.0|0.0|0.0|0.0|0.0|8.0|4.0|8.0|0.0|0.0|20.0|-32.94222222222222|-71.43333333333334|WGS84
Valparaíso|Petorca|La Ligua|2008-2009|RAYADO|2008-12-25|18:39|51.0|Sin alerta|No definido|Tránsito de personasvehículos o aeronaves|0.0|0.0|0.0|0.0|0.0|0.0|0.01|0.01|0.0|0.0|0.02|-32.449444444444445|-71.26055555555556|WGS84
Valparaíso|San Antonio|Santo Domingo|2008-2009|PARCELA LOS CANALES|2008-12-26|18:00|75.0|Sin alerta|No definido|Quema de desechos|0.0|0.0|0.0|0.0|0.0|0.0|0.07|0.03|0.0|0.0|0.1|-33.76833333333333|-71.59694444444445|WGS84
Valparaíso|San Antonio|San Antonio|2008-2009|FUNDO LLO LLEO|2008-12-27|14:15|95.0|Sin alerta|No definido|Incendios intencionales|0.0|0.0|0.0|0.25|0.0|0.0|0.05|0.2|0.0|0.0|0.5|-33.61527777777778|-71.59222222222222|WGS84
Valparaíso|San Antonio|San Antonio|2008-2009|VISTA HERMOSA|2008-12-27|15:30|42.0|Sin alerta|No definido|Tránsito de personasvehículos o aeronaves|0.0|0.0|0.0|0.0|0.0|0.0|0.0|0.02|0.0|0.0|0.02|-33.56055555555555|-71.61222222222223|WGS84
Valparaíso|San Antonio|San Antonio|2008-2009|MALVILLA|2008-12-27|15:40|100.0|Sin alerta|No definido|Accidentes eléctricos|0.0|0.0|0.0|0.1|0.0|0.0|0.0|0.2|0.0|0.0|0.3|-33.57138888888889|-71.52638888888889|WGS84
Valparaíso|Marga Marga|Quilpué|2008-2009|BELLOTO NORTE|2008-12-27|16:27|203.0|Sin alerta|No definido|Actividades recreativas|0.0|0.0|0.0|0.0|0.0|1.0|1.5|2.0|0.0|0.0|4.5|-33.02361111111111|-71.41416666666667|WGS84
Valparaíso|Marga Marga|Villa Alemana|2008-2009|LAS AMERICAS|2008-12-27|16:27|151.0|Sin alerta|No definido|Actividades recreativas|0.0|0.0|0.0|0.0|0.0|0.0|0.6|2.5|0.0|0.0|3.1|-33.024166666666666|-71.39277777777778|WGS84
Valparaíso|Marga Marga|Limache|2008-2009|LIMACHITO|2008-12-27|17:58|180.0|Sin alerta|No definido|Tránsito de personasvehículos o aeronaves|0.0|0.0|0.0|0.0|0.0|0.0|0.8|1.2|0.0|0.0|2.0|-33.01694444444445|-71.28555555555556|WGS84
Valparaíso|San Antonio|San Antonio|2008-2009|VISTA HERMOSA|2008-12-28|15:40|74.0|Sin alerta|No definido|Incendios intencionales|0.0|0.0|0.0|0.4|0.0|0.0|0.0|0.6|0.0|0.0|1.0|-33.55166666666667|-71.61194444444445|WGS84
Valparaíso|San Antonio|San Antonio|2008-2009|VISTA HERMOSA 2|2008-12-28|18:55|83.0|Sin alerta|No definido|Incendios intencionales|0.0|0.0|0.0|0.05|0.0|0.0|0.0|0.1|0.0|0.0|0.15|-33.55166666666667|-71.61194444444445|WGS84
Valparaíso|Quillota|Hijuelas|2008-2009|RABUCO|2008-12-28|18:25|69.0|Sin alerta|No definido|Actividades recreativas|0.0|0.0|0.0|0.0|0.0|0.0|0.1|0.0|0.0|0.0|0.1|-32.84888888888889|-71.09972222222223|WGS84
Valparaíso|Marga Marga|Quilpué|2008-2009|LAS PALMAS|2008-12-28|18:40|108.0|Sin alerta|No definido|Incendios intencionales|0.0|0.0|0.0|0.0|0.0|0.0|0.02|0.04|0.0|0.0|0.06|-33.08694444444444|-71.40527777777778|WGS84
Valparaíso|San Antonio|Santo Domingo|2008-2009|FUNDO LA PRINCESA|2008-12-29|12:45|405.0|Sin alerta|No definido|Faenas agrícolas y pecuarias|0.0|0.0|0.0|0.0|0.0|0.0|0.2|0.39|0.01|0.0|0.6000000000000001|-33.678333333333335|-71.58333333333333|WGS84
Valparaíso|San Antonio|Cartagena|2008-2009|CAPELLANIA|2008-12-29|13:30|100.0|Sin alerta|No definido|Actividades recreativas|0.0|0.2|0.0|0.6|0.0|0.0|6.1|18.0|0.0|0.0|24.9|-33.54333333333334|-71.57944444444445|WGS84
Valparaíso|Marga Marga|Quilpué|2008-2009|9º SECTOR BELLOTO SUR|2008-12-29|14:34|67.0|Sin alerta|No definido|Tránsito de personasvehículos o aeronaves|0.0|0.0|0.0|0.0|0.0|0.0|0.0|0.05|0.0|0.0|0.05|-33.06|-71.40444444444445|WGS84
Valparaíso|Marga Marga|Villa Alemana|2008-2009|RUMIE|2008-12-29|14:35|93.0|Sin alerta|No definido|Actividades recreativas|0.0|0.0|0.0|0.07|0.0|0.0|0.0|0.54|0.0|0.0|0.6100000000000001|-33.01833333333333|-71.3825|WGS84
Valparaíso|San Antonio|El Tabo|2008-2009|PALO VERDE|2008-12-29|14:00|220.0|Sin alerta|No definido|No definida|0.0|0.0|0.0|1.0|0.0|0.0|0.5|1.49|0.0|0.01|3.0|-33.51611111111111|-71.58944444444444|WGS84
Valparaíso|Marga Marga|Villa Alemana|2008-2009|MONTE CARMELO|2008-12-29|16:30|257.0|Sin alerta|No definido|Actividades recreativas|0.0|0.0|0.0|0.0|0.0|1.0|2.0|5.0|0.0|0.0|8.0|-33.033611111111114|-71.36111111111111|WGS84
Valparaíso|Valparaíso|Concón|2008-2009|VILLA PRIMAVERA|2008-12-29|15:56|167.0|Sin alerta|No definido|Actividades recreativas|0.0|0.0|0.0|0.0|0.0|0.0|0.5|1.0|0.0|0.0|1.5|-32.9225|-71.50777777777778|WGS84
Valparaíso|San Antonio|San Antonio|2008-2009|VISTA HERMOSA|2008-12-29|17:20|85.0|Sin alerta|No definido|Incendios intencionales|0.0|0.0|0.0|0.2|0.0|0.0|0.0|0.3|0.0|0.0|0.5|-33.56055555555555|-71.61222222222223|WGS84
Valparaíso|San Antonio|San Antonio|2008-2009|EL PANGAL|2008-12-30|03:00|710.0|Sin alerta|No definido|Incendios intencionales|0.0|0.0|1.8|0.0|0.0|0.0|0.5|0.7|0.0|0.0|3.0|-33.69861111111111|-71.47611111111111|WGS84
Valparaíso|Valparaíso|Casablanca|2008-2009|FUNDO EL ALAMO|2008-12-30|09:50|220.0|Sin alerta|No definido|Faenas forestales|0.0|0.0|0.0|0.0|0.0|0.0|2.0|1.0|0.0|0.0|3.0|-33.26833333333333|-71.34583333333333|WGS84
Valparaíso|San Antonio|San Antonio|2008-2009|VILLA CONQUISTADORES|2008-12-30|15:00|120.0|Sin alerta|No definido|Incendios intencionales|0.0|0.0|0.0|0.29|0.0|0.0|0.0|0.3|0.0|0.0|0.59|-33.56111111111111|-71.59055555555555|WGS84
Valparaíso|San Antonio|San Antonio|2008-2009|FUNDO MIRAMAR|2008-12-30|16:45|84.0|Sin alerta|No definido|Incendios intencionales|0.0|0.0|0.0|0.0|0.0|0.0|0.0|3.0|0.0|0.0|3.0|-33.58805555555556|-71.59138888888889|WGS84
Valparaíso|Marga Marga|Limache|2008-2009|LLIU LLIU|2008-12-30|17:53|157.0|Sin alerta|No definido|Tránsito de personasvehículos o aeronaves|0.0|0.0|0.0|0.0|0.0|0.0|0.2|0.4|0.0|0.0|0.6000000000000001|-33.06361111111111|-71.21194444444444|WGS84
Valparaíso|Petorca|La Ligua|2008-2009|LA BALLENA|2008-12-31|12:14|64.0|Sin alerta|No definido|Tránsito de personasvehículos o aeronaves|0.0|0.0|0.0|0.0|0.0|0.0|0.0|0.02|0.0|0.0|0.02|-32.265277777777776|-71.45777777777778|WGS84
Valparaíso|San Antonio|San Antonio|2008-2009|FUNDO MIRAMAR|2008-12-31|23:20|120.0|Sin alerta|No definido|Incendios intencionales|0.0|0.0|0.0|0.0|0.0|0.0|1.5|2.5|0.0|0.0|4.0|-33.58805555555556|-71.59138888888889|WGS84
Valparaíso|San Antonio|Cartagena|2008-2009|CAPELLANIA|2009-01-01|11:55|276.0|Sin alerta|No definido|Incendios intencionales|0.0|0.0|0.0|0.0|0.0|0.0|0.0|0.2|0.0|0.0|0.2|-33.54333333333334|-71.57944444444445|WGS84
Valparaíso|Valparaíso|Valparaíso|2008-2009|LA ISLA|2009-01-01|12:22|80.0|Sin alerta|No definido|Actividades recreativas|0.0|0.0|0.0|0.01|0.0|0.0|0.0|0.04|0.0|0.0|0.05|-33.068333333333335|-71.58722222222222|WGS84
Valparaíso|San Antonio|San Antonio|2008-2009|COPIHUES BLANCOS|2009-01-01|12:15|168.0|Sin alerta|No definido|Quema de desechos|0.0|0.0|0.0|0.0|0.0|0.0|0.1|0.6|0.0|0.0|0.7|-33.560833333333335|-71.60138888888889|WGS84
Valparaíso|San Antonio|San Antonio|2008-2009|CAMINO VIEJO CARTAGENA|2009-01-01|14:20|57.0|Sin alerta|No definido|Incendios intencionales|0.0|0.0|0.0|0.0|0.0|0.0|0.0|0.2|0.0|0.0|0.2|-33.56111111111111|-71.59055555555555|WGS84
Valparaíso|Marga Marga|Quilpué|2008-2009|BELLOTO NORTE|2009-01-01|14:54|90.0|Sin alerta|No definido|Tránsito de personasvehículos o aeronaves|0.0|0.0|0.0|0.15|0.0|0.0|0.0|0.1|0.0|0.0|0.25|-33.03277777777778|-71.41444444444444|WGS84
Valparaíso|Petorca|La Ligua|2008-2009|LA BALLENA|2009-01-01|16:00|246.0|Sin alerta|No definido|Tránsito de personasvehículos o aeronaves|0.0|0.0|0.0|2.0|0.0|0.0|1.5|2.5|0.0|0.0|6.0|-32.30138888888889|-71.45861111111111|WGS84
Valparaíso|Valparaíso|Viña del Mar|2008-2009|LAJARILLA|2009-01-01|16:47|132.0|Sin alerta|No definido|Tránsito de personasvehículos o aeronaves|0.0|0.5|0.0|0.0|0.0|0.0|0.0|1.0|0.0|0.0|1.5|-32.958888888888886|-71.49805555555555|WGS84
Valparaíso|San Antonio|El Quisco|2008-2009|HUALLILEMU|2009-01-02|14:40|70.0|Sin alerta|No definido|Tránsito de personasvehículos o aeronaves|0.01|0.0|0.0|0.0|0.0|0.0|0.0|0.01|0.0|0.0|0.02|-33.40638888888889|-71.6613888888889|WGS84
Valparaíso|Valparaíso|Concón|2008-2009|VILLA PRIMAVERA|2009-01-02|15:01|87.0|Sin alerta|No definido|Tránsito de personasvehículos o aeronaves|0.0|0.0|0.0|0.0|0.0|0.0|0.0|0.0|0.0|0.12|0.12|-32.940555555555555|-71.5188888888889|WGS84
Valparaíso|Marga Marga|Quilpué|2008-2009|BELLOTO NORTE|2009-01-02|15:26|139.0|Sin alerta|No definido|Tránsito de personasvehículos o aeronaves|0.0|0.0|0.0|0.0|0.0|0.04|0.02|0.1|0.0|0.0|0.16|-33.03277777777778|-71.41444444444444|WGS84
Valparaíso|San Antonio|Santo Domingo|2008-2009|PARCELA  Nº 6 SANTA BLANCA|2009-01-02|15:00|120.0|Sin alerta|No definido|Tránsito de personasvehículos o aeronaves|0.0|0.0|0.0|0.0|0.0|0.0|0.2|0.0|7.3|0.0|7.5|-33.786944444444444|-71.565|WGS84
Valparaíso|Valparaíso|Viña del Mar|2008-2009|1ER  SECTOR GOMEZ CARREÑO|2009-01-02|15:50|87.0|Sin alerta|No definido|Actividades recreativas|0.0|0.0|0.0|0.0|0.0|0.0|0.03|0.12|0.0|0.0|0.15|-32.99444444444445|-71.52055555555556|WGS84
Valparaíso|San Antonio|San Antonio|2008-2009|TREMOLEN|2009-01-02|17:10|70.0|Sin alerta|No definido|Incendios intencionales|0.0|0.0|0.0|0.0|0.0|0.0|0.0|0.0|0.7|0.0|0.7|-33.606944444444444|-71.55972222222222|WGS84
Valparaíso|Quillota|Hijuelas|2008-2009|LA CALERA|2009-01-02|17:28|126.0|Sin alerta|No definido|Tránsito de personasvehículos o aeronaves|0.0|0.0|0.0|0.0|0.0|0.0|0.1|0.5|0.0|0.0|0.6|-32.79333333333334|-71.19444444444444|WGS84
Valparaíso|San Antonio|San Antonio|2008-2009|VISTA HERMOSA|2009-01-02|19:05|38.0|Sin alerta|No definido|Incendios intencionales|0.0|0.0|0.0|0.0|0.0|0.0|0.0|0.04|0.0|0.0|0.04|-33.560833333333335|-71.60138888888889|WGS84
Valparaíso|San Antonio|San Antonio|2008-2009|SAN JUAN|2009-01-03|13:30|260.0|Sin alerta|No definido|Incendios intencionales|0.0|0.0|0.0|6.0|0.0|0.0|0.5|3.0|0.0|0.0|9.5|-33.651944444444446|-71.56111111111112|WGS84
Valparaíso|Valparaíso|Casablanca|2008-2009|VIÑA LAPOSTOL|2009-01-03|15:10|192.0|Sin alerta|No definido|Incendios intencionales|0.0|0.0|0.0|0.0|0.0|0.0|0.1|0.3|0.0|0.0|0.4|-33.375|-71.43472222222222|WGS84
Valparaíso|Petorca|La Ligua|2008-2009|LOS MOLLES|2009-01-03|14:05|118.0|Sin alerta|No definido|Tránsito de personasvehículos o aeronaves|0.0|0.0|0.0|0.0|0.0|0.0|0.1|0.4|0.0|0.0|0.5|-32.22833333333333|-71.49916666666667|WGS84
Valparaíso|San Antonio|San Antonio|2008-2009|FUNDO LLO LLEO|2009-01-04|14:35|177.0|Sin alerta|IFor-Vn|Incendios intencionales|0.0|0.0|0.0|0.0|0.0|0.0|0.2|0.4|0.0|0.0|0.6000000000000001|-33.60888888888889|-71.57944444444445|WGS84
Valparaíso|San Antonio|San Antonio|2008-2009|FUNDO LAS LAJAS|2009-01-04|14:40|165.0|Sin alerta|No definido|Incendios intencionales|0.0|0.0|0.0|0.0|0.0|0.0|0.02|0.03|0.0|1.15|1.2|-33.60638888888889|-71.5813888888889|WGS84
Valparaíso|San Antonio|San Antonio|2008-2009|FUNDO TREMOLEN|2009-01-04|16:15|69.0|Sin alerta|No definido|Incendios intencionales|0.0|0.0|0.0|0.0|0.0|0.0|0.0|0.0|0.0|2.5|2.5|-33.60666666666667|-71.57055555555556|WGS84
Valparaíso|San Antonio|San Antonio|2008-2009|LA VEGA|2009-01-04|16:50|42.0|Sin alerta|No definido|Incendios intencionales|0.0|0.03|0.0|0.0|0.0|0.0|0.0|0.0|0.0|0.0|0.03|-33.60611111111111|-71.59194444444445|WGS84
Valparaíso|Marga Marga|Quilpué|2008-2009|POMPEYA SUR|2009-01-04|16:35|61.0|Sin alerta|No definido|Actividades recreativas|0.0|0.0|0.0|0.0|0.0|0.0|0.01|0.04|0.0|0.0|0.05|-33.05861111111111|-71.46888888888888|WGS84
Valparaíso|San Antonio|San Antonio|2008-2009|FUNDO LLO LLEO 2|2009-01-04|17:00|77.0|Sin alerta|No definido|Incendios intencionales|0.0|0.0|0.0|0.0|0.0|0.0|0.0|0.03|0.0|0.0|0.03|-33.62416666666667|-71.5925|WGS84
Valparaíso|Petorca|La Ligua|2008-2009|LAS CHACARILLAS|2009-01-05|17:57|96.0|Sin alerta|No definido|Tránsito de personasvehículos o aeronaves|0.0|0.0|0.0|0.0|0.0|0.0|1.0|1.0|0.0|0.0|2.0|-32.44|-71.28166666666667|WGS84
Valparaíso|Valparaíso|Valparaíso|2008-2009|CAMINO EL ARRIERO R.N.L.P|2009-01-05|23:30|781.0|Sin alerta|No definido|Tránsito de personasvehículos o aeronaves|0.0|0.0|0.0|0.0|0.0|0.0|0.0|0.0|0.0|0.2|0.2|-33.184444444444445|-71.49388888888889|WGS84
Valparaíso|Marga Marga|Villa Alemana|2008-2009|TRANQUE RUMIE|2009-01-06|13:39|66.0|Sin alerta|No definido|Actividades recreativas|0.0|0.0|0.0|0.0|0.0|0.0|0.1|0.2|0.0|0.0|0.3|-33.04222222222222|-71.39333333333333|WGS84
Valparaíso|Valparaíso|Concón|2008-2009|VILLA PRIMAVERA|2009-01-06|13:40|105.0|Sin alerta|No definido|Tránsito de personasvehículos o aeronaves|0.03|0.0|0.0|0.0|0.0|0.0|0.0|0.0|0.0|0.0|0.03|-32.940555555555555|-71.5188888888889|WGS84
Valparaíso|Valparaíso|Valparaíso|2008-2009|FUNDO LAS TABLAS|2009-01-06|16:16|182.0|Sin alerta|No definido|Incendios intencionales|0.0|0.2|0.0|0.1|0.0|0.0|0.0|0.0|0.0|0.0|0.3|-33.15611111111111|-71.55722222222222|WGS84
Valparaíso|Petorca|La Ligua|2008-2009|LA BALLENA|2009-01-06|15:37|121.0|Sin alerta|No definido|Tránsito de personasvehículos o aeronaves|0.3|0.0|0.0|0.0|0.0|0.0|0.0|1.7|0.0|0.0|2.0|-32.30138888888889|-71.45861111111111|WGS84
Valparaíso|Valparaíso|Quintero|2008-2009|LAS ROCAS|2009-01-06|17:37|112.0|Sin alerta|No definido|Tránsito de personasvehículos o aeronaves|0.0|0.0|0.0|0.0|0.0|0.0|0.3|0.7|0.0|0.0|1.0|-32.804722222222225|-71.54722222222222|WGS84
Valparaíso|Valparaíso|Valparaíso|2008-2009|LA LAGUNA|2009-01-06|19:27|90.0|Sin alerta|No definido|Actividades recreativas|0.0|0.0|0.0|0.1|0.0|0.0|0.3|0.1|0.0|0.0|0.5|-33.056666666666665|-71.565|WGS84
Valparaíso|Valparaíso|Valparaíso|2008-2009|POBLACION BASICA|2009-01-07|07:28|316.0|Sin alerta|No definido|Actividades recreativas|0.0|0.0|0.0|0.0|0.0|0.0|0.2|0.4|0.0|0.0|0.6000000000000001|-33.05638888888889|-71.57583333333334|WGS84
Valparaíso|Valparaíso|Concón|2008-2009|VILLA PRIMAVERA|2009-01-07|13:02|148.0|Sin alerta|No definido|Tránsito de personasvehículos o aeronaves|0.0|0.12|0.0|0.0|0.0|0.0|0.0|0.0|0.0|0.0|0.12|-32.940555555555555|-71.5188888888889|WGS84
Valparaíso|Marga Marga|Quilpué|2008-2009|LOS COLONOS FUNDO EL PEUMO|2009-01-07|14:16|113.0|Sin alerta|No definido|Tránsito de personasvehículos o aeronaves|0.0|0.0|0.0|0.0|0.0|0.0|0.7|1.3|0.0|0.0|2.0|-33.03277777777778|-71.41444444444444|WGS84
Valparaíso|Marga Marga|Villa Alemana|2008-2009|POBLACION PRAT|2009-01-07|15:55|76.0|Sin alerta|No definido|Actividades recreativas|0.0|0.0|0.0|0.0|0.0|0.0|0.5|2.5|0.0|0.0|3.0|-33.07861111111111|-71.37305555555555|WGS84
Valparaíso|Marga Marga|Villa Alemana|2008-2009|LO MOSCOSO|2009-01-07|15:53|78.0|Sin alerta|No definido|Incendios intencionales|0.0|0.0|0.0|0.0|0.0|0.0|0.5|1.0|0.0|0.0|1.5|-33.07888888888889|-71.36222222222223|WGS84
Valparaíso|Marga Marga|Villa Alemana|2008-2009|TRONCAL SUR|2009-01-07|16:40|67.0|Sin alerta|No definido|Incendios intencionales|0.0|0.0|0.0|0.0|0.0|0.0|0.05|0.2|0.0|0.0|0.25|-33.06944444444444|-71.38333333333334|WGS84
Valparaíso|San Antonio|San Antonio|2008-2009|VISTA HERMOSA|2009-01-07|18:10|55.0|Sin alerta|No definido|Incendios intencionales|0.0|0.0|0.0|0.35|0.0|0.0|0.0|0.05|0.0|0.0|0.3999999999999999|-33.560833333333335|-71.60138888888889|WGS84
Valparaíso|San Antonio|San Antonio|2008-2009|FUNDO MIRAMAR|2009-01-08|13:35|117.0|Sin alerta|No definido|Incendios intencionales|0.0|0.0|0.0|0.0|0.0|0.0|0.0|0.0|10.6|0.0|10.6|-33.579166666666666|-71.5911111111111|WGS84
Valparaíso|Valparaíso|Casablanca|2008-2009|CUESTA MELOSILLA|2009-01-08|13:57|254.0|Sin alerta|No definido|Faenas forestales|0.0|0.0|0.0|0.0|0.0|0.02|0.03|0.03|0.0|0.0|0.08|-33.211666666666666|-71.48388888888888|WGS84
Valparaíso|Marga Marga|Limache|2008-2009|LIMACHITO|2009-01-08|13:57|142.0|Sin alerta|No definido|Faenas agrícolas y pecuarias|0.0|0.0|0.0|0.0|0.0|0.0|0.03|0.27|0.0|0.0|0.3|-32.99|-71.285|WGS84
Valparaíso|Valparaíso|Viña del Mar|2008-2009|VISTA HERMOSA|2009-01-08|13:45|57.0|Sin alerta|No definido|Actividades recreativas|0.0|0.0|0.0|0.0|0.0|0.0|0.0|0.2|0.0|0.0|0.2|-33.03111111111111|-71.48944444444444|WGS84
Valparaíso|Valparaíso|Viña del Mar|2008-2009|JARDIN BOTANICO|2009-01-08|14:40|65.0|Sin alerta|No definido|Tránsito de personasvehículos o aeronaves|0.0|0.0|0.0|0.0|0.0|0.0|0.2|0.3|0.0|0.0|0.5|-33.04944444444445|-71.47916666666667|WGS84
Valparaíso|San Antonio|San Antonio|2008-2009|FUNDO MIRAMAR 2|2009-01-08|14:10|70.0|Sin alerta|No definido|Incendios intencionales|0.0|0.4|0.0|0.0|0.0|0.0|0.0|0.1|0.0|0.0|0.5|-33.57|-71.60166666666667|WGS84
Valparaíso|Marga Marga|Villa Alemana|2008-2009|POBLACION WILSON|2009-01-08|15:25|33.0|Sin alerta|IFIUr-Fo|Actividades recreativas|0.0|0.0|0.0|0.0|0.0|0.0|0.0|0.03|0.0|0.0|0.03|-33.045|-71.34|WGS84
Valparaíso|Valparaíso|Valparaíso|2008-2009|POBLACION BASICA|2009-01-08|17:26|51.0|Sin alerta|No definido|Incendios intencionales|0.0|0.0|0.0|0.0|0.0|0.0|0.01|0.01|0.0|0.0|0.02|-33.05638888888889|-71.57583333333334|WGS84
Valparaíso|San Antonio|San Antonio|2008-2009|VISTA HERMOSA|2009-01-08|19:35|35.0|Sin alerta|No definido|Incendios intencionales|0.0|0.0|0.0|0.04|0.0|0.0|0.0|0.07|0.0|0.0|0.11|-33.560833333333335|-71.60138888888889|WGS84
Valparaíso|Valparaíso|Concón|2008-2009|VILLA PRIMAVERA|2009-01-09|11:45|81.0|Sin alerta|No definido|Tránsito de personasvehículos o aeronaves|0.03|0.0|0.0|0.0|0.0|0.0|0.02|0.05|0.0|0.0|0.1|-32.949444444444445|-71.51916666666666|WGS84
Valparaíso|Marga Marga|Quilpué|2008-2009|EL SOL|2009-01-09|16:03|68.0|Sin alerta|No definido|Tránsito de personasvehículos o aeronaves|0.0|0.0|0.0|0.0|0.0|0.0|0.04|0.06|0.0|0.0|0.1|-33.0325|-71.42527777777778|WGS84
Valparaíso|Valparaíso|Concón|2008-2009|VILLA PRIMAVERA 2|2009-01-09|16:40|107.0|Sin alerta|IFor-Vn|Tránsito de personasvehículos o aeronaves|0.0|0.05|0.0|0.0|0.0|0.0|0.0|0.15|0.0|0.0|0.2|-32.94027777777778|-71.52972222222222|WGS84
Valparaíso|Valparaíso|Valparaíso|2008-2009|POBLACION CORVI 2º SECTOR|2009-01-09|17:24|46.0|Sin alerta|No definido|Actividades recreativas|0.0|0.0|0.0|0.0|0.0|0.0|0.0|0.5|0.0|0.0|0.5|-33.045833333333334|-71.65055555555556|WGS84
Valparaíso|San Antonio|Cartagena|2008-2009|QUILLAICILLO|2009-01-10|12:15|145.0|Sin alerta|No definido|Incendios intencionales|0.0|0.0|0.0|0.8|0.0|0.0|0.0|0.4|0.0|0.0|1.2000000000000002|-33.52638888888889|-71.525|WGS84
Valparaíso|San Antonio|Cartagena|2008-2009|CAPELLANÍA|2009-01-10|13:05|141.0|Sin alerta|No definido|Quema de desechos|0.0|0.2|0.0|0.0|0.0|0.0|0.05|0.35|0.0|0.0|0.6|-33.54361111111111|-71.56861111111111|WGS84
Valparaíso|Valparaíso|Concón|2008-2009|TABOLANGO|2009-01-10|14:14|91.0|Sin alerta|No definido|Tránsito de personasvehículos o aeronaves|0.0|0.0|0.0|0.0|0.0|0.0|0.1|0.15|0.0|0.0|0.25|-32.9325|-71.46527777777777|WGS84
Valparaíso|San Antonio|San Antonio|2008-2009|FUNDO LLO LLEO|2009-01-10|14:45|52.0|Sin alerta|No definido|Incendios intencionales|0.0|0.0|0.0|0.02|0.0|0.0|0.0|0.0|0.0|0.0|0.02|-33.60611111111111|-71.59194444444445|WGS84
Valparaíso|Petorca|La Ligua|2008-2009|HUAQUEN|2009-01-10|14:10|72.0|Sin alerta|No definido|Tránsito de personasvehículos o aeronaves|0.0|0.0|0.0|0.0|0.0|0.0|0.1|0.4|0.0|0.0|0.5|-32.32055555555556|-71.39555555555556|WGS84
Valparaíso|Quillota|Quillota|2008-2009|SAN PEDRO|2009-01-10|15:18|192.0|Sin alerta|No definido|Tránsito de personasvehículos o aeronaves|0.0|0.0|0.0|0.0|0.0|0.0|0.1|0.4|0.0|0.0|0.5|-32.945277777777775|-71.27305555555556|WGS84
Valparaíso|Marga Marga|Quilpué|2008-2009|ESTERO VIEJO|2009-01-10|16:13|22.0|Sin alerta|No definido|Actividades recreativas|0.0|0.0|0.0|0.0|0.0|0.0|0.0|0.01|0.0|0.0|0.01|-33.068888888888885|-71.40472222222222|WGS84
Valparaíso|Marga Marga|Quilpué|2008-2009|FUNDO EL SAUCE|2009-01-10|17:39|69.0|Sin alerta|No definido|Tránsito de personasvehículos o aeronaves|0.0|0.0|0.0|0.0|0.0|0.0|0.03|0.07|0.0|0.0|0.1|-33.03277777777778|-71.40388888888889|WGS84
Valparaíso|San Antonio|San Antonio|2008-2009|MILTIL SUR|2009-01-10|19:15|92.0|Sin alerta|No definido|Accidentes eléctricos|0.0|0.0|0.0|0.1|0.0|0.0|0.0|0.2|0.0|0.0|0.3|-33.58111111111111|-71.49444444444444|WGS84
Valparaíso|San Antonio|Algarrobo|2008-2009|EL  BOCHINCHE|2009-01-11|13:05|65.0|Sin alerta|No definido|Incendios intencionales|0.0|0.0|0.0|0.0|0.0|0.0|0.0|0.01|0.0|0.0|0.01|-33.30888888888889|-71.5725|WGS84
Valparaíso|Marga Marga|Quilpué|2008-2009|LOS COLONOS|2009-01-11|13:49|180.0|Sin alerta|No definido|Tránsito de personasvehículos o aeronaves|0.0|0.0|0.0|0.0|0.0|0.0|0.5|1.0|0.0|0.0|1.5|-33.0325|-71.42527777777778|WGS84
Valparaíso|Marga Marga|Quilpué|2008-2009|FUNDO EL PEQUEN|2009-01-11|14:25|217.0|Sin alerta|No definido|Tránsito de personasvehículos o aeronaves|0.0|0.0|0.0|0.8|0.0|0.0|0.4|0.8|0.0|0.0|2.0|-33.114444444444445|-71.38472222222222|WGS84
Valparaíso|Valparaíso|Valparaíso|2008-2009|RAPANUI|2009-01-11|15:07|136.0|Sin alerta|No definido|Actividades recreativas|0.0|0.0|0.0|1.4|0.0|0.0|0.0|0.1|0.0|0.0|1.5|-33.05638888888889|-71.58638888888889|WGS84
Valparaíso|Valparaíso|Viña del Mar|2008-2009|LAS BRISAS|2009-01-11|16:04|76.0|Sin alerta|No definido|Actividades recreativas|0.0|0.0|0.0|0.0|0.0|0.0|1.0|2.0|0.0|0.0|3.0|-33.03861111111111|-71.56444444444445|WGS84
Valparaíso|Quillota|Quillota|2008-2009|RAUTEN|2009-01-11|16:18|118.0|Sin alerta|No definido|Actividades recreativas|0.0|0.0|0.0|0.0|0.0|0.0|1.5|2.0|0.0|0.0|3.5|-32.881388888888885|-71.31416666666667|WGS84
Valparaíso|Marga Marga|Quilpué|2008-2009|PILOTO PARDO|2009-01-11|17:58|130.0|Sin alerta|No definido|Actividades recreativas|0.0|0.0|0.0|0.5|0.0|0.0|0.3|0.7|0.0|0.0|1.5|-33.05972222222222|-71.41527777777777|WGS84
Valparaíso|Valparaíso|Puchuncavi|2008-2009|HORCON|2009-01-12|12:05|278.0|Sin alerta|No definido|Tránsito de personasvehículos o aeronaves|0.0|0.0|0.0|0.8|0.0|0.0|0.0|1.2|0.0|0.0|2.0|-32.73361111111111|-71.49166666666666|WGS84
Valparaíso|Marga Marga|Quilpué|2008-2009|EL SOL|2009-01-12|15:19|98.0|Sin alerta|No definido|Tránsito de personasvehículos o aeronaves|0.0|0.0|0.0|0.0|0.0|0.0|0.15|0.25|0.0|0.0|0.4|-33.0325|-71.42527777777778|WGS84
Valparaíso|San Antonio|Cartagena|2008-2009|CAPELLANIA|2009-01-12|13:50|120.0|Sin alerta|No definido|Quema de desechos|0.0|0.0|0.0|0.0|0.0|0.0|0.0|0.0|0.0|0.01|0.01|-33.54361111111111|-71.56861111111111|WGS84
Valparaíso|Petorca|La Ligua|2008-2009|LA BALLENA|2009-01-12|12:05|115.0|Sin alerta|No definido|Tránsito de personasvehículos o aeronaves|0.0|0.0|0.0|0.0|0.0|0.0|0.0|0.06|0.0|0.0|0.06|-32.30138888888889|-71.45861111111111|WGS84
Valparaíso|Marga Marga|Quilpué|2008-2009|HACIENDA LAS PALMAS|2009-01-12|16:22|128.0|Sin alerta|No definido|Tránsito de personasvehículos o aeronaves|0.0|0.0|0.0|0.0|0.0|0.0|0.15|0.2|0.0|0.0|0.35|-33.09583333333333|-71.40555555555555|WGS84
Valparaíso|Quillota|Quillota|2008-2009|LO ROJAS|2009-01-12|15:55|90.0|Sin alerta|No definido|Tránsito de personasvehículos o aeronaves|0.0|0.0|0.0|0.0|0.0|0.0|0.01|0.02|0.0|0.0|0.03|-32.8375|-71.24888888888889|WGS84
Valparaíso|Valparaíso|Valparaíso|2008-2009|PORVENIR ALTO|2009-01-12|18:00|91.0|Sin alerta|No definido|Actividades recreativas|0.0|0.0|0.0|0.0|0.0|0.0|0.0|1.0|0.0|0.0|1.0|-33.036944444444444|-71.65027777777777|WGS84
Valparaíso|Valparaíso|Viña del Mar|2008-2009|VILLA DULCE|2009-01-12|19:16|57.0|Sin alerta|No definido|Actividades recreativas|0.0|0.0|0.0|0.0|0.0|0.0|0.01|0.04|0.0|0.0|0.05|-33.03111111111111|-71.5|WGS84
Valparaíso|Quillota|Quillota|2008-2009|EL MAUCO|2009-01-13|13:13|422.0|Sin alerta|No definido|Faenas agrícolas y pecuarias|0.0|0.0|0.0|10.0|0.0|140.0|200.0|100.0|0.0|0.0|450.0|-32.88861111111111|-71.385|WGS84
Valparaíso|San Antonio|El Tabo|2008-2009|ALTO CHEPICA|2009-01-13|12:30|150.0|Sin alerta|No definido|Actividades recreativas|0.0|0.0|0.0|0.0|0.0|0.0|0.0|0.04|0.0|0.09|0.13|-33.45194444444444|-71.63055555555556|WGS84
Valparaíso|San Antonio|Cartagena|2008-2009|CAPELLANIA|2009-01-13|12:45|127.0|Sin alerta|No definido|Incendios intencionales|0.0|0.0|0.0|0.0|0.0|0.0|0.0|0.01|0.0|0.0|0.01|-33.54361111111111|-71.56861111111111|WGS84
Valparaíso|Marga Marga|Villa Alemana|2008-2009|LOS ALMENDROS|2009-01-13|17:07|141.0|Sin alerta|No definido|Tránsito de personasvehículos o aeronaves|0.0|0.0|0.0|0.5|0.0|0.0|0.0|1.0|0.0|0.0|1.5|-33.069722222222225|-71.36194444444445|WGS84
Valparaíso|Valparaíso|Valparaíso|2008-2009|ALTO EL PUERTO|2009-01-14|02:47|709.0|Sin alerta|No definido|Incendios intencionales|0.0|0.0|0.0|0.0|0.0|0.0|0.3|0.0|0.0|1.5|1.8|-33.09222222222222|-71.5875|WGS84
Valparaíso|San Antonio|Cartagena|2008-2009|CAMINO VIEJO CARTAGENA|2009-01-14|11:40|76.0|Sin alerta|No definido|Incendios intencionales|0.0|0.0|0.0|0.0|0.0|0.0|0.0|0.3|0.0|0.0|0.3|-33.56111111111111|-71.59055555555555|WGS84
Valparaíso|Marga Marga|Quilpué|2008-2009|CEMENTERIO BELLOTO|2009-01-14|16:38|100.0|Sin alerta|No definido|Tránsito de personasvehículos o aeronaves|0.0|0.0|0.0|0.4|0.0|0.0|0.2|0.4|0.0|0.0|1.0|-33.0325|-71.42527777777778|WGS84
Valparaíso|Quillota|Quillota|2008-2009|HUAPE|2009-01-15|14:52|115.0|Sin alerta|No definido|Tránsito de personasvehículos o aeronaves|0.0|0.0|0.0|0.0|0.0|0.0|0.3|0.7|0.0|0.0|1.0|-32.91694444444445|-71.33666666666667|WGS84
Valparaíso|Marga Marga|Limache|2008-2009|LLIU LLIU|2009-01-15|15:43|172.0|Sin alerta|No definido|Tránsito de personasvehículos o aeronaves|0.0|0.0|0.0|0.0|0.0|0.0|0.5|1.5|0.0|0.0|2.0|-33.0725|-71.21222222222222|WGS84
Valparaíso|Valparaíso|Valparaíso|2008-2009|LAS MERCEDES  PLACILLA|2009-01-15|16:27|52.0|Sin alerta|No definido|Actividades recreativas|0.0|0.0|0.0|0.02|0.0|0.0|0.0|0.0|0.0|0.0|0.02|-33.12027777777778|-71.54555555555555|WGS84
Valparaíso|Valparaíso|Casablanca|2008-2009|LA ROTUNDA|2009-01-15|16:51|159.0|Sin alerta|No definido|Tránsito de personasvehículos o aeronaves|0.0|0.0|0.0|3.5|0.0|0.0|0.0|2.5|0.0|0.0|6.0|-33.27611111111111|-71.41055555555556|WGS84
Valparaíso|Marga Marga|Quilpué|2008-2009|BELLOTO NORTE|2009-01-15|16:57|77.0|Sin alerta|No definido|Tránsito de personasvehículos o aeronaves|0.0|0.0|0.0|0.0|0.0|0.0|0.25|0.35|0.0|0.0|0.6|-33.0325|-71.42527777777778|WGS84
Valparaíso|Marga Marga|Quilpué|2008-2009|FUNDO EL FRUTILLAR|2009-01-15|18:01|95.0|Sin alerta|No definido|Tránsito de personasvehículos o aeronaves|0.0|0.0|0.0|0.0|0.0|0.0|0.2|0.2|0.0|0.0|0.4|-33.03277777777778|-71.41444444444444|WGS84
Valparaíso|Marga Marga|Villa Alemana|2008-2009|FUNDO OLIVARI|2009-01-16|14:41|77.0|Sin alerta|No definido|Actividades recreativas|0.0|0.0|0.0|0.0|0.0|0.0|0.0|0.11|0.0|0.0|0.11|-33.07833333333333|-71.38361111111111|WGS84
Valparaíso|Quillota|Quillota|2008-2009|SAN PEDRO|2009-01-16|14:22|117.0|Sin alerta|No definido|Tránsito de personasvehículos o aeronaves|0.0|0.0|0.0|0.5|0.0|0.0|0.0|0.2|0.0|0.0|0.7|-32.94416666666667|-71.32666666666667|WGS84
Valparaíso|Valparaíso|Concón|2008-2009|LA SKEGA|2009-01-17|16:53|99.0|Sin alerta|No definido|Actividades recreativas|0.0|0.0|0.0|0.0|0.0|0.0|0.0|0.0|0.0|0.03|0.03|-32.97666666666667|-71.50916666666667|WGS84
Valparaíso|San Antonio|El Tabo|2008-2009|ALTO CHEPICA|2009-01-17|17:35|95.0|Sin alerta|No definido|Tránsito de personasvehículos o aeronaves|0.0|0.0|0.0|0.0|0.0|0.0|0.05|0.2|0.0|0.0|0.25|-33.45194444444444|-71.63055555555556|WGS84
Valparaíso|Valparaíso|Concón|2008-2009|CON CON|2009-01-17|19:00|72.0|Sin alerta|No definido|Tránsito de personasvehículos o aeronaves|0.0|0.0|0.0|0.0|0.0|0.0|0.0|0.03|0.0|0.0|0.03|-32.91361111111111|-71.5075|WGS84
Valparaíso|Valparaíso|Casablanca|2008-2009|LA ROTUNDA|2009-01-18|13:41|85.0|Sin alerta|No definido|Tránsito de personasvehículos o aeronaves|0.0|0.0|0.0|0.0|0.0|0.0|0.1|0.1|0.0|0.0|0.2|-33.28527777777778|-71.41083333333333|WGS84
Valparaíso|Marga Marga|Olmué|2008-2009|QUEBRADA ALVARADO|2009-01-18|14:40|30.0|Sin alerta|No definido|Tránsito de personasvehículos o aeronaves|0.0|0.0|0.0|0.0|0.0|1.0|3.0|2.0|0.0|0.0|6.0|-33.07361111111111|-71.14777777777778|WGS84
Valparaíso|Valparaíso|Quintero|2008-2009|FUNDO LO  URENDA|2009-01-18|15:30|239.0|Sin alerta|No definido|Tránsito de personasvehículos o aeronaves|0.0|0.0|0.0|0.0|0.0|0.0|1.0|2.0|0.0|0.0|3.0|-32.82388888888889|-71.48361111111112|WGS84
Valparaíso|San Antonio|El Tabo|2008-2009|ALTO CHEPICA|2009-01-18|16:00|86.0|Sin alerta|No definido|Incendios intencionales|0.05|0.0|0.0|0.0|0.0|0.0|0.1|0.2|0.0|0.0|0.35|-33.46111111111111|-71.63083333333333|WGS84
Valparaíso|San Antonio|San Antonio|2008-2009|FUNDO MIRAMAR|2009-01-18|16:40|100.0|Sin alerta|No definido|Tránsito de personasvehículos o aeronaves|0.0|0.0|0.0|0.15|0.0|0.0|0.0|0.05|0.0|0.0|0.2|-33.57944444444445|-71.58055555555555|WGS84
Valparaíso|Marga Marga|Villa Alemana|2008-2009|LO HIDALGO|2009-01-18|16:15|1380.0|Sin alerta|No definido|Incendios intencionales|0.0|0.0|0.0|0.0|0.0|0.0|1.0|1.5|0.0|0.0|2.5|-33.035|-71.29694444444445|WGS84
Valparaíso|Marga Marga|Quilpué|2008-2009|COLLIGUAY|2009-01-19|13:30|308.0|Sin alerta|No definido|Incendios intencionales|0.0|0.0|0.0|0.0|0.0|0.0|1.4|1.0|0.0|0.0|2.4|-33.20777777777778|-71.21555555555555|WGS84
Valparaíso|Marga Marga|Quilpué|2008-2009|BELLOTO NORTE|2009-01-19|16:29|66.0|Sin alerta|No definido|Actividades recreativas|0.0|0.0|0.0|0.0|0.0|0.0|0.2|0.4|0.0|0.0|0.6000000000000001|-33.03277777777778|-71.40388888888889|WGS84
Valparaíso|Petorca|La Ligua|2008-2009|JAURURO|2009-01-19|15:22|233.0|Sin alerta|No definido|Tránsito de personasvehículos o aeronaves|0.0|0.0|0.0|2.0|0.0|0.0|3.0|5.0|0.0|0.0|10.0|-32.47611111111111|-71.2825|WGS84
Valparaíso|Valparaíso|Viña del Mar|2008-2009|VILLA RUCAN|2009-01-19|17:46|62.0|Sin alerta|No definido|Actividades recreativas|0.0|0.0|0.0|0.0|0.0|0.0|0.1|0.2|0.0|0.0|0.3|-32.99527777777778|-71.47777777777777|WGS84
Valparaíso|San Antonio|Cartagena|2008-2009|CAMINO VIEJO CARTAGENA|2009-01-19|19:20|74.0|Sin alerta|No definido|Incendios intencionales|0.0|0.0|0.0|0.0|0.0|0.0|0.0|0.2|0.0|0.0|0.2|-33.56111111111111|-71.59055555555555|WGS84
Valparaíso|Valparaíso|Concón|2008-2009|LA ISLA  CON CON|2009-01-19|17:58|165.0|Sin alerta|No definido|Incendios intencionales|0.0|0.0|0.0|0.0|0.0|0.0|0.2|0.3|0.0|0.0|0.5|-32.931666666666665|-71.50805555555556|WGS84
Valparaíso|Valparaíso|Casablanca|2008-2009|SANTA MATILDE|2009-01-20|14:10|200.0|Sin alerta|No definido|Accidentes eléctricos|0.0|0.0|0.07|13.5|0.0|24.83|41.0|13.0|0.0|0.0|92.4|-33.48277777777778|-71.4486111111111|WGS84
Valparaíso|San Antonio|San Antonio|2008-2009|VISTA HERMOSA|2009-01-10|17:00|75.0|Sin alerta|No definido|Tránsito de personasvehículos o aeronaves|0.0|0.0|0.0|0.2|0.0|0.0|0.0|1.0|0.0|0.0|1.2|-33.56055555555555|-71.61222222222223|WGS84
Valparaíso|Marga Marga|Villa Alemana|2008-2009|LOS ALMENDROS|2009-01-20|17:53|81.0|Sin alerta|No definido|Tránsito de personasvehículos o aeronaves|0.0|0.0|0.0|0.0|0.0|0.0|0.05|0.2|0.0|0.0|0.25|-33.069722222222225|-71.36194444444445|WGS84
Valparaíso|Valparaíso|Casablanca|2008-2009|LOS MAITENES|2009-01-21|13:50|152.0|Sin alerta|No definido|Tránsito de personasvehículos o aeronaves|0.0|0.0|0.0|0.0|0.0|0.3|0.0|0.7|0.0|0.0|1.0|-33.42055555555555|-71.4036111111111|WGS84
Valparaíso|San Antonio|Cartagena|2008-2009|COLERGUADO|2009-01-22|04:00|500.0|Sin alerta|No definido|Incendios de causa desconocida|0.0|0.0|0.01|0.0|0.0|0.0|0.01|0.2|0.0|0.48|0.7|-33.54361111111111|-71.55777777777777|WGS84
Valparaíso|San Antonio|Cartagena|2008-2009|LA PALMILLA|2009-01-22|15:30|115.0|Sin alerta|No definido|Accidentes eléctricos|0.0|0.0|0.0|0.5|0.0|0.0|0.3|2.7|0.0|0.0|3.5|-33.55416666666667|-71.48277777777778|WGS84
Valparaíso|Marga Marga|Quilpué|2008-2009|LOS PERALES|2009-01-23|16:15|91.0|Sin alerta|No definido|Tránsito de personasvehículos o aeronaves|0.0|0.0|0.0|0.0|0.0|0.0|0.04|0.08|0.0|0.0|0.12|-33.151666666666664|-71.32138888888889|WGS84
Valparaíso|Valparaíso|Casablanca|2008-2009|FUNDO SANTA MATILDE|2009-01-23|17:00|120.0|Sin alerta|No definido|Faenas forestales|0.0|0.0|0.0|0.05|0.0|0.0|0.0|0.15|0.0|0.0|0.2|-33.437777777777775|-71.44722222222222|WGS84
Valparaíso|San Antonio|San Antonio|2008-2009|FUNDO LLO LLEO|2009-01-23|18:20|39.0|Sin alerta|No definido|Incendios intencionales|0.0|0.0|0.0|0.0|0.0|0.0|0.0|0.03|0.0|0.0|0.03|-33.61527777777778|-71.59222222222222|WGS84
Valparaíso|Marga Marga|Quilpué|2008-2009|VILLA CUMMING|2009-01-24|14:05|48.0|Sin alerta|No definido|Actividades recreativas|0.0|0.0|0.0|0.0|0.0|0.0|0.01|0.02|0.0|0.0|0.03|-33.05916666666667|-71.43666666666667|WGS84
Valparaíso|San Antonio|Cartagena|2008-2009|LO ZARATE|2009-01-24|13:50|250.0|Sin alerta|No definido|Tránsito de personasvehículos o aeronaves|0.0|0.0|0.0|0.5|0.0|0.8|0.0|1.5|0.0|0.0|2.8|-33.52611111111111|-71.53583333333333|WGS84
Valparaíso|Valparaíso|Casablanca|2008-2009|LAS BARRERAS|2009-01-24|17:37|90.0|Sin alerta|IFor-Vn|Tránsito de personasvehículos o aeronaves|0.0|0.0|0.0|0.0|0.0|0.0|0.05|0.15|0.0|0.0|0.2|-33.35472222222222|-71.33472222222223|WGS84
Valparaíso|Valparaíso|Viña del Mar|2008-2009|JARDIN BOTANICO|2009-01-24|22:10|46.0|Sin alerta|No definido|Tránsito de personasvehículos o aeronaves|0.0|0.0|0.0|0.0|0.0|0.0|0.05|0.15|0.0|0.0|0.2|-33.04888888888889|-71.50055555555555|WGS84
Valparaíso|San Antonio|El Tabo|2008-2009|QUILLAICILLO|2009-01-25|13:00|420.0|Sin alerta|No definido|Incendios de causa desconocida|0.0|10.0|0.0|154.78|0.0|7.0|21.22|24.0|0.0|0.0|217.0|-33.49888888888889|-71.54583333333333|WGS84
Valparaíso|San Antonio|El Tabo|2008-2009|EL CARDONAL|2009-01-25|13:10|470.0|Sin alerta|No definido|Incendios intencionales|0.0|0.0|0.0|0.4|0.0|0.0|0.0|0.6|0.0|0.0|1.0|-33.48916666666667|-71.57777777777778|WGS84
Valparaíso|San Antonio|El Tabo|2008-2009|PEAJE LAGUNILLAS|2009-01-25|13:30|420.0|Sin alerta|No definido|Incendios intencionales|0.0|0.0|0.0|0.01|0.0|0.0|0.08|0.4|0.0|0.01|0.5|-33.48222222222222|-71.48083333333334|WGS84
Valparaíso|Marga Marga|Quilpué|2008-2009|POMPEYA NORTE|2009-01-25|16:38|102.0|Sin alerta|No definido|Tránsito de personasvehículos o aeronaves|0.0|0.0|0.0|0.0|0.0|0.0|0.05|0.1|0.0|0.0|0.15|-33.04972222222222|-71.46861111111112|WGS84
Valparaíso|Marga Marga|Limache|2008-2009|LLIU LLIU|2009-01-25|18:01|1348.0|Sin alerta|No definido|Tránsito de personasvehículos o aeronaves|0.0|0.0|0.0|0.0|0.0|5.0|25.0|10.0|0.0|0.0|40.0|-33.05416666666667|-71.23305555555555|WGS84
Valparaíso|Marga Marga|Quilpué|2008-2009|SAN JORGE|2009-01-25|18:40|103.0|Sin alerta|No definido|Incendios intencionales|0.0|0.0|0.0|0.0|0.0|0.5|1.0|1.0|0.0|0.0|2.5|-33.01416666666667|-71.43555555555555|WGS84
Valparaíso|Marga Marga|Villa Alemana|2008-2009|RUMIE|2009-01-25|19:14|62.0|Sin alerta|No definido|Actividades recreativas|0.0|0.0|0.0|0.0|0.0|0.0|0.1|0.3|0.0|0.0|0.4|-33.01833333333333|-71.3825|WGS84
Valparaíso|Valparaíso|Valparaíso|2008-2009|FUNDO LOS OLIVOS|2009-01-25|22:13|933.0|Sin alerta|No definido|Incendios intencionales|0.0|0.0|0.0|1.5|0.0|0.0|0.1|0.4|0.0|0.0|2.0|-33.09222222222222|-71.5875|WGS84
Valparaíso|Valparaíso|Viña del Mar|2008-2009|JARDIN BOTANICO|2009-01-26|13:21|1434.0|Sin alerta|No definido|Tránsito de personasvehículos o aeronaves|0.0|0.0|0.0|0.0|0.0|0.0|3.5|1.5|0.0|0.0|5.0|-33.040277777777774|-71.48972222222223|WGS84
Valparaíso|Valparaíso|Viña del Mar|2008-2009|JARDIN BOTANICO 2|2009-01-26|15:07|1328.0|Sin alerta|No definido|Incendios intencionales|0.0|0.0|0.0|0.15|0.0|0.0|1.3|0.05|0.0|0.0|1.5|-33.04|-71.50027777777778|WGS84
Valparaíso|Marga Marga|Quilpué|2008-2009|COLLIGUAY FDO. LAS PIEDRAS|2009-01-26|17:23|242.0|Sin alerta|No definido|Incendios intencionales|0.0|0.0|0.0|0.3|0.0|0.0|1.5|2.2|0.0|0.0|4.0|-33.17|-71.31111111111112|WGS84
Valparaíso|Marga Marga|Quilpué|2008-2009|FUNDO EL PEQUEN|2009-01-26|17:40|220.0|Sin alerta|No definido|Tránsito de personasvehículos o aeronaves|0.0|0.0|0.0|0.0|0.0|0.0|0.2|0.3|0.0|0.0|0.5|-33.16|-71.3536111111111|WGS84
Valparaíso|Petorca|La Ligua|2008-2009|QUEBRADA EL AJIAL|2009-01-26|14:00|220.0|Sin alerta|No definido|Tránsito de personasvehículos o aeronaves|0.0|0.0|0.0|0.0|0.0|5.0|30.0|5.0|0.0|0.0|40.0|-32.26|-71.25583333333333|WGS84
Valparaíso|Marga Marga|Quilpué|2008-2009|LOS MOLLES|2009-01-26|18:49|1041.0|Sin alerta|No definido|Tránsito de personasvehículos o aeronaves|0.0|0.0|0.0|1.0|0.0|0.0|6.0|3.0|0.0|0.0|10.0|-33.113055555555555|-71.45972222222223|WGS84
Valparaíso|Valparaíso|Viña del Mar|2008-2009|JARDIN BOTANICO 3|2009-01-26|20:44|100.0|Sin alerta|No definido|Incendios intencionales|0.0|0.0|0.0|0.0|0.0|0.0|0.05|0.1|0.0|0.0|0.15|-33.040277777777774|-71.48972222222223|WGS84
Valparaíso|Valparaíso|Valparaíso|2008-2009|LAS CABAÑAS  R.N.L.P|2009-01-26|22:45|902.0|Sin alerta|No definido|No definida|0.0|0.1|0.0|0.0|0.0|0.0|0.0|0.05|0.0|0.1|0.25|-33.147222222222226|-71.54638888888888|WGS84
Valparaíso|San Antonio|Cartagena|2008-2009|FERRIMAR|2009-01-27|12:15|41.0|Sin alerta|IFor-Vn|Incendios intencionales|0.0|0.0|0.0|0.0|0.0|0.0|0.0|0.05|0.0|0.0|0.05|-33.55111111111111|-71.56722222222223|WGS84
Valparaíso|San Antonio|Cartagena|2008-2009|COLENGUADO|2009-01-27|12:40|48.0|Sin alerta|IFor-Vn|Incendios intencionales|0.0|0.0|0.0|0.0|0.0|0.0|0.01|0.04|0.0|0.0|0.05|-33.545|-71.5625|WGS84
Valparaíso|Valparaíso|Viña del Mar|2008-2009|MIRAFLORES|2009-01-27|14:04|284.0|Sin alerta|No definido|Tránsito de personasvehículos o aeronaves|0.0|0.0|0.0|0.0|0.0|0.0|0.01|0.01|0.0|0.0|0.02|-33.02166666666667|-71.5213888888889|WGS84
Valparaíso|Marga Marga|Quilpué|2008-2009|VILLA OLIMPICA|2009-01-27|14:22|236.0|Sin alerta|No definido|Actividades recreativas|0.0|0.0|0.0|0.0|0.0|0.0|0.01|0.02|0.0|0.0|0.03|-33.05888888888889|-71.45805555555556|WGS84
Valparaíso|Marga Marga|Quilpué|2008-2009|FRUTILLAR ALTO|2009-01-27|14:20|212.0|Sin alerta|No definido|Incendios intencionales|0.0|0.0|0.0|1.5|0.0|0.0|2.5|5.0|0.0|0.0|9.0|-33.02361111111111|-71.41416666666667|WGS84
Valparaíso|San Antonio|Cartagena|2008-2009|CAMINO VIEJO CARTAGENA|2009-01-27|13:40|171.0|Sin alerta|No definido|Actividades recreativas|0.0|0.0|0.0|1.0|0.0|0.0|0.0|4.0|0.0|0.0|5.0|-33.56111111111111|-71.59055555555555|WGS84
Valparaíso|Valparaíso|Casablanca|2008-2009|TAPIHUE|2009-01-27|15:05|207.0|Sin alerta|No definido|Faenas agrícolas y pecuarias|0.0|0.0|0.0|1.0|0.0|8.09|65.0|29.61|22.38|0.0|126.08|-33.28777777777778|-71.28194444444445|WGS84
Valparaíso|San Antonio|San Antonio|2008-2009|LOS ESCALONES|2009-01-27|14:15|345.0|Sin alerta|No definido|Incendios de causa desconocida|0.0|0.0|0.0|4.5|0.0|122.08|9.0|10.0|0.0|0.0|145.57999999999998|-33.74472222222222|-71.42361111111111|WGS84
Valparaíso|Marga Marga|Villa Alemana|2008-2009|RUMIE|2009-01-27|16:09|155.0|Sin alerta|No definido|Tránsito de personasvehículos o aeronaves|0.0|0.0|0.0|0.0|0.0|0.0|1.0|3.0|0.0|0.0|4.0|-33.01833333333333|-71.3825|WGS84
Valparaíso|Valparaíso|Quintero|2008-2009|LAS GAVIOTAS|2009-01-27|19:27|128.0|Sin alerta|No definido|Tránsito de personasvehículos o aeronaves|0.0|0.0|0.0|0.6|0.0|0.0|0.0|0.9|0.0|0.0|1.5|-32.91416666666667|-71.48611111111111|WGS84
Valparaíso|San Antonio|El Tabo|2008-2009|QUEBRADA EL TABO|2009-01-28|12:20|70.0|Sin alerta|No definido|Tránsito de personasvehículos o aeronaves|0.0|0.0|0.03|0.0|0.0|0.0|0.0|0.04|0.0|0.0|0.07|-33.47|-71.63111111111111|WGS84
Valparaíso|Valparaíso|Viña del Mar|2008-2009|JARDIN BOTANICO|2009-01-28|13:29|226.0|Sin alerta|No definido|Tránsito de personasvehículos o aeronaves|0.0|0.0|0.0|0.1|0.0|0.0|0.05|0.15|0.0|0.0|0.3|-33.04|-71.50027777777778|WGS84
Valparaíso|Marga Marga|Olmué|2008-2009|OJOS  BUENOS|2009-01-28|15:09|1351.0|Sin alerta|No definido|Incendios intencionales|0.0|0.0|0.0|1.5|0.0|0.0|0.5|1.0|0.0|0.0|3.0|-33.01916666666666|-71.16805555555555|WGS84
Valparaíso|Marga Marga|Villa Alemana|2008-2009|POBLACION WILSON|2009-01-28|16:07|59.0|Sin alerta|No definido|Tránsito de personasvehículos o aeronaves|0.0|0.0|0.0|8.0|0.0|0.0|3.0|4.0|0.0|0.0|15.0|-33.043055555555554|-71.34|WGS84
Valparaíso|Valparaíso|Casablanca|2008-2009|SANTA ROSA|2009-01-28|17:48|80.0|Sin alerta|No definido|Tránsito de personasvehículos o aeronaves|0.0|0.0|0.0|0.0|0.0|0.0|0.15|0.25|0.0|0.0|0.4|-33.29333333333334|-71.45388888888888|WGS84
Valparaíso|San Felipe de Aconcagua|Llay-Llay|2008-2009|FUNDO MONTEOLIN|2009-01-28|15:55|1370.0|Sin alerta|No definido|Tránsito de personasvehículos o aeronaves|0.0|0.0|0.0|0.0|0.0|0.0|20.0|40.0|0.0|0.0|60.0|-33.01916666666666|-71.16805555555555|WGS84
Valparaíso|Petorca|La Ligua|2008-2009|LAS CHACARILLAS|2009-01-28|17:00|118.0|Sin alerta|No definido|Actividades recreativas|0.0|0.0|0.0|0.0|0.0|0.0|1.0|2.0|0.0|0.0|3.0|-32.44972222222222|-71.235|WGS84
Valparaíso|San Antonio|El Tabo|2008-2009|EL PERAL|2009-01-29|13:50|82.0|Sin alerta|No definido|Quema de desechos|0.0|0.0|0.0|0.0|0.0|0.3|0.0|0.52|0.0|0.0|0.8200000000000001|-33.48861111111111|-71.61|WGS84
Valparaíso|Valparaíso|Viña del Mar|2008-2009|VILLA RUCANT|2009-01-30|15:05|67.0|Sin alerta|No definido|Actividades recreativas|0.0|0.0|0.0|0.0|0.0|0.0|0.05|0.15|0.0|0.0|0.2|-32.99527777777778|-71.47777777777777|WGS84
Valparaíso|San Antonio|San Antonio|2008-2009|CERRO LA VIRGEN|2009-01-30|15:45|125.0|Sin alerta|No definido|Incendios intencionales|0.0|0.0|0.3|0.0|0.0|0.0|0.0|1.0|0.0|0.0|1.3|-33.56055555555555|-71.61222222222223|WGS84
Valparaíso|San Antonio|San Antonio|2008-2009|VISTA HERMOSA|2009-01-30|16:10|65.0|Sin alerta|No definido|Tránsito de personasvehículos o aeronaves|0.0|0.0|0.0|0.0|0.0|0.0|0.0|0.8|0.0|0.0|0.8|-33.569722222222225|-71.6125|WGS84
Valparaíso|San Antonio|San Antonio|2008-2009|FUNDO MIRAMAR|2009-01-30|18:30|45.0|Sin alerta|No definido|Incendios intencionales|0.0|0.0|0.0|0.0|0.0|0.0|0.0|0.02|0.0|0.0|0.02|-33.5975|-71.58111111111111|WGS84
Valparaíso|Marga Marga|Villa Alemana|2008-2009|MONTE CARMELO|2009-01-31|13:12|170.0|Sin alerta|No definido|Actividades recreativas|0.0|0.0|0.0|0.5|0.0|0.0|0.5|2.0|0.0|0.0|3.0|-33.033611111111114|-71.36111111111111|WGS84
Valparaíso|San Antonio|San Antonio|2008-2009|LLANOS DE BELLAVISTA|2009-01-31|13:10|90.0|Sin alerta|No definido|Incendios intencionales|0.0|0.0|0.0|0.04|0.0|0.0|0.0|0.06|0.0|0.0|0.1|-33.560833333333335|-71.60138888888889|WGS84
Valparaíso|San Felipe de Aconcagua|Llay-Llay|2008-2009|TUNEL LA CALAVERA|2009-02-02|14:45|272.0|Sin alerta|No definido|Incendios intencionales|0.0|0.0|0.0|0.0|0.0|0.0|0.1|0.2|0.0|0.0|0.3|-32.84111111111111|-71.02472222222222|WGS84
Valparaíso|Valparaíso|Viña del Mar|2008-2009|JARDIN BOTANICO|2009-02-02|17:50|96.0|Sin alerta|No definido|Incendios intencionales|0.0|0.0|0.0|0.0|0.0|0.0|0.03|0.12|0.0|0.0|0.15|-33.040277777777774|-71.48972222222223|WGS84
Valparaíso|Valparaíso|Valparaíso|2008-2009|6º SECTOR CORVI|2009-02-02|18:53|57.0|Sin alerta|No definido|Actividades recreativas|0.0|0.0|0.0|0.0|0.0|0.0|0.1|0.2|0.0|0.0|0.3|-33.03666666666667|-71.66083333333333|WGS84
Valparaíso|Valparaíso|Valparaíso|2008-2009|FUNDO LAS MERCEDES|2009-02-03|12:00|120.0|Sin alerta|No definido|Tránsito de personasvehículos o aeronaves|0.0|0.0|0.0|0.1|0.0|0.0|0.0|0.05|0.0|0.0|0.15|-33.12916666666667|-71.54583333333333|WGS84
Valparaíso|Marga Marga|Quilpué|2008-2009|LOS QUILLAYES|2009-02-03|12:45|35.0|Sin alerta|No definido|Accidentes eléctricos|0.0|0.0|0.0|0.0|0.0|0.0|0.0|0.01|0.0|0.0|0.01|-33.17805555555555|-71.35416666666667|WGS84
Valparaíso|Valparaíso|Valparaíso|2008-2009|PASO DEL AGUA  R.N.L.P|2009-02-03|13:12|75.0|Sin alerta|No definido|Incendios intencionales|0.0|0.0|0.0|0.0|0.0|0.0|0.0|0.0|0.0|0.02|0.02|-33.138333333333335|-71.54611111111112|WGS84
Valparaíso|Valparaíso|Valparaíso|2008-2009|VILLA FUNDADORES|2009-02-03|13:30|143.0|Sin alerta|No definido|Tránsito de personasvehículos o aeronaves|0.0|0.07|0.0|0.0|0.0|0.0|0.0|0.03|0.0|0.0|0.1|-33.12888888888889|-71.56722222222223|WGS84
Valparaíso|Marga Marga|Quilpué|2008-2009|LOS COLONOS|2009-02-03|13:33|159.0|Sin alerta|No definido|Tránsito de personasvehículos o aeronaves|0.0|0.0|0.0|0.0|0.0|0.0|0.5|1.0|0.0|0.0|1.5|-33.03277777777778|-71.41444444444444|WGS84
Valparaíso|San Antonio|Cartagena|2008-2009|VISTA HERMOSA|2009-02-03|14:05|80.0|Sin alerta|No definido|Incendios intencionales|0.0|0.0|0.0|0.0|0.0|0.0|0.0|2.0|0.0|0.0|2.0|-33.551944444444445|-71.60111111111111|WGS84
Valparaíso|Marga Marga|Quilpué|2008-2009|POBLACION PRAT|2009-02-03|15:56|26.0|Sin alerta|No definido|Tránsito de personasvehículos o aeronaves|0.0|0.0|0.0|0.0|0.0|0.0|0.01|0.04|0.0|0.0|0.05|-33.069722222222225|-71.36194444444445|WGS84
Valparaíso|Marga Marga|Quilpué|2008-2009|EL SOL|2009-02-03|18:07|100.0|Sin alerta|No definido|Incendios intencionales|0.0|0.0|0.0|0.3|0.0|0.0|0.2|1.5|0.0|0.0|2.0|-33.0325|-71.42527777777778|WGS84
Valparaíso|Valparaíso|Valparaíso|2008-2009|R.N.L.P|2009-02-04|12:00|75.0|Sin alerta|No definido|Tránsito de personasvehículos o aeronaves|0.0|0.0|0.0|0.0|0.0|0.0|0.03|0.02|0.0|0.0|0.05|-33.12916666666667|-71.54583333333333|WGS84
Valparaíso|San Antonio|San Antonio|2008-2009|FUNDO DE LLO LLEO|2009-02-04|13:00|285.0|Sin alerta|No definido|Incendios intencionales|0.0|1.0|0.0|0.0|0.0|0.0|0.6|1.9|0.0|0.0|3.5|-33.60638888888889|-71.5813888888889|WGS84
Valparaíso|San Antonio|San Antonio|2008-2009|LAS LAJAS|2009-02-04|14:30|111.0|Sin alerta|No definido|Actividades extinción incendios forestalesincendios estructurales u otros|0.0|0.0|0.0|0.0|0.0|0.0|0.0|0.0|0.0|0.15|0.15|-33.5975|-71.58111111111111|WGS84
Valparaíso|Marga Marga|Quilpué|2008-2009|LA GRUTA|2009-02-04|15:37|56.0|Sin alerta|No definido|Actividades recreativas|0.0|0.0|0.0|0.0|0.0|0.0|0.02|0.02|0.0|0.0|0.04|-33.04138888888889|-71.42555555555556|WGS84
Valparaíso|San Antonio|San Antonio|2008-2009|VISTA HERMOSA|2009-02-04|15:40|128.0|Sin alerta|No definido|Actividades recreativas|0.0|0.0|0.0|0.2|0.0|0.0|0.0|0.4|0.0|0.0|0.6000000000000001|-33.56055555555555|-71.61222222222223|WGS84
Valparaíso|San Antonio|Santo Domingo|2008-2009|FUENTE RAVÍA|2009-02-04|17:30|80.0|Sin alerta|No definido|Incendios intencionales|0.0|0.0|0.0|0.0|0.0|0.0|0.0|0.04|0.0|0.0|0.04|-33.75111111111111|-71.56388888888888|WGS84
Valparaíso|San Antonio|San Antonio|2008-2009|FUNDO DE LLO LLEO|2009-02-04|18:00|95.0|Sin alerta|No definido|No definida|0.0|0.0|0.01|0.0|0.0|0.0|0.01|0.02|0.0|0.0|0.04|-33.60638888888889|-71.5813888888889|WGS84
Valparaíso|Marga Marga|Quilpué|2008-2009|FUNDO EL REBAÑO|2009-02-05|10:28|205.0|Sin alerta|No definido|Tránsito de personasvehículos o aeronaves|0.0|0.0|0.0|0.0|0.0|0.0|0.1|0.2|0.0|0.0|0.3|-33.03138888888889|-71.4786111111111|WGS84
Valparaíso|Marga Marga|Limache|2008-2009|LOS LAURELES|2009-02-05|14:05|190.0|Sin alerta|No definido|Faenas agrícolas y pecuarias|0.0|0.0|0.0|0.0|0.0|0.0|0.01|0.01|0.0|0.0|0.02|-32.98111111111111|-71.28472222222223|WGS84
Valparaíso|Petorca|Petorca|2008-2009|MANUEL MONTT|2009-02-05|12:00|130.0|Sin alerta|No definido|Tránsito de personasvehículos o aeronaves|0.0|0.0|0.0|0.0|0.0|0.0|0.0|0.8|0.2|0.0|1.0|-32.3175|-71.05555555555556|WGS84
Valparaíso|San Antonio|San Antonio|2008-2009|FUNDO MIRAMAR|2009-02-05|15:35|102.0|Sin alerta|No definido|Incendios intencionales|0.0|0.0|0.0|1.7|0.0|0.0|0.0|0.5|0.0|0.0|2.2|-33.56166666666667|-71.56916666666666|WGS84
Valparaíso|San Antonio|Cartagena|2008-2009|VARIANTE SAN SEBASTIAN|2009-02-05|16:20|195.0|Sin alerta|No definido|Tránsito de personasvehículos o aeronaves|0.0|0.0|0.0|0.0|0.0|0.0|0.5|1.5|0.0|0.0|2.0|-33.534444444444446|-71.56833333333333|WGS84
Valparaíso|San Antonio|Santo Domingo|2008-2009|FUNDO LAS LAGUNAS|2009-02-05|15:28|232.0|Sin alerta|No definido|Faenas agrícolas y pecuarias|0.0|0.0|0.0|0.04|0.0|0.0|0.01|0.0|0.0|6.95|7.0|-33.75805555555556|-71.65055555555556|WGS84
Valparaíso|Valparaíso|Valparaíso|2008-2009|FUNDO EL PERAL|2009-02-05|17:00|80.0|Sin alerta|No definido|Tránsito de personasvehículos o aeronaves|0.0|0.0|0.0|0.03|0.0|0.0|0.0|0.07|0.0|0.0|0.1|-33.12027777777778|-71.54555555555555|WGS84
Valparaíso|San Antonio|San Antonio|2008-2009|FUNDO DE LLO LLEO|2009-02-05|17:00|115.0|Sin alerta|No definido|Incendios intencionales|0.0|0.0|0.2|0.1|0.0|0.0|0.0|0.2|0.0|0.0|0.5|-33.60638888888889|-71.5813888888889|WGS84
Valparaíso|Marga Marga|Limache|2008-2009|FUNDO LIMACHITO|2009-02-05|17:28|287.0|Sin alerta|No definido|Tránsito de personasvehículos o aeronaves|0.0|0.0|0.0|0.0|0.0|0.0|0.2|0.3|0.0|0.0|0.5|-32.99916666666667|-71.27444444444444|WGS84
Valparaíso|San Antonio|Santo Domingo|2008-2009|FUNDO EL PEUMO|2009-02-05|18:20|1010.0|Sin alerta|No definido|Accidentes eléctricos|0.0|0.0|0.0|2.0|0.0|0.0|0.5|0.01|0.0|16.69|19.200000000000003|-33.71305555555556|-71.64916666666667|WGS84
Valparaíso|Valparaíso|Valparaíso|2008-2009|PARCELA REGIMIENTO MAIPO|2009-02-05|23:20|1066.0|Sin alerta|No definido|Incendios intencionales|0.0|0.0|0.0|1.0|0.0|0.0|0.5|0.5|0.0|0.0|2.0|-33.081944444444446|-71.65138888888889|WGS84
Valparaíso|San Antonio|Santo Domingo|2008-2009|LA PRINCESA|2009-02-06|08:50|140.0|Sin alerta|No definido|Tránsito de personasvehículos o aeronaves|0.0|0.0|0.0|0.0|0.0|0.0|0.08|0.07|0.0|0.0|0.15|-33.669444444444444|-71.58305555555556|WGS84
Valparaíso|Marga Marga|Olmué|2008-2009|LO NARVAEZ|2009-02-06|12:00|154.0|Sin alerta|No definido|Tránsito de personasvehículos o aeronaves|0.0|0.0|0.0|0.0|0.0|0.0|0.0|0.08|0.0|0.0|0.08|-33.01027777777778|-71.16777777777777|WGS84
Valparaíso|Marga Marga|Quilpué|2008-2009|BELLOTO SUR|2009-02-06|13:57|68.0|Sin alerta|No definido|Actividades recreativas|0.0|0.0|0.0|0.0|0.0|0.0|0.05|0.15|0.0|0.0|0.2|-33.06916666666667|-71.39416666666666|WGS84
Valparaíso|Marga Marga|Quilpué|2008-2009|BELLOTO NORTE|2009-02-06|14:07|142.0|Sin alerta|No definido|Tránsito de personasvehículos o aeronaves|0.0|0.0|0.0|0.0|0.0|0.0|0.2|0.1|0.0|0.0|0.3|-33.02361111111111|-71.41416666666667|WGS84
Valparaíso|Marga Marga|Olmué|2008-2009|LO NARVAEZ  2|2009-02-06|17:20|164.0|Sin alerta|No definido|Actividades recreativas|0.0|0.5|0.0|0.5|0.0|0.0|1.0|2.7|0.0|0.0|4.7|-33.02861111111111|-71.14666666666666|WGS84
Valparaíso|Valparaíso|Casablanca|2008-2009|LA ROTUNDA|2009-02-06|17:30|1157.0|Sin alerta|IFor-Vn|Tránsito de personasvehículos o aeronaves|0.0|0.0|0.0|0.0|0.0|0.5|1.5|2.0|0.0|0.0|4.0|-33.27611111111111|-71.41055555555556|WGS84
Valparaíso|San Antonio|El Tabo|2008-2009|EL TABO|2009-02-06|17:25|110.0|Sin alerta|No definido|Tránsito de personasvehículos o aeronaves|0.0|0.0|0.0|0.0|0.0|0.0|0.2|0.3|0.0|0.0|0.5|-33.46111111111111|-71.63083333333333|WGS84
Valparaíso|Marga Marga|Villa Alemana|2008-2009|LO HIDALGO|2009-02-06|19:00|1194.0|Sin alerta|No definido|Actividades recreativas|0.0|0.0|0.0|0.0|0.0|1.0|1.5|2.0|0.0|0.0|4.5|-33.04416666666667|-71.2863888888889|WGS84
Valparaíso|San Antonio|San Antonio|2008-2009|EL SAUCE|2009-02-07|14:30|103.0|Sin alerta|No definido|Quema de desechos|0.0|0.0|0.0|0.0|0.0|0.0|0.0|0.12|0.0|0.0|0.12|-33.599444444444444|-71.47333333333333|WGS84
Valparaíso|Valparaíso|Casablanca|2008-2009|LOS MAITENES|2009-02-07|14:48|142.0|Sin alerta|No definido|Actividades recreativas|0.0|0.0|0.0|0.0|0.0|0.0|0.1|0.3|0.0|0.0|0.4|-33.43805555555556|-71.43638888888889|WGS84
Valparaíso|Marga Marga|Olmué|2008-2009|QUEBRADA ALVARADO|2009-02-07|16:20|135.0|Sin alerta|No definido|Actividades recreativas|0.0|0.0|0.0|0.0|0.0|0.2|0.8|0.5|0.0|0.0|1.5|-33.0475|-71.09361111111112|WGS84
Valparaíso|Marga Marga|Quilpué|2008-2009|TRANQUE RECREO|2009-02-07|18:47|88.0|Sin alerta|No definido|Actividades recreativas|0.0|0.0|0.0|0.0|0.0|0.0|0.05|0.05|0.0|0.0|0.1|-33.0875|-71.37305555555555|WGS84
Valparaíso|Quillota|Hijuelas|2008-2009|CHEPICA|2009-02-08|16:15|120.0|Sin alerta|No definido|Actividades extinción incendios forestalesincendios estructurales u otros|0.0|0.0|0.0|2.0|0.0|0.0|1.0|0.0|0.0|0.0|3.0|-32.80277777777778|-71.16277777777778|WGS84
Valparaíso|Valparaíso|Casablanca|2008-2009|SANTA MATILDE|2009-02-08|17:30|129.0|Sin alerta|No definido|Tránsito de personasvehículos o aeronaves|0.0|0.0|0.0|0.2|0.0|0.0|0.3|0.2|0.0|0.0|0.7|-33.4375|-71.45805555555556|WGS84
Valparaíso|Valparaíso|Viña del Mar|2008-2009|PRIMER SECTOR OLIVAR|2009-02-09|15:49|60.0|Sin alerta|No definido|Tránsito de personasvehículos o aeronaves|0.0|0.0|0.0|0.0|0.0|0.0|0.01|0.03|0.0|0.0|0.04|-33.03111111111111|-71.48944444444444|WGS84
Valparaíso|Petorca|Cabildo|2008-2009|EL QUEMADO|2009-02-09|14:30|125.0|Sin alerta|No definido|Tránsito de personasvehículos o aeronaves|0.0|0.0|0.0|0.0|0.0|0.0|0.05|0.05|0.0|0.0|0.1|-32.44444444444444|-71.01583333333333|WGS84
Valparaíso|San Antonio|Cartagena|2008-2009|TUMBA EL POETA|2009-02-09|17:00|65.0|Sin alerta|No definido|Incendios intencionales|0.0|0.0|0.0|0.0|0.0|0.0|0.0|0.8|0.0|0.0|0.8|-33.55222222222222|-71.59055555555555|WGS84
Valparaíso|San Antonio|Cartagena|2008-2009|CAMINO VIEJO CARTAGENA|2009-02-10|15:15|75.0|Sin alerta|No definido|Incendios intencionales|0.0|0.0|0.0|0.0|0.0|0.0|0.0|0.2|0.0|0.0|0.2|-33.56111111111111|-71.59055555555555|WGS84
Valparaíso|Marga Marga|Quilpué|2008-2009|VILLA CUMMING|2009-02-10|15:15|36.0|Sin alerta|No definido|Actividades recreativas|0.0|0.0|0.0|0.0|0.0|0.0|0.01|0.06|0.0|0.0|0.0699999999999999|-33.05916666666667|-71.4475|WGS84
Valparaíso|Marga Marga|Limache|2008-2009|LO CHAPARRO|2009-02-10|15:40|154.0|Sin alerta|No definido|Faenas agrícolas y pecuarias|0.0|0.0|0.0|0.0|0.0|0.0|0.1|0.5|0.0|0.0|0.6|-33.04555555555555|-71.20083333333334|WGS84
Valparaíso|Marga Marga|Limache|2008-2009|FUNDO SANTA ROSA|2009-02-10|16:26|1411.0|Sin alerta|No definido|Tránsito de personasvehículos o aeronaves|0.0|0.0|0.0|0.0|0.0|30.0|80.0|40.0|0.0|0.0|150.0|-33.04555555555555|-71.20083333333334|WGS84
Valparaíso|Valparaíso|Viña del Mar|2008-2009|FUNDO LAS CENIZAS|2009-02-10|19:07|57.0|Sin alerta|No definido|Incendios intencionales|0.0|0.0|0.0|0.03|0.0|0.0|0.0|0.0|0.0|0.0|0.03|-33.111111111111114|-71.55583333333334|WGS84
Valparaíso|Valparaíso|Casablanca|2008-2009|FUNDO LAS TAGUAS|2009-02-11|11:20|117.0|Sin alerta|No definido|Tránsito de personasvehículos o aeronaves|0.0|0.0|0.0|0.0|0.0|0.0|0.2|0.5|0.0|0.0|0.7|-33.21194444444444|-71.47305555555556|WGS84
Valparaíso|Marga Marga|Quilpué|2008-2009|LOS MOLLES|2009-02-11|13:00|439.0|Sin alerta|No definido|Tránsito de personasvehículos o aeronaves|0.0|0.0|0.0|10.0|0.0|0.0|10.0|10.0|0.0|0.0|30.0|-33.21194444444444|-71.47305555555556|WGS84
Valparaíso|Marga Marga|Quilpué|2008-2009|EL REBAÑO|2009-02-11|13:58|156.0|Sin alerta|No definido|Tránsito de personasvehículos o aeronaves|0.0|0.0|0.0|0.0|0.0|0.0|0.1|0.1|0.0|0.0|0.2|-33.03138888888889|-71.4786111111111|WGS84
Valparaíso|San Antonio|San Antonio|2008-2009|LEYDA|2009-02-11|13:45|110.0|Sin alerta|No definido|Tránsito de personasvehículos o aeronaves|0.0|0.0|0.0|0.2|0.0|0.0|0.0|0.1|0.0|0.0|0.3|-33.6275|-71.43111111111111|WGS84
Valparaíso|Valparaíso|Casablanca|2008-2009|LO OVALLE|2009-02-11|15:12|83.0|Sin alerta|No definido|No definida|0.0|0.0|0.0|0.0|0.0|1.0|2.0|3.0|0.0|0.0|6.0|-33.250277777777775|-71.34527777777778|WGS84
Valparaíso|San Antonio|Cartagena|2008-2009|LA RUDILLA|2009-02-11|15:18|1234.0|Sin alerta|No definido|Tránsito de personasvehículos o aeronaves|0.0|0.0|0.0|4.5|0.0|1.0|4.5|5.0|0.0|0.0|15.0|-33.51777777777778|-71.50333333333333|WGS84
Valparaíso|San Antonio|Cartagena|2008-2009|FUNDO EL ROSARIO|2009-02-11|15:45|45.0|Sin alerta|No definido|Accidentes eléctricos|0.0|0.0|0.0|3.0|0.0|19.87|60.0|30.0|0.0|0.0|112.87|-33.48361111111111|-71.4161111111111|WGS84
Valparaíso|Marga Marga|Limache|2008-2009|SAN ISIDRO|2009-02-11|17:08|62.0|Sin alerta|No definido|Actividades recreativas|0.0|0.0|0.0|0.0|0.0|30.0|80.0|185.7|0.0|0.0|295.7|-33.034166666666664|-71.33972222222222|WGS84
Valparaíso|Marga Marga|Quilpué|2008-2009|COLLIGUAY|2009-02-11|17:28|1413.0|Sin alerta|No definido|Tránsito de personasvehículos o aeronaves|0.0|0.0|0.0|0.0|0.0|30.0|15.0|5.0|0.0|0.0|50.0|-33.19777777777778|-71.25805555555556|WGS84
Valparaíso|Petorca|La Ligua|2008-2009|QUEBRADA OSANDON|2009-02-11|14:28|1163.0|Sin alerta|No definido|Tránsito de personasvehículos o aeronaves|0.0|0.0|0.0|0.0|0.0|0.0|10.0|10.0|0.0|0.0|20.0|-32.26111111111111|-71.19222222222223|WGS84
Valparaíso|San Antonio|San Antonio|2008-2009|FUNDO MIRAMAR|2009-02-11|17:15|225.0|Sin alerta|No definido|Incendios intencionales|0.0|0.0|0.0|1.0|0.0|0.0|0.0|1.2|0.0|0.0|2.2|-33.58833333333333|-71.58083333333333|WGS84
Valparaíso|Valparaíso|Viña del Mar|2008-2009|6º SECTOR GOMEZ CARREÑO|2009-02-11|22:50|695.0|Sin alerta|No definido|Tránsito de personasvehículos o aeronaves|0.0|0.0|0.0|0.0|0.0|0.0|0.3|0.3|0.0|0.0|0.6|-32.985277777777775|-71.53083333333333|WGS84
Valparaíso|Quillota|Nogales|2008-2009|LAS ROMAZAS|2009-02-12|10:58|1412.0|Sin alerta|No definido|Actividades recreativas|0.0|0.0|0.0|0.0|0.0|5.0|10.0|10.0|0.0|0.0|25.0|-32.68416666666667|-71.24527777777777|WGS84
Valparaíso|Valparaíso|Valparaíso|2008-2009|R.N.L.P|2009-02-12|13:25|84.0|Sin alerta|No definido|Tránsito de personasvehículos o aeronaves|0.0|0.0|0.0|0.0|0.0|0.0|0.01|0.02|0.0|0.0|0.03|-33.175|-71.515|WGS84
Valparaíso|Valparaíso|Casablanca|2008-2009|TAPIHUE|2009-02-12|14:10|190.0|Sin alerta|No definido|Faenas forestales|0.0|0.0|0.0|0.0|0.0|0.0|0.0|0.0|0.0|3.0|3.0|-33.29638888888889|-71.29305555555555|WGS84
Valparaíso|Valparaíso|Viña del Mar|2008-2009|GOMEZ CARREÑO|2009-02-12|14:53|285.0|Sin alerta|No definido|Actividades recreativas|0.0|0.0|0.0|0.0|0.0|0.0|0.1|0.3|0.0|0.0|0.4|-32.97638888888889|-71.52|WGS84
Valparaíso|Valparaíso|Casablanca|2008-2009|CASABLANCA|2009-02-12|15:39|221.0|Sin alerta|No definido|Actividades recreativas|0.0|0.0|0.0|0.0|0.0|0.0|3.0|4.0|0.0|0.0|7.0|-33.33972222222222|-71.39083333333333|WGS84
Valparaíso|Petorca|La Ligua|2008-2009|VILLA FUTURO|2009-02-12|16:40|29.0|Sin alerta|No definido|Tránsito de personasvehículos o aeronaves|0.0|0.0|0.0|0.0|0.0|0.0|0.01|0.01|0.0|0.0|0.02|-32.458888888888886|-71.23944444444444|WGS84
Valparaíso|Valparaíso|Casablanca|2008-2009|MELOSILLA|2009-02-13|11:00|230.0|Sin alerta|No definido|Tránsito de personasvehículos o aeronaves|0.0|0.0|0.0|0.0|0.0|0.0|0.01|0.02|0.0|0.0|0.03|-33.211666666666666|-71.48388888888888|WGS84
Valparaíso|Valparaíso|Valparaíso|2008-2009|PAJONAL|2009-02-13|12:39|166.0|Sin alerta|No definido|Actividades recreativas|0.0|0.0|0.0|0.07|0.0|0.0|0.03|0.15|0.0|0.0|0.25|-33.06472222222222|-71.60805555555555|WGS84
Valparaíso|San Antonio|El Quisco|2008-2009|EL TOTORAL|2009-02-13|12:40|230.0|Sin alerta|No definido|Incendios intencionales|0.0|0.0|0.0|13.04|0.0|0.0|13.22|80.18|0.0|0.0|106.44|-33.40805555555556|-71.58611111111111|WGS84
Valparaíso|San Antonio|Algarrobo|2008-2009|HUALLILEMU|2009-02-13|12:46|224.0|Sin alerta|No definido|Incendios intencionales|1.2|1.3|0.0|25.1|0.0|4.42|15.18|16.1|0.0|0.0|63.3|-33.37972222222222|-71.63916666666667|WGS84
Valparaíso|Valparaíso|Viña del Mar|2008-2009|JARDIN BOTANICO|2009-02-13|13:20|119.0|Sin alerta|No definido|Tránsito de personasvehículos o aeronaves|0.0|0.0|0.0|0.0|0.0|0.0|0.05|0.15|0.0|0.0|0.2|-33.040277777777774|-71.48972222222223|WGS84
Valparaíso|Valparaíso|Viña del Mar|2008-2009|SAN EXPEDITO|2009-02-13|14:43|117.0|Sin alerta|No definido|Actividades recreativas|0.0|0.0|0.0|0.0|0.0|0.0|0.1|0.2|0.0|0.0|0.3|-33.04888888888889|-71.51138888888889|WGS84
Valparaíso|San Antonio|Cartagena|2008-2009|CAPELLANIA|2009-02-13|19:50|87.0|Sin alerta|No definido|Incendios intencionales|0.0|0.0|0.0|0.0|0.0|0.0|0.04|0.06|0.0|0.0|0.1|-33.54333333333334|-71.57944444444445|WGS84
Valparaíso|San Antonio|San Antonio|2008-2009|FUNDO DE LLO LLEO|2009-02-14|16:30|53.0|Sin alerta|No definido|Tránsito de personasvehículos o aeronaves|0.0|0.0|0.0|0.02|0.0|0.0|0.0|0.0|0.0|0.0|0.02|-33.60583333333334|-71.60277777777777|WGS84
Valparaíso|Marga Marga|Quilpué|2008-2009|LOMAS DE BELLOTO|2009-02-14|16:53|104.0|Sin alerta|No definido|Tránsito de personasvehículos o aeronaves|0.0|0.0|0.0|0.01|0.0|0.0|0.0|0.07|0.0|0.0|0.08|-33.02388888888889|-71.4036111111111|WGS84
Valparaíso|San Antonio|San Antonio|2008-2009|CERRO LA VIRGEN|2009-02-14|17:25|70.0|Sin alerta|No definido|Actividades recreativas|0.0|0.0|0.0|0.0|0.0|0.0|0.0|0.04|0.0|0.0|0.04|-33.569722222222225|-71.6125|WGS84
Valparaíso|Valparaíso|Valparaíso|2008-2009|R.N.L.P  ATRAVIESO|2009-02-15|08:40|181.0|Sin alerta|No definido|Tránsito de personasvehículos o aeronaves|0.0|0.0|0.0|0.0|0.0|0.0|0.1|0.1|0.0|0.0|0.2|-33.18416666666667|-71.50444444444445|WGS84
