Región|Provincia|Comuna|Temporada|Nombre|Fecha|Hora inicio|Duración (minutos)|Alerta|Escenario|Causa|Superficie quemada: Pino A [ha]|Superficie quemada: Pino B [ha]|Superficie quemada: Pino C [ha]|Superficie quemada: Eucalípto [ha]|Superficie quemada: Otras plantas [ha]|Superficie quemada: Arbolado [ha]|Superficie quemada: Matorral [ha]|Superficie quemada: Pastizal [ha]|Superficie quemada: Agrícola [ha]|Superficie quemada: Desechos [ha]|Superficie quemada total [ha]|Latitud|Longitud|Datum
Coquimbo|Choapa|Salamanca|2009-2010|SANTA ROSA|2009-10-07|11:30|420.0|Sin alerta|No definido|No definida|0.0|0.0|0.0|0.0|0.0|0.4|1.5|3.0|0.1|0.0|5.0|-31.898333333333333|-70.75|WGS84
Coquimbo|Limarí|Punitaqui|2009-2010|LAS GARZAS|2009-10-19|13:00|360.0|Sin alerta|No definido|No definida|0.0|0.0|0.0|3.0|0.0|18.0|44.6|30.0|1.0|0.0|96.6|-30.77055555555556|-71.33527777777778|WGS84
Coquimbo|Choapa|Los Vilos|2009-2010|CULIMO|2009-10-29|13:00|150.0|Sin alerta|No definido|No definida|0.0|0.0|0.0|0.0|0.0|0.0|0.0|0.01|0.0|0.0|0.01|-32.08027777777778|-71.23027777777777|WGS84
Coquimbo|Elqui|Coquimbo|2009-2010|EL PEÑON|2009-11-06|15:00|240.0|Sin alerta|No definido|No definida|0.0|0.0|0.0|0.0|0.0|0.0|0.0|0.07|0.0|0.0|0.07|-30.15027777777778|-71.21666666666667|WGS84
Coquimbo|Limarí|Ovalle|2009-2010|LA CHIMBA|2009-12-01|14:30|280.0|Sin alerta|No definido|No definida|0.0|0.0|0.0|0.3|0.0|0.0|0.15|0.05|0.0|0.3|0.7999999999999999|-30.619166666666665|-71.21694444444445|WGS84
Coquimbo|Limarí|Monte Patria|2009-2010|RIO PONIO|2009-12-02|15:30|1425.0|Sin alerta|No definido|No definida|0.0|0.0|0.0|0.0|0.0|10.0|40.0|160.0|0.0|0.0|210.0|-30.753055555555555|-70.71861111111112|WGS84
Coquimbo|Limarí|Ovalle|2009-2010|SANTA CATALINA|2009-12-15|10:00|200.0|Sin alerta|No definido|No definida|0.0|0.0|0.0|0.0|0.0|5.0|47.0|4.0|0.0|0.0|56.0|-30.627777777777776|-71.24833333333333|WGS84
Coquimbo|Elqui|Coquimbo|2009-2010|LOS MAITENES|2010-01-01|15:10|235.0|Sin alerta|No definido|No definida|0.0|0.0|0.0|0.0|0.0|0.0|0.1|7.9|0.0|0.0|8.0|-30.21888888888889|-71.40527777777778|WGS84
Coquimbo|Choapa|Los Vilos|2009-2010|EL MOLLAR|2010-01-20|15:00|240.0|Sin alerta|No definido|No definida|0.0|0.0|0.0|0.0|0.0|1.0|5.0|7.0|0.0|0.0|13.0|-31.870555555555555|-71.35194444444444|WGS84
Coquimbo|Elqui|Vicuña|2009-2010|CHIN CHIN|2010-01-21|17:00|350.0|Sin alerta|No definido|No definida|0.0|0.0|0.0|0.0|0.0|0.02|0.03|0.05|0.0|0.0|0.1|-30.039722222222224|-70.75805555555556|WGS84
Coquimbo|Choapa|Salamanca|2009-2010|QUELEN ALTO|2010-01-25|16:00|50.0|Sin alerta|No definido|No definida|0.0|0.0|0.0|0.0|0.0|0.5|2.0|17.5|0.0|0.0|20.0|-31.97861111111111|-70.815|WGS84
Coquimbo|Choapa|Los Vilos|2009-2010|EL PEÑÓN|2010-02-01|15:30|1230.0|Sin alerta|No definido|No definida|0.0|0.0|0.0|0.0|0.0|1.0|2.0|10.0|0.0|0.0|13.0|-31.92333333333333|-71.4275|WGS84
Coquimbo|Choapa|Illapel|2009-2010|EL MAITEN|2010-02-02|14:30|140.0|Sin alerta|No definido|No definida|0.0|0.0|0.0|0.0|0.0|0.0|0.5|2.5|0.0|0.0|3.0|-31.67388888888889|-71.25222222222222|WGS84
Coquimbo|Choapa|Los Vilos|2009-2010|MATA GORDA|2010-02-06|17:00|75.0|Sin alerta|No definido|No definida|0.0|0.0|0.0|0.0|0.0|0.0|0.0|0.2|0.0|0.0|0.2|-31.903888888888893|-71.50083333333333|WGS84
Coquimbo|Choapa|Los Vilos|2009-2010|CERRO CAVILOLEN|2010-02-08|13:00|45.0|Sin alerta|No definido|No definida|0.0|0.0|0.0|0.0|0.0|5.0|12.0|5.0|0.0|0.0|22.0|-31.82527777777777|-71.36138888888888|WGS84
Coquimbo|Choapa|Los Vilos|2009-2010|CERRO CAVILOLEN II|2010-02-13|13:30|175.0|Sin alerta|No definido|No definida|0.0|0.0|0.0|0.0|0.0|0.0|0.0|0.1|0.0|0.0|0.1|-31.816388888888888|-71.36111111111111|WGS84
Coquimbo|Elqui|La Serena|2009-2010|EL CENDIR|2010-02-18|18:15|30.0|Sin alerta|No definido|No definida|0.0|0.0|0.0|0.0|0.0|0.05|0.05|0.4|0.0|0.0|0.5|-29.915|-71.25277777777778|WGS84
Coquimbo|Choapa|Los Vilos|2009-2010|FUNDO SANTO DOMINGO|2010-02-26|18:00|1080.0|Sin alerta|No definido|No definida|0.0|0.0|0.0|1.5|0.0|0.0|1.5|0.5|0.0|0.0|3.5|-32.16444444444444|-71.53972222222222|WGS84
Coquimbo|Elqui|La Serena|2009-2010|PARCELA 47|2010-03-24|13:00|85.0|Sin alerta|No definido|No definida|0.0|0.0|0.0|0.0|0.0|0.0|0.0|0.0|0.0|0.01|0.01|-29.928888888888885|-71.27555555555556|WGS84
Valparaíso|Valparaíso|Valparaíso|2009-2010|LA CANCHA  R.N.L.P|2009-07-09|15:00|60.0|Sin alerta|No definido|Tránsito de personasvehículos o aeronaves|0.0|0.1|0.0|0.1|0.0|0.0|0.0|0.3|0.0|0.0|0.5|-33.14694444444444|-71.55694444444444|WGS84
Valparaíso|Valparaíso|Valparaíso|2009-2010|FUNDO PAJONAL|2009-07-29|13:30|150.0|Sin alerta|No definido|Tránsito de personasvehículos o aeronaves|0.0|0.0|0.0|0.7|0.0|0.0|0.0|0.1|0.0|0.0|0.7999999999999999|-33.06527777777778|-71.58666666666667|WGS84
Valparaíso|Valparaíso|Valparaíso|2009-2010|FUNDO EL MANZANO|2009-08-26|14:50|85.0|Sin alerta|No definido|Tránsito de personasvehículos o aeronaves|0.0|0.0|0.0|0.2|0.0|0.0|0.0|0.0|0.0|0.0|0.2|-33.09222222222222|-71.5875|WGS84
Valparaíso|San Antonio|El Quisco|2009-2010|EL TOTORAL|2009-08-31|18:20|50.0|Sin alerta|No definido|Tránsito de personasvehículos o aeronaves|0.0|0.0|0.0|0.1|0.0|0.0|0.0|0.0|0.0|0.1|0.2|-33.42472222222222|-71.64027777777778|WGS84
Valparaíso|Valparaíso|Valparaíso|2009-2010|FUNDO PAJONAL|2009-10-07|12:30|240.0|Sin alerta|No definido|Tránsito de personasvehículos o aeronaves|0.0|0.0|0.0|8.0|0.0|0.0|0.0|0.1|0.0|0.0|8.1|-33.06472222222222|-71.60805555555555|WGS84
Valparaíso|Valparaíso|Viña del Mar|2009-2010|GRANADILLAS  I|2009-10-19|15:05|135.0|Sin alerta|No definido|Tránsito de personasvehículos o aeronaves|0.0|0.0|0.0|0.1|0.0|0.0|0.3|0.1|0.0|0.0|0.5|-33.00361111111111|-71.52083333333333|WGS84
Valparaíso|Valparaíso|Valparaíso|2009-2010|R.N.L.P  CASA JERIA|2009-10-20|14:50|1300.0|Sin alerta|No definido|Tránsito de personasvehículos o aeronaves|0.0|0.0|0.0|0.0|0.0|0.0|0.0|0.0|0.0|0.14|0.14|-33.13861111111111|-71.53527777777778|WGS84
Valparaíso|Valparaíso|Valparaíso|2009-2010|R.N.L.P CASA JERIA II|2009-10-20|15:00|175.0|Sin alerta|No definido|Tránsito de personasvehículos o aeronaves|0.0|0.0|0.0|0.0|0.0|0.0|0.0|0.0|0.0|0.11|0.11|-33.13861111111111|-71.53527777777778|WGS84
Valparaíso|San Antonio|Santo Domingo|2009-2010|SANTA LUCIA|2009-10-20|13:30|150.0|Sin alerta|No definido|Tránsito de personasvehículos o aeronaves|0.0|0.0|0.0|16.99|0.0|0.0|0.01|4.5|0.0|0.0|21.5|-33.89416666666666|-71.61166666666666|WGS84
Valparaíso|San Felipe de Aconcagua|Panquehue|2009-2010|LOS MAITENES|2009-10-22|14:00|120.0|Sin alerta|No definido|Incendios intencionales|0.0|0.0|0.0|0.0|0.0|0.0|0.2|0.1|0.0|0.0|0.3|-32.75472222222222|-70.78805555555556|WGS84
Valparaíso|San Antonio|El Quisco|2009-2010|FUNDO HUALLILEMU|2009-10-24|20:55|1205.0|Sin alerta|No definido|Tránsito de personasvehículos o aeronaves|0.0|0.0|0.0|0.1|0.0|0.0|0.3|0.1|0.0|0.4|0.9|-33.3975|-71.65027777777777|WGS84
Valparaíso|Valparaíso|Puchuncavi|2009-2010|CAMPINCHE|2009-10-29|13:46|134.0|Sin alerta|No definido|Tránsito de personasvehículos o aeronaves|0.0|0.0|0.0|5.32|0.0|9.2|13.8|32.33|0.0|0.0|60.65|-32.72555555555556|-71.44888888888889|WGS84
Valparaíso|Valparaíso|Valparaíso|2009-2010|TRANQUE LA LUZ|2009-10-29|19:31|989.0|Sin alerta|No definido|Tránsito de personasvehículos o aeronaves|0.1|0.0|0.0|0.1|0.0|0.0|0.0|0.0|0.0|0.0|0.2|-33.12888888888889|-71.56722222222223|WGS84
Valparaíso|Valparaíso|Concón|2009-2010|CAMINO INTERNACIONAL|2009-11-02|18:15|94.0|Sin alerta|No definido|Tránsito de personasvehículos o aeronaves|0.0|0.0|0.0|0.0|0.0|0.0|0.08|0.12|0.0|0.0|0.2|-32.820277777777775|-71.665|WGS84
Valparaíso|Valparaíso|Concón|2009-2010|LA SKEGA|2009-11-02|22:21|184.0|Sin alerta|No definido|Incendios intencionales|0.0|0.0|0.0|0.0|0.0|0.0|0.2|0.8|0.0|0.0|1.0|-32.820277777777775|-71.665|WGS84
Valparaíso|Valparaíso|Concón|2009-2010|LA SKEGA II|2009-11-03|11:29|161.0|Sin alerta|No definido|Tránsito de personasvehículos o aeronaves|0.0|1.4|0.0|4.0|0.0|0.0|3.0|3.6|0.0|0.0|12.0|-32.93138888888889|-71.51861111111111|WGS84
Valparaíso|San Antonio|Santo Domingo|2009-2010|FUENTE RAVIA|2009-11-03|11:28|145.0|Sin alerta|No definido|Tránsito de personasvehículos o aeronaves|0.0|0.0|0.0|0.0|0.0|0.0|0.0|0.0|0.0|1.5|1.5|-33.76833333333333|-71.59694444444445|WGS84
Valparaíso|Marga Marga|Quilpué|2009-2010|TENIENTE SERRANO|2009-11-03|18:26|129.0|Sin alerta|No definido|Tránsito de personasvehículos o aeronaves|0.0|0.0|0.0|0.05|0.0|0.0|0.1|0.15|0.0|0.0|0.3|-33.06861111111111|-71.41555555555556|WGS84
Valparaíso|Valparaíso|Valparaíso|2009-2010|LOS PINOS LAGUNA VERDE|2009-11-04|04:00|876.0|Sin alerta|No definido|Faenas agrícolas y pecuarias|0.2|0.0|0.0|0.0|0.0|0.0|0.0|0.0|0.0|0.0|0.2|-33.135555555555555|-71.67444444444445|WGS84
Valparaíso|Marga Marga|Quilpué|2009-2010|FUNDO EL REBAÑO|2009-11-04|13:20|310.0|Sin alerta|No definido|Incendios intencionales|0.0|0.0|0.0|0.2|0.0|0.0|0.3|0.5|0.0|0.0|1.0|-33.031666666666666|-71.46805555555555|WGS84
Valparaíso|Valparaíso|Valparaíso|2009-2010|LAS DOCAS|2009-11-06|13:30|144.0|Sin alerta|No definido|Incendios intencionales|0.0|0.0|0.0|0.5|0.0|0.0|0.0|0.0|0.0|0.0|0.5|-33.14416666666666|-71.69638888888889|WGS84
Valparaíso|Valparaíso|Valparaíso|2009-2010|MARINA MERCANTE|2009-11-06|15:59|226.0|Sin alerta|No definido|Actividades recreativas|0.0|0.0|0.0|2.0|0.0|0.0|0.3|0.7|0.0|0.0|3.0|-33.045833333333334|-71.65055555555556|WGS84
Valparaíso|San Antonio|San Antonio|2009-2010|FUNDO MIRAMAR|2009-11-06|18:15|965.0|Sin alerta|No definido|Incendios intencionales|0.0|0.0|0.0|0.2|0.0|0.0|0.0|0.15|0.0|0.0|0.35|-33.57944444444445|-71.58055555555555|WGS84
Valparaíso|Valparaíso|Valparaíso|2009-2010|EL MANZANO|2009-11-07|09:10|224.0|Sin alerta|No definido|Incendios intencionales|0.0|0.0|0.0|1.5|0.0|0.0|0.0|0.0|0.0|0.0|1.5|-33.0825|-71.61944444444444|WGS84
Valparaíso|Valparaíso|Concón|2009-2010|VILLA PRIMAVERA  CON CON|2009-11-07|13:42|33.0|Sin alerta|No definido|Actividades recreativas|0.0|0.0|0.0|0.0|0.0|0.0|0.0|0.05|0.0|0.0|0.05|-32.940555555555555|-71.5188888888889|WGS84
Valparaíso|Valparaíso|Puchuncavi|2009-2010|QUIRIYUCA|2009-11-07|16:10|185.0|Sin alerta|No definido|Incendios intencionales|0.0|0.0|0.0|0.08|0.0|0.0|0.0|0.0|0.0|0.0|0.08|-32.73638888888889|-71.35305555555556|WGS84
Valparaíso|Quillota|Quillota|2009-2010|TABO LANGO|2009-11-07|16:39|133.0|Sin alerta|No definido|Incendios intencionales|0.0|0.0|0.0|0.0|0.0|0.0|1.0|1.0|0.0|0.0|2.0|-32.901666666666664|-71.35805555555555|WGS84
Valparaíso|San Antonio|El Tabo|2009-2010|PARCELA 111|2009-11-08|09:05|170.0|Sin alerta|No definido|Tránsito de personasvehículos o aeronaves|0.0|0.01|0.0|0.0|0.0|0.0|0.03|0.01|0.0|0.0|0.05|-33.44305555555555|-71.63027777777778|WGS84
Valparaíso|Valparaíso|Valparaíso|2009-2010|PLACILLA  FUNDO EL LLANO|2009-11-08|11:56|294.0|Sin alerta|No definido|Actividades recreativas|0.0|0.6|0.0|0.0|0.0|0.0|0.0|0.0|0.0|0.4|1.0|-33.1375|-71.58888888888889|WGS84
Valparaíso|Valparaíso|Casablanca|2009-2010|LO VASQUEZ|2009-11-08|13:23|127.0|Sin alerta|No definido|Faenas agrícolas y pecuarias|0.0|0.0|0.0|0.1|0.0|0.0|0.2|0.22|0.0|0.0|0.52|-33.25666666666667|-71.485|WGS84
Valparaíso|San Antonio|Cartagena|2009-2010|LAS ENCINAS|2009-11-08|14:50|128.0|Sin alerta|No definido|Tránsito de personasvehículos o aeronaves|0.0|0.0|0.0|0.0|0.0|0.0|0.15|0.1|0.0|0.0|0.25|-33.5525|-71.56888888888889|WGS84
Valparaíso|Valparaíso|Valparaíso|2009-2010|FUNDO EL LLANO II|2009-11-08|15:29|81.0|Sin alerta|No definido|Actividades recreativas|0.0|0.0|0.0|0.0|0.0|0.0|0.0|0.0|0.0|0.03|0.03|-33.11972222222222|-71.56694444444445|WGS84
Valparaíso|Marga Marga|Villa Alemana|2009-2010|LAS AMERICAS|2009-11-08|15:59|61.0|Sin alerta|No definido|Actividades recreativas|0.0|0.0|0.0|0.0|0.0|0.0|0.1|0.4|0.0|0.0|0.5|-33.024166666666666|-71.38222222222223|WGS84
Valparaíso|San Antonio|El Tabo|2009-2010|PARCELA 112|2009-11-08|16:15|35.0|Sin alerta|No definido|Actividades recreativas|0.0|0.1|0.0|0.0|0.0|0.02|0.0|0.03|0.0|0.2|0.35|-33.44305555555555|-71.63027777777778|WGS84
Valparaíso|Marga Marga|Quilpué|2009-2010|POBLACION FRUTILLAR|2009-11-08|20:00|80.0|Sin alerta|No definido|Actividades recreativas|0.0|0.0|0.0|0.0|0.0|0.0|0.03|0.06|0.0|0.0|0.09|-33.03277777777778|-71.41444444444444|WGS84
Valparaíso|San Antonio|San Antonio|2009-2010|FUNDO DE LLO LLEO|2009-11-08|18:00|112.0|Sin alerta|No definido|Tránsito de personasvehículos o aeronaves|0.0|0.0|0.0|0.0|0.0|0.0|0.04|0.02|0.0|0.0|0.06|-33.59722222222222|-71.59166666666667|WGS84
Valparaíso|Quillota|Hijuelas|2009-2010|MAITENES DE OCOA|2009-11-08|18:57|1283.0|Sin alerta|No definido|Tránsito de personasvehículos o aeronaves|0.0|0.25|0.0|0.25|0.0|0.0|0.5|0.0|0.0|0.0|1.0|-32.85805555555555|-71.08916666666667|WGS84
Valparaíso|Petorca|La Ligua|2009-2010|PULLALLY|2009-11-10|08:00|600.0|Sin alerta|No definido|Incendios intencionales|0.0|0.0|0.0|0.0|0.0|0.3|0.0|0.1|0.0|0.0|0.4|-32.403888888888886|-71.28083333333333|WGS84
Valparaíso|Marga Marga|Quilpué|2009-2010|TENIENTE SERRANO|2009-11-10|13:11|168.0|Sin alerta|No definido|Incendios intencionales|0.0|0.0|0.0|0.2|0.0|0.0|0.3|1.5|0.0|0.0|2.0|-33.068888888888885|-71.40472222222222|WGS84
Valparaíso|Valparaíso|Valparaíso|2009-2010|SECTOR CURAUMA|2009-11-10|14:00|113.0|Sin alerta|No definido|Tránsito de personasvehículos o aeronaves|0.0|0.01|0.0|0.0|0.0|0.0|0.02|0.02|0.0|0.0|0.05|-33.12861111111111|-71.57777777777778|WGS84
Valparaíso|Marga Marga|Quilpué|2009-2010|EL SOL DE QUILPUE|2009-11-10|13:50|136.0|Sin alerta|No definido|Actividades recreativas|0.0|0.0|0.0|0.1|0.0|0.05|0.05|0.2|0.0|0.0|0.4|-33.11361111111111|-71.4275|WGS84
Valparaíso|San Antonio|San Antonio|2009-2010|FUNDO DE LLO LLEO|2009-11-10|13:00|250.0|Sin alerta|No definido|Tránsito de personasvehículos o aeronaves|0.0|0.0|0.0|0.9|0.0|0.0|0.0|0.0|0.0|0.0|0.9|-33.60611111111111|-71.59194444444445|WGS84
Valparaíso|Valparaíso|Viña del Mar|2009-2010|VILLA HERMOSA|2009-11-10|15:21|178.0|Sin alerta|No definido|Actividades recreativas|0.0|0.0|0.0|0.0|0.0|0.0|0.05|0.25|0.0|0.0|0.3|-33.0225|-71.4786111111111|WGS84
Valparaíso|San Antonio|San Antonio|2009-2010|VISTA HERMOSA|2009-11-11|16:50|100.0|Sin alerta|No definido|Incendios intencionales|0.0|0.0|0.0|0.15|0.0|0.0|0.0|0.5|0.0|0.0|0.65|-33.56055555555555|-71.61222222222223|WGS84
Valparaíso|Marga Marga|Villa Alemana|2009-2010|VILLA EL BOSQUE|2009-11-12|18:12|108.0|Sin alerta|No definido|Actividades recreativas|0.0|0.0|0.0|0.0|0.0|0.0|0.1|0.2|0.0|0.0|0.3|-33.03305555555556|-71.39305555555555|WGS84
Valparaíso|Valparaíso|Valparaíso|2009-2010|PLACERES|2009-11-13|12:38|72.0|Sin alerta|No definido|Quema de desechos|0.0|0.0|0.0|0.0|0.0|0.0|0.01|0.03|0.0|0.0|0.04|-33.038333333333334|-71.58611111111111|WGS84
Valparaíso|Valparaíso|Valparaíso|2009-2010|POBLACION LA ROILA LOS PLACERES|2009-11-13|13:57|23.0|Sin alerta|No definido|Actividades recreativas|0.0|0.0|0.0|0.0|0.0|0.0|0.0|0.02|0.0|0.0|0.02|-33.056666666666665|-71.565|WGS84
Valparaíso|Valparaíso|Viña del Mar|2009-2010|VISTA HERMOSA|2009-11-13|15:56|35.0|Sin alerta|No definido|Actividades recreativas|0.0|0.0|0.0|0.0|0.0|0.0|0.0|0.08|0.0|0.0|0.08|-33.03138888888889|-71.4786111111111|WGS84
Valparaíso|San Antonio|San Antonio|2009-2010|FUNDO DE LLO LLEO|2009-11-13|17:20|110.0|Sin alerta|No definido|Incendios intencionales|0.0|0.0|0.0|0.3|0.0|0.0|0.4|0.7|0.0|0.0|1.4|-33.5975|-71.58111111111111|WGS84
Valparaíso|San Antonio|San Antonio|2009-2010|FUNDO MIRAMAR|2009-11-13|22:00|850.0|Sin alerta|No definido|Actividades recreativas|0.0|0.0|0.12|0.0|0.0|0.0|0.0|0.0|0.0|0.0|0.12|-33.579166666666666|-71.5911111111111|WGS84
Valparaíso|Marga Marga|Villa Alemana|2009-2010|EL ALMENDRAL|2009-11-14|14:15|98.0|Sin alerta|No definido|Tránsito de personasvehículos o aeronaves|0.0|0.0|0.0|0.0|0.0|0.0|0.5|1.5|0.0|0.0|2.0|-33.07888888888889|-71.35166666666667|WGS84
Valparaíso|Valparaíso|Quintero|2009-2010|RITOQUE|2009-11-14|14:39|1226.0|Sin alerta|No definido|Incendios intencionales|0.0|0.0|0.0|3.0|0.0|0.0|0.0|1.8|0.0|0.0|4.8|-32.81388888888889|-71.53666666666666|WGS84
Valparaíso|San Antonio|El Tabo|2009-2010|EL PINAR|2009-11-15|15:40|95.0|Sin alerta|No definido|Tránsito de personasvehículos o aeronaves|0.0|0.0|0.0|0.2|0.0|0.0|0.1|0.2|0.0|0.0|0.5|-33.45166666666667|-71.65194444444444|WGS84
Valparaíso|San Felipe de Aconcagua|Catemu|2009-2010|CATEMU|2009-11-15|13:18|342.0|Sin alerta|No definido|Quema de desechos|0.0|0.0|0.0|1.5|0.0|0.0|0.5|1.0|0.0|0.0|3.0|-32.806111111111115|-70.96|WGS84
Valparaíso|Marga Marga|Limache|2009-2010|LLIU LLIU SECTOR MONASTERIO|2009-11-15|16:50|1270.0|Sin alerta|No definido|Tránsito de personasvehículos o aeronaves|0.0|0.0|0.0|0.0|0.0|3.0|3.5|3.5|0.0|0.0|10.0|-33.06361111111111|-71.21194444444444|WGS84
Valparaíso|Marga Marga|Villa Alemana|2009-2010|RUMIE LAS CABRAS|2009-11-15|18:03|85.0|Sin alerta|No definido|Actividades recreativas|0.0|0.0|0.0|0.0|0.0|0.0|0.0|0.05|0.0|0.0|0.05|-33.01833333333333|-71.3825|WGS84
Valparaíso|San Antonio|San Antonio|2009-2010|FUNDO MIRAMAR|2009-11-15|19:20|82.0|Sin alerta|No definido|Tránsito de personasvehículos o aeronaves|0.0|0.0|0.0|0.0|0.0|0.0|0.01|0.02|0.0|0.0|0.03|-33.58805555555556|-71.59138888888889|WGS84
Valparaíso|Valparaíso|Valparaíso|2009-2010|LAS CENIZAS  LOS OLIVOS|2009-11-15|21:41|1099.0|Sin alerta|No definido|Incendios intencionales|0.0|0.0|0.0|2.44|0.0|0.0|0.0|2.0|0.0|0.0|4.44|-33.092777777777776|-71.56611111111111|WGS84
Valparaíso|San Antonio|San Antonio|2009-2010|VISTA HERMOSA I|2009-11-16|15:20|80.0|Sin alerta|No definido|Tránsito de personasvehículos o aeronaves|0.0|0.0|0.0|0.01|0.0|0.0|0.0|0.2|0.0|0.0|0.21|-33.56055555555555|-71.61222222222223|WGS84
Valparaíso|San Antonio|San Antonio|2009-2010|VISTA HERMOSA II|2009-11-16|15:20|93.0|Sin alerta|No definido|Tránsito de personasvehículos o aeronaves|0.0|0.0|0.0|0.0|0.0|0.0|0.0|1.3|0.0|0.0|1.3|-33.731944444444444|-71.6175|WGS84
Valparaíso|Valparaíso|Puchuncavi|2009-2010|TIRIYUCA|2009-11-19|17:22|190.0|Sin alerta|No definido|Incendios intencionales|0.0|0.2|0.0|0.8|0.0|0.0|0.0|0.17|0.0|0.0|1.17|-32.71722222222222|-71.40611111111112|WGS84
Valparaíso|Marga Marga|Villa Alemana|2009-2010|LOS MARISTAS|2009-11-21|13:01|81.0|Sin alerta|No definido|Incendios intencionales|0.0|0.0|0.0|0.0|0.0|0.0|0.02|0.03|0.0|0.0|0.05|-33.033611111111114|-71.37166666666667|WGS84
Valparaíso|Valparaíso|Puchuncavi|2009-2010|CAMPICHE|2009-11-21|13:15|210.0|Sin alerta|No definido|Actividades recreativas|0.0|0.0|0.0|1.0|0.0|0.0|0.15|1.0|0.0|0.0|2.15|-32.73416666666667|-71.45972222222223|WGS84
Valparaíso|Valparaíso|Valparaíso|2009-2010|CUESTA COLORADA|2009-11-21|14:14|126.0|Sin alerta|No definido|Actividades recreativas|0.0|0.0|0.0|0.02|0.0|0.0|0.08|0.05|0.0|0.0|0.15|-33.065|-71.5975|WGS84
Valparaíso|Valparaíso|Valparaíso|2009-2010|FUNDO EL LLANO|2009-11-21|15:35|50.0|Sin alerta|No definido|Actividades recreativas|0.0|0.0|0.0|0.0|0.0|0.0|0.0|0.0|0.0|0.02|0.02|-33.11944444444445|-71.58833333333334|WGS84
Valparaíso|Valparaíso|Viña del Mar|2009-2010|JARDIN DEL MAR|2009-11-21|15:43|105.0|Sin alerta|No definido|Tránsito de personasvehículos o aeronaves|0.0|0.0|0.0|0.0|0.0|0.0|0.03|0.03|0.0|0.0|0.06|-32.97638888888889|-71.53055555555555|WGS84
Valparaíso|Valparaíso|Puchuncavi|2009-2010|PUCHUNCAVI  RUNGUE|2009-11-21|14:23|82.0|Sin alerta|No definido|Quema de desechos|0.0|0.0|0.0|0.0|0.0|0.0|0.1|0.22|0.0|0.0|0.32|-32.681111111111115|-71.41555555555556|WGS84
Valparaíso|Quillota|Calera|2009-2010|CERRO MELANITA|2009-11-21|17:34|1399.0|Sin alerta|No definido|Incendios intencionales|0.0|0.0|0.0|20.0|0.0|0.0|30.0|80.0|0.0|0.0|130.0|-32.80222222222222|-71.20527777777778|WGS84
Valparaíso|Quillota|Quillota|2009-2010|MAUCO|2009-11-22|14:57|128.0|Sin alerta|No definido|Incendios intencionales|0.0|0.0|0.0|10.0|0.0|0.0|6.0|10.0|0.0|0.0|26.0|-32.925|-71.39027777777778|WGS84
Valparaíso|San Felipe de Aconcagua|Llay-Llay|2009-2010|LLAY LLAY|2009-11-22|12:56|368.0|Sin alerta|No definido|Incendios intencionales|0.0|0.0|0.0|0.0|0.5|0.0|8.0|11.5|0.0|0.0|20.0|-32.89888888888889|-70.79083333333334|WGS84
Valparaíso|Valparaíso|Concón|2009-2010|PORTESUELO|2009-11-22|16:38|48.0|Sin alerta|No definido|Tránsito de personasvehículos o aeronaves|0.0|0.0|0.0|0.0|0.0|0.0|0.05|0.05|0.0|0.0|0.1|-32.933055555555555|-71.41833333333334|WGS84
Valparaíso|Marga Marga|Limache|2009-2010|LIMACHE|2009-11-23|13:24|214.0|Sin alerta|No definido|Actividades recreativas|0.0|0.0|0.0|2.0|0.0|0.0|1.0|1.0|0.0|0.0|4.0|-32.98111111111111|-71.27416666666667|WGS84
Valparaíso|Marga Marga|Quilpué|2009-2010|LAS PALMAS|2009-11-23|13:45|105.0|Sin alerta|No definido|Incendios intencionales|0.0|0.0|0.0|0.0|0.0|0.0|0.1|0.16|0.0|0.0|0.26|-33.12305555555555|-71.40638888888888|WGS84
Valparaíso|San Antonio|San Antonio|2009-2010|LAS LOMAS|2009-11-23|14:20|43.0|Sin alerta|No definido|Tránsito de personasvehículos o aeronaves|0.0|0.0|0.0|0.0|0.0|0.0|0.0|0.02|0.0|0.0|0.02|-33.60583333333334|-71.60277777777777|WGS84
Valparaíso|Valparaíso|Viña del Mar|2009-2010|REÑACA ALTO|2009-11-23|15:25|179.0|Sin alerta|No definido|Actividades recreativas|0.0|0.0|0.0|0.1|0.0|0.0|0.2|0.2|0.0|0.0|0.5|-32.986111111111114|-71.48805555555556|WGS84
Valparaíso|Marga Marga|Villa Alemana|2009-2010|TRANQUE RUMIE|2009-11-23|16:20|126.0|Sin alerta|No definido|Actividades recreativas|0.0|0.0|0.0|0.0|0.0|0.0|0.2|0.3|0.0|0.0|0.5|-33.024166666666666|-71.38222222222223|WGS84
Valparaíso|Marga Marga|Villa Alemana|2009-2010|POBLACION WILSON|2009-11-23|17:04|145.0|Sin alerta|No definido|Actividades recreativas|0.0|0.0|0.0|0.1|0.0|0.0|0.0|0.05|0.0|0.0|0.15|-33.043055555555554|-71.34|WGS84
Valparaíso|San Antonio|Cartagena|2009-2010|FUNDO COLENGUADO|2009-11-23|17:05|35.0|Sin alerta|No definido|Tránsito de personasvehículos o aeronaves|0.0|0.0|0.0|0.0|0.0|0.0|0.0|0.01|0.0|0.0|0.01|-33.54361111111111|-71.56861111111111|WGS84
Valparaíso|Valparaíso|Valparaíso|2009-2010|FUNDO OREGON|2009-11-23|22:00|95.0|Sin alerta|No definido|Incendios intencionales|0.0|0.0|0.0|0.0|0.0|0.0|0.0|0.03|0.0|0.07|0.1|-33.12694444444445|-71.65277777777777|WGS84
Valparaíso|Valparaíso|Valparaíso|2009-2010|FUNDO PAJONAL|2009-11-24|14:03|157.0|Sin alerta|No definido|Incendios intencionales|0.0|0.0|0.0|0.1|0.0|0.0|0.05|0.05|0.0|0.13|0.33|-33.08277777777778|-71.60861111111112|WGS84
Valparaíso|Valparaíso|Valparaíso|2009-2010|PORVENIR BAJO|2009-11-25|13:30|70.0|Sin alerta|No definido|Incendios intencionales|0.0|0.0|0.0|0.0|0.0|0.0|0.0|0.27|0.0|0.0|0.27|-33.036944444444444|-71.65027777777777|WGS84
Valparaíso|Marga Marga|Quilpué|2009-2010|ESTERO VIEJO|2009-11-25|15:16|79.0|Sin alerta|No definido|Tránsito de personasvehículos o aeronaves|0.0|0.0|0.0|0.0|0.0|0.0|0.5|0.5|0.0|0.0|1.0|-33.068888888888885|-71.40472222222222|WGS84
Valparaíso|Valparaíso|Quintero|2009-2010|VALLE  ALEGRE|2009-11-25|15:28|129.0|Sin alerta|No definido|Incendios intencionales|0.0|0.0|0.0|0.0|0.0|0.0|0.07|0.7|0.0|0.0|0.77|-32.80638888888889|-71.46166666666667|WGS84
Valparaíso|Marga Marga|Quilpué|2009-2010|POMPEYA SUR|2009-11-25|15:39|117.0|Sin alerta|No definido|Actividades recreativas|0.0|0.0|0.0|0.0|0.0|0.0|0.2|0.3|0.0|0.0|0.5|-33.06777777777778|-71.46916666666667|WGS84
Valparaíso|Valparaíso|Valparaíso|2009-2010|RODELILLO|2009-11-25|16:36|94.0|Sin alerta|No definido|Actividades recreativas|0.0|0.0|0.0|0.0|0.0|0.0|0.04|0.06|0.0|0.0|0.1|-33.06583333333333|-71.56527777777778|WGS84
Valparaíso|San Antonio|Cartagena|2009-2010|LA RUDILLA|2009-11-25|16:25|100.0|Sin alerta|No definido|Tránsito de personasvehículos o aeronaves|0.0|0.0|0.0|1.23|0.0|0.0|0.2|0.3|0.0|0.0|1.73|-33.51805555555556|-71.4925|WGS84
Valparaíso|San Antonio|San Antonio|2009-2010|PUENTE AREVALO|2009-11-26|13:00|122.0|Sin alerta|No definido|Incendios intencionales|0.0|0.0|0.0|0.0|0.0|0.0|0.0|0.07|0.0|0.0|0.07|-33.56138888888889|-71.58|WGS84
Valparaíso|San Antonio|San Antonio|2009-2010|FUNDO DE LLO LLEO|2009-11-26|14:50|55.0|Sin alerta|No definido|Actividades recreativas|0.0|0.0|0.0|0.35|0.0|0.0|0.0|0.05|0.0|0.0|0.3999999999999999|-33.60611111111111|-71.59194444444445|WGS84
Valparaíso|Marga Marga|Villa Alemana|2009-2010|LAS VEGAS|2009-11-26|15:04|65.0|Sin alerta|No definido|Actividades recreativas|0.0|0.0|0.0|0.0|0.0|0.0|0.1|0.2|0.0|0.0|0.3|-33.05111111111111|-71.39361111111111|WGS84
Valparaíso|Valparaíso|Viña del Mar|2009-2010|FORESTAL|2009-11-26|17:31|81.0|Sin alerta|No definido|Actividades recreativas|0.0|0.0|0.0|0.0|0.0|0.0|0.02|0.04|0.0|0.0|0.06|-33.03888888888889|-71.55388888888889|WGS84
Valparaíso|Marga Marga|Villa Alemana|2009-2010|LOS NARANJOS|2009-11-26|17:29|64.0|Sin alerta|No definido|Actividades recreativas|0.0|0.0|0.0|0.0|0.0|0.0|0.1|0.3|0.0|0.0|0.4|-33.04361111111111|-71.30777777777777|WGS84
Valparaíso|Valparaíso|Valparaíso|2009-2010|FUNDO EL LLANO|2009-11-26|18:39|53.0|Sin alerta|No definido|Incendios intencionales|0.0|0.04|0.0|0.0|0.0|0.0|0.0|0.0|0.0|0.0|0.04|-33.11944444444445|-71.58833333333334|WGS84
Valparaíso|Valparaíso|Viña del Mar|2009-2010|NUEVA AURORA|2009-11-26|22:16|44.0|Sin alerta|No definido|Tránsito de personasvehículos o aeronaves|0.0|0.0|0.0|0.0|0.0|0.0|0.08|0.12|0.0|0.0|0.2|-33.03861111111111|-71.57527777777777|WGS84
Valparaíso|Marga Marga|Quilpué|2009-2010|BELLOTO NORTE|2009-11-27|11:00|94.0|Sin alerta|No definido|Incendios intencionales|0.0|0.0|0.0|0.0|0.0|0.0|0.03|0.3|0.0|0.0|0.3299999999999999|-33.0325|-71.42527777777778|WGS84
Valparaíso|Valparaíso|Valparaíso|2009-2010|LA ISLA  LA VENTOLERA|2009-11-27|12:46|92.0|Sin alerta|No definido|Actividades recreativas|0.0|0.0|0.0|0.0|0.0|0.0|0.08|0.09|0.0|0.0|0.1699999999999999|-33.08361111111111|-71.56583333333333|WGS84
Valparaíso|San Antonio|Algarrobo|2009-2010|PARCELA LAS CASAS|2009-11-27|13:40|195.0|Sin alerta|No definido|Tránsito de personasvehículos o aeronaves|0.0|0.0|0.0|0.0|0.0|0.0|0.7|0.8|0.0|0.0|1.5|-33.34388888888889|-71.62722222222222|WGS84
Valparaíso|Valparaíso|Viña del Mar|2009-2010|VILLA DULCE|2009-11-27|17:07|63.0|Sin alerta|No definido|Actividades recreativas|0.0|0.0|0.0|0.0|0.0|0.0|0.09|0.2|0.0|0.0|0.29|-33.03111111111111|-71.5|WGS84
Valparaíso|San Antonio|San Antonio|2009-2010|PLANICIES DE BELLAVISTA|2009-11-27|16:45|50.0|Sin alerta|No definido|Actividades recreativas|0.0|0.0|0.0|0.0|0.0|0.0|0.0|0.2|0.0|0.0|0.2|-33.569722222222225|-71.6125|WGS84
Valparaíso|Valparaíso|Viña del Mar|2009-2010|JARDIN BOTANICO|2009-11-27|17:59|111.0|Sin alerta|No definido|Incendios intencionales|0.0|0.0|0.0|0.0|0.0|0.0|0.08|0.6|0.0|0.0|0.6799999999999999|-33.040277777777774|-71.48972222222223|WGS84
Valparaíso|Valparaíso|Viña del Mar|2009-2010|LAJARILLA|2009-11-27|18:06|58.0|Sin alerta|No definido|Incendios intencionales|0.0|0.0|0.0|0.0|0.0|0.0|0.0|0.06|0.0|0.0|0.06|-32.986111111111114|-71.48805555555556|WGS84
Valparaíso|Marga Marga|Limache|2009-2010|EL PANGAL|2009-11-27|17:27|135.0|Sin alerta|No definido|Tránsito de personasvehículos o aeronaves|0.0|0.0|0.0|0.0|0.0|0.0|1.0|1.6|0.0|0.0|2.6|-33.01722222222222|-71.275|WGS84
Valparaíso|Valparaíso|Viña del Mar|2009-2010|GLORIAS NAVALES|2009-11-27|18:11|54.0|Sin alerta|No definido|Actividades recreativas|0.0|0.0|0.0|0.0|0.0|0.0|0.03|0.03|0.0|0.0|0.06|-33.284444444444446|-71.45361111111112|WGS84
Valparaíso|Valparaíso|Concón|2009-2010|FUERTE AGUAYO|2009-11-28|13:24|104.0|Sin alerta|No definido|Otras actividades|0.0|0.0|0.0|0.0|0.0|0.0|0.7|2.0|0.0|0.0|2.7|-32.96805555555556|-71.48777777777778|WGS84
Valparaíso|Valparaíso|Viña del Mar|2009-2010|SIETE HERMANAS|2009-11-28|17:43|60.0|Sin alerta|No definido|Actividades recreativas|0.0|0.0|0.0|0.0|0.0|0.0|0.05|0.08|0.0|0.0|0.13|-33.06638888888889|-71.51833333333333|WGS84
Valparaíso|San Antonio|San Antonio|2009-2010|FUNDO MIRAMAR|2009-11-28|17:15|135.0|Sin alerta|No definido|Tránsito de personasvehículos o aeronaves|0.1|0.0|0.0|0.0|0.0|0.0|0.2|3.2|0.0|0.0|3.5|-33.57|-71.60166666666667|WGS84
Valparaíso|San Antonio|Cartagena|2009-2010|CAMINO VIEJO|2009-11-28|18:25|95.0|Sin alerta|No definido|Tránsito de personasvehículos o aeronaves|0.0|0.0|0.0|0.03|0.0|0.0|0.02|0.15|0.0|0.0|0.2|-33.560833333333335|-71.60138888888889|WGS84
Valparaíso|Valparaíso|Valparaíso|2009-2010|CAMINO LAS DOCAS|2009-11-28|20:29|966.0|Sin alerta|No definido|Actividades recreativas|0.0|0.1|0.0|0.0|0.0|0.0|0.9|1.0|0.0|0.0|2.0|-33.1175|-71.67388888888888|WGS84
Valparaíso|Valparaíso|Valparaíso|2009-2010|FUNDO LAS CENIZAS|2009-11-29|15:17|37.0|Sin alerta|No definido|Incendios intencionales|0.0|0.0|0.0|0.0|0.0|0.0|0.0|0.01|0.0|0.0|0.01|-33.1025|-71.53416666666666|WGS84
Valparaíso|Valparaíso|Valparaíso|2009-2010|POBLACION LAS PALMAS|2009-11-29|16:27|31.0|Sin alerta|No definido|Tránsito de personasvehículos o aeronaves|0.0|0.0|0.0|0.0|0.0|0.0|0.0|0.01|0.0|0.0|0.01|-33.06583333333333|-71.56527777777778|WGS84
Valparaíso|San Antonio|San Antonio|2009-2010|LAS DUNAS|2009-11-29|16:56|49.0|Sin alerta|No definido|Incendios intencionales|0.0|0.0|0.0|0.0|0.0|0.0|0.0|0.04|0.0|0.0|0.04|-33.59722222222222|-71.59166666666667|WGS84
Valparaíso|San Antonio|Algarrobo|2009-2010|EL BOSQUE|2009-11-29|16:30|70.0|Sin alerta|No definido|Tránsito de personasvehículos o aeronaves|0.0|0.0|0.01|0.0|0.0|0.0|0.0|0.03|0.0|0.0|0.04|-33.399166666666666|-71.575|WGS84
Valparaíso|San Antonio|San Antonio|2009-2010|LAS DUNAS II|2009-11-29|16:56|49.0|Sin alerta|No definido|Incendios intencionales|0.0|0.0|0.0|0.0|0.0|0.0|0.0|0.35|0.0|0.0|0.35|-33.60583333333334|-71.60277777777777|WGS84
Valparaíso|Valparaíso|Valparaíso|2009-2010|LAS PALMAS II|2009-11-29|17:26|45.0|Sin alerta|No definido|Actividades recreativas|0.0|0.0|0.0|0.0|0.0|0.0|0.0|0.03|0.0|0.0|0.03|-33.06583333333333|-71.56527777777778|WGS84
Valparaíso|Valparaíso|Valparaíso|2009-2010|MONTEDONICO|2009-11-29|17:30|68.0|Sin alerta|No definido|Incendios intencionales|0.0|0.0|0.0|0.0|0.0|0.0|0.02|0.01|0.0|0.0|0.03|-33.064166666666665|-71.64027777777778|WGS84
Valparaíso|Valparaíso|Valparaíso|2009-2010|TIERRAS ROJAS|2009-11-29|18:25|46.0|Sin alerta|No definido|Accidentes eléctricos|0.0|0.0|0.0|0.0|0.0|0.0|0.01|0.01|0.0|0.0|0.02|-33.06527777777778|-71.58666666666667|WGS84
Valparaíso|Marga Marga|Limache|2009-2010|LOS LAURELES|2009-11-29|19:39|889.0|Sin alerta|No definido|No definida|0.0|0.0|0.0|0.0|0.0|0.0|5.0|0.0|0.0|0.0|5.0|-32.98972222222222|-71.29555555555555|WGS84
Valparaíso|Marga Marga|Villa Alemana|2009-2010|LOS ARRAYANES|2009-11-29|21:54|64.0|Sin alerta|No definido|Incendios intencionales|0.0|0.0|0.0|0.0|0.0|0.5|0.5|1.0|0.0|0.0|2.0|-33.060833333333335|-71.35111111111111|WGS84
Valparaíso|Marga Marga|Quilpué|2009-2010|POMPEYA  SUR|2009-11-30|06:10|432.0|Sin alerta|No definido|Incendios intencionales|0.0|0.0|0.0|0.0|0.0|1.0|1.62|5.0|0.0|0.0|7.62|-33.05861111111111|-71.46888888888888|WGS84
Valparaíso|Marga Marga|Quilpué|2009-2010|LOS COLONOS|2009-11-30|13:23|313.0|Sin alerta|No definido|Actividades recreativas|0.0|0.0|0.0|0.1|0.0|0.0|0.15|0.2|0.0|0.0|0.45|-33.041666666666664|-71.41472222222222|WGS84
Valparaíso|Marga Marga|Quilpué|2009-2010|LOS COLONOS II|2009-11-30|13:35|321.0|Sin alerta|No definido|Actividades recreativas|0.0|0.0|0.0|380.0|0.0|0.0|30.0|20.0|0.0|0.0|430.0|-33.04194444444445|-71.40416666666667|WGS84
Valparaíso|Valparaíso|Valparaíso|2009-2010|POBLACION LAS PALMAS|2009-11-30|14:59|106.0|Sin alerta|No definido|Actividades recreativas|0.0|0.0|0.0|0.0|0.0|0.0|0.03|0.07|0.0|0.0|0.1|-33.056666666666665|-71.565|WGS84
Valparaíso|Valparaíso|Casablanca|2009-2010|LA PLAYA|2009-11-30|15:24|1261.0|Sin alerta|No definido|Actividades recreativas|0.0|0.0|0.0|0.0|0.0|1.0|2.0|2.0|0.0|0.0|5.0|-33.23916666666667|-71.46305555555556|WGS84
Valparaíso|Marga Marga|Quilpué|2009-2010|VILLA EL MIRADOR|2009-11-30|15:18|42.0|Sin alerta|No definido|Actividades recreativas|0.0|0.0|0.0|0.0|0.0|0.0|0.02|0.03|0.0|0.0|0.05|-33.05916666666667|-71.43666666666667|WGS84
Valparaíso|Valparaíso|Viña del Mar|2009-2010|QUINTA VERGARA|2009-11-30|16:06|285.0|Sin alerta|IFIUr-Fo|No definida|0.0|0.0|0.1|0.45|0.0|0.0|0.5|0.45|0.0|0.0|1.5|-33.03861111111111|-71.56444444444445|WGS84
Valparaíso|San Antonio|San Antonio|2009-2010|EL ÑANCO|2009-11-30|15:45|140.0|Sin alerta|No definido|Tránsito de personasvehículos o aeronaves|0.0|0.0|0.0|0.2|0.0|0.0|0.0|1.0|0.0|0.0|1.2|-33.6525|-71.5286111111111|WGS84
Valparaíso|San Antonio|San Antonio|2009-2010|EL SAUCE|2009-11-30|16:20|40.0|Sin alerta|No definido|Accidentes eléctricos|0.0|0.0|0.0|0.0|0.0|0.0|0.0|0.05|0.0|0.0|0.05|-33.58055555555556|-71.51583333333333|WGS84
Valparaíso|San Antonio|San Antonio|2009-2010|VISTA HERMOSA|2009-11-30|18:30|93.0|Sin alerta|No definido|Incendios intencionales|0.0|0.0|0.0|0.3|0.0|0.0|0.0|0.4|0.0|0.0|0.7|-33.560833333333335|-71.60138888888889|WGS84
Valparaíso|Marga Marga|Quilpué|2009-2010|POMPEYA SUR II|2009-11-30|18:38|87.0|Sin alerta|No definido|Actividades recreativas|0.0|0.0|0.0|0.0|0.0|0.0|0.0|0.05|0.0|0.0|0.05|-33.0675|-71.47972222222222|WGS84
Valparaíso|Marga Marga|Quilpué|2009-2010|POMPEYA SUR|2009-12-01|13:45|140.0|Sin alerta|No definido|Actividades recreativas|0.0|0.0|0.0|0.0|0.0|0.1|0.04|0.06|0.0|0.0|0.2|-33.05861111111111|-71.46888888888888|WGS84
Valparaíso|Marga Marga|Villa Alemana|2009-2010|COPA WILSON|2009-12-01|16:05|128.0|Sin alerta|No definido|Actividades recreativas|0.0|0.0|0.0|0.0|0.0|0.0|0.3|0.7|0.0|0.0|1.0|-33.05111111111111|-71.39361111111111|WGS84
Valparaíso|Valparaíso|Valparaíso|2009-2010|CERRO MOLINO|2009-12-01|16:40|77.0|Sin alerta|No definido|Actividades recreativas|0.0|0.0|0.0|0.0|0.0|0.0|0.3|0.5|0.0|0.0|0.8|-33.056111111111115|-71.59722222222223|WGS84
Valparaíso|Marga Marga|Quilpué|2009-2010|BELLOTO NORTE|2009-12-01|16:35|105.0|Sin alerta|No definido|Actividades recreativas|0.0|0.0|0.0|0.0|0.0|0.0|0.7|0.3|0.0|0.0|1.0|-33.03305555555556|-71.39305555555555|WGS84
Valparaíso|San Antonio|Santo Domingo|2009-2010|EL CARMEN|2009-12-02|10:25|424.0|Sin alerta|No definido|Confección y/o extracción productos secundarios del bosque|0.0|0.0|0.0|0.0|0.0|1.2|2.3|0.7|0.0|0.0|4.2|-33.8375|-71.7286111111111|WGS84
Valparaíso|Valparaíso|Viña del Mar|2009-2010|JARDIN BOTANICO|2009-12-02|13:22|61.0|Sin alerta|No definido|Actividades recreativas|0.0|0.0|0.0|0.0|0.0|0.0|0.0|0.01|0.0|0.0|0.01|-33.04888888888889|-71.50055555555555|WGS84
Valparaíso|San Antonio|Cartagena|2009-2010|CAPELLANIA|2009-12-02|13:10|37.0|Sin alerta|No definido|Actividades recreativas|0.0|0.0|0.0|0.0|0.0|0.0|0.0|0.06|0.0|0.0|0.06|-33.54361111111111|-71.56861111111111|WGS84
Valparaíso|Petorca|La Ligua|2009-2010|QUINQUIMO|2009-12-02|13:55|70.0|Sin alerta|No definido|Tránsito de personasvehículos o aeronaves|0.0|0.0|0.0|0.0|0.0|0.0|0.05|0.05|0.0|0.0|0.1|-32.43972222222222|-71.30277777777778|WGS84
Valparaíso|San Antonio|San Antonio|2009-2010|CERRO LA VIRGEN|2009-12-02|12:58|89.0|Sin alerta|No definido|Actividades recreativas|0.0|0.0|0.0|0.0|0.0|0.0|0.0|0.01|0.0|0.0|0.01|-33.569722222222225|-71.6125|WGS84
Valparaíso|San Antonio|San Antonio|2009-2010|PATAGUILLA|2009-12-02|14:20|134.0|Sin alerta|No definido|Faenas forestales|0.0|0.0|0.0|0.4|0.0|0.0|0.1|1.0|0.0|0.0|1.5|-33.64305555555556|-71.55|WGS84
Valparaíso|San Antonio|San Antonio|2009-2010|AUTODROMO SAN JUAN|2009-12-02|15:20|199.0|Sin alerta|No definido|Tránsito de personasvehículos o aeronaves|0.0|0.0|0.0|0.1|0.0|0.0|0.0|0.5|0.0|0.0|0.6|-33.651944444444446|-71.56111111111112|WGS84
Valparaíso|Valparaíso|Viña del Mar|2009-2010|JARDIN BOTANICO|2009-12-02|15:58|6.0|Sin alerta|No definido|Actividades recreativas|0.0|0.0|0.0|0.0|0.0|1.8|0.5|0.5|0.0|0.0|2.8|-33.04|-71.50027777777778|WGS84
Valparaíso|Valparaíso|Viña del Mar|2009-2010|RECREO|2009-12-02|15:57|231.0|Sin alerta|No definido|Actividades recreativas|0.0|0.0|0.0|0.0|0.0|0.0|1.0|3.5|0.0|0.0|4.5|-33.03861111111111|-71.56444444444445|WGS84
Valparaíso|Marga Marga|Quilpué|2009-2010|POMPEYA SUR|2009-12-02|17:10|195.0|Sin alerta|No definido|Actividades recreativas|0.0|0.0|0.0|0.0|0.0|1.0|1.0|2.0|0.0|0.0|4.0|-33.0675|-71.47972222222222|WGS84
Valparaíso|Marga Marga|Limache|2009-2010|LLIU LLIU|2009-12-02|19:01|1141.0|Sin alerta|No definido|Tránsito de personasvehículos o aeronaves|0.0|0.0|0.0|1.0|0.0|0.5|1.5|2.0|0.0|0.0|5.0|-33.04555555555555|-71.20083333333334|WGS84
Valparaíso|Valparaíso|Valparaíso|2009-2010|CERRO BELLAVISTA|2009-12-02|20:13|1037.0|Sin alerta|No definido|Actividades recreativas|0.0|0.0|0.0|2.5|0.0|0.6|0.5|0.0|0.0|0.0|3.6|-33.07333333333333|-71.62972222222223|WGS84
Valparaíso|Valparaíso|Concón|2009-2010|LAS GAVIOTAS|2009-12-03|15:38|145.0|Sin alerta|No definido|Actividades recreativas|0.0|0.0|0.0|0.6|0.0|0.0|0.5|0.5|0.0|0.0|1.6|-32.95027777777778|-71.47638888888889|WGS84
Valparaíso|Marga Marga|Villa Alemana|2009-2010|HIPODROMO|2009-12-03|16:17|62.0|Sin alerta|No definido|Tránsito de personasvehículos o aeronaves|0.0|0.0|0.0|0.0|0.0|0.0|0.0|0.1|0.0|0.0|0.1|-33.060833333333335|-71.35111111111111|WGS84
Valparaíso|Marga Marga|Villa Alemana|2009-2010|POBLACION PRAT|2009-12-03|16:13|57.0|Sin alerta|No definido|Tránsito de personasvehículos o aeronaves|0.0|0.0|0.0|0.0|0.0|0.0|0.1|0.3|0.0|0.0|0.4|-33.07861111111111|-71.37305555555555|WGS84
Valparaíso|Marga Marga|Villa Alemana|2009-2010|COPA WILSON|2009-12-03|17:15|51.0|Sin alerta|No definido|Actividades recreativas|0.0|0.0|0.0|0.02|0.0|0.0|0.03|0.05|0.0|0.0|0.1|-33.043055555555554|-71.34|WGS84
Valparaíso|Marga Marga|Quilpué|2009-2010|POMPEYA NORTE|2009-12-03|17:17|164.0|Sin alerta|No definido|Actividades recreativas|0.0|0.0|0.0|0.0|0.0|0.0|0.2|0.4|0.0|0.0|0.6000000000000001|-33.04972222222222|-71.46861111111112|WGS84
Valparaíso|Valparaíso|Valparaíso|2009-2010|VILLA FUNDADORES|2009-12-03|18:02|77.0|Sin alerta|No definido|Incendios intencionales|0.0|0.0|0.0|0.0|0.0|0.0|0.0|0.0|0.0|0.3|0.3|-33.12888888888889|-71.56722222222223|WGS84
Valparaíso|Valparaíso|Casablanca|2009-2010|FUNDO EL PRINCIPAL|2009-12-04|13:59|81.0|Sin alerta|No definido|Quema de desechos|0.0|0.0|0.0|0.0|0.0|0.0|0.06|0.12|0.0|0.0|0.18|-33.2325|-71.33416666666666|WGS84
Valparaíso|San Antonio|Algarrobo|2009-2010|LOS PINARES|2009-12-05|11:10|147.0|Sin alerta|No definido|Tránsito de personasvehículos o aeronaves|0.0|0.0|0.1|0.0|0.0|0.0|0.0|0.3|0.0|0.0|0.4|-33.38861111111111|-71.65|WGS84
Valparaíso|San Antonio|Santo Domingo|2009-2010|HUERTOS DE CHILE|2009-12-05|11:50|45.0|Sin alerta|No definido|Tránsito de personasvehículos o aeronaves|0.0|0.0|0.0|0.0|0.0|0.0|0.0|0.03|0.0|0.0|0.03|-33.65083333333333|-71.615|WGS84
Valparaíso|Valparaíso|Valparaíso|2009-2010|PARQUE QUINTIL|2009-12-05|15:13|157.0|Sin alerta|No definido|Tránsito de personasvehículos o aeronaves|0.0|0.0|0.0|0.1|0.0|0.5|1.0|0.9|0.0|0.0|2.5|-33.05638888888889|-71.58638888888889|WGS84
Valparaíso|Marga Marga|Villa Alemana|2009-2010|TRANQUE RECREO|2009-12-05|15:41|1104.0|Sin alerta|No definido|Tránsito de personasvehículos o aeronaves|0.0|0.0|0.0|0.05|0.0|1.0|5.0|0.45|0.0|0.0|6.5|-33.07861111111111|-71.37305555555555|WGS84
Valparaíso|Quillota|Hijuelas|2009-2010|OASIS LA CAMPANA|2009-12-05|16:45|115.0|Sin alerta|No definido|Actividades recreativas|0.0|0.0|0.0|0.0|0.0|5.0|7.0|4.0|0.0|0.0|16.0|-32.93083333333333|-71.05888888888889|WGS84
Valparaíso|Petorca|La Ligua|2009-2010|VILLA FERTIL|2009-12-05|16:10|105.0|Sin alerta|No definido|Actividades recreativas|0.0|0.0|0.0|0.0|0.0|0.0|0.6|1.4|0.0|0.0|2.0|-32.45666666666666|-71.24|WGS84
Valparaíso|Marga Marga|Quilpué|2009-2010|ALTO EL YUGO|2009-12-06|16:23|76.0|Sin alerta|No definido|Tránsito de personasvehículos o aeronaves|0.0|0.0|0.0|0.0|0.0|0.0|0.1|0.1|0.0|0.0|0.2|-33.07805555555556|-71.39444444444445|WGS84
Valparaíso|Marga Marga|Limache|2009-2010|CUESTA EL PANGAL|2009-12-06|17:17|115.0|Sin alerta|No definido|Tránsito de personasvehículos o aeronaves|0.0|0.0|0.0|0.0|0.0|0.0|0.05|0.05|0.0|0.0|0.1|-33.035|-71.28611111111111|WGS84
Valparaíso|Valparaíso|Casablanca|2009-2010|LO OROZCO|2009-12-07|12:35|68.0|Sin alerta|No definido|Tránsito de personasvehículos o aeronaves|0.0|0.0|0.0|0.0|0.0|0.0|0.03|0.15|0.0|0.0|0.18|-33.23111111111111|-71.40916666666666|WGS84
Valparaíso|Marga Marga|Quilpué|2009-2010|LOS QUILLAYES|2009-12-07|13:41|132.0|Sin alerta|No definido|Tránsito de personasvehículos o aeronaves|0.0|0.0|0.0|0.0|0.0|0.1|0.5|0.2|0.0|0.0|0.8|-33.17777777777778|-71.365|WGS84
Valparaíso|San Antonio|San Antonio|2009-2010|CERRO LA VIRGEN|2009-12-07|13:10|110.0|Sin alerta|No definido|Tránsito de personasvehículos o aeronaves|0.0|0.0|0.0|0.0|0.0|0.0|0.0|2.2|0.0|0.0|2.2|-33.56944444444444|-71.62333333333333|WGS84
Valparaíso|Marga Marga|Quilpué|2009-2010|LO MOLLES|2009-12-07|14:26|185.0|Sin alerta|No definido|Tránsito de personasvehículos o aeronaves|0.0|0.0|0.0|0.0|0.0|0.9|2.5|1.5|0.0|0.0|4.9|-33.12388888888889|-71.36333333333333|WGS84
Valparaíso|Valparaíso|Valparaíso|2009-2010|LAGUNA VERDE|2009-12-07|14:30|71.0|Sin alerta|No definido|Tránsito de personasvehículos o aeronaves|0.0|0.0|0.0|0.0|0.0|0.0|0.0|0.0|0.0|0.01|0.01|-33.09916666666667|-71.68416666666667|WGS84
Valparaíso|Marga Marga|Quilpué|2009-2010|VILLA CUMING|2009-12-07|14:40|110.0|Sin alerta|No definido|Actividades recreativas|0.0|0.0|0.0|0.0|0.0|0.0|1.0|1.0|0.0|0.0|2.0|-33.05916666666667|-71.4475|WGS84
Valparaíso|San Antonio|San Antonio|2009-2010|FUNDO DE LLO LLEO|2009-12-07|15:00|72.0|Sin alerta|No definido|Tránsito de personasvehículos o aeronaves|0.0|0.0|0.0|0.11|0.0|0.0|0.0|0.0|0.0|0.0|0.11|-33.60611111111111|-71.59194444444445|WGS84
Valparaíso|San Antonio|San Antonio|2009-2010|VISTA HERMOSA|2009-12-07|15:25|81.0|Sin alerta|No definido|Actividades recreativas|0.0|0.0|0.0|0.05|0.0|0.0|0.0|0.1|0.0|0.0|0.15|-33.560833333333335|-71.60138888888889|WGS84
Valparaíso|Valparaíso|Valparaíso|2009-2010|POBLACION EMERGENCIA|2009-12-07|16:40|52.0|Sin alerta|No definido|Tránsito de personasvehículos o aeronaves|0.0|0.0|0.0|0.0|0.0|0.0|0.03|0.03|0.0|0.0|0.06|-33.12|-71.55611111111111|WGS84
Valparaíso|San Antonio|San Antonio|2009-2010|FUNDO LA MARQUEZA|2009-12-07|16:05|128.0|Sin alerta|No definido|Otras actividades|0.0|0.0|0.0|0.0|0.0|0.0|0.03|0.4|0.0|0.0|0.43|-33.628055555555555|-71.39861111111111|WGS84
Valparaíso|Valparaíso|Viña del Mar|2009-2010|MIRADOR DE REÑACA|2009-12-07|16:58|129.0|Sin alerta|No definido|Tránsito de personasvehículos o aeronaves|0.0|0.0|0.0|0.3|0.0|0.0|0.5|0.5|0.0|0.0|1.3|-32.995|-71.49916666666667|WGS84
Valparaíso|Valparaíso|Valparaíso|2009-2010|PARQUE INDUSTRIAL CURAUMA|2009-12-07|17:30|50.0|Sin alerta|No definido|Tránsito de personasvehículos o aeronaves|0.0|0.0|0.0|0.0|0.0|0.0|0.02|0.03|0.0|0.0|0.05|-33.12027777777778|-71.54555555555555|WGS84
Valparaíso|San Antonio|San Antonio|2009-2010|BELLAVISTA|2009-12-07|18:15|77.0|Sin alerta|No definido|Tránsito de personasvehículos o aeronaves|0.0|0.0|0.0|0.02|0.0|0.0|0.0|0.42|0.0|0.0|0.44|-33.569722222222225|-71.6125|WGS84
Valparaíso|San Antonio|Santo Domingo|2009-2010|LA MANGA|2009-12-08|12:25|125.0|Sin alerta|No definido|Accidentes eléctricos|0.0|0.0|0.0|0.01|0.0|0.0|0.0|0.04|0.0|0.0|0.05|-33.875|-71.665|WGS84
Valparaíso|San Antonio|Algarrobo|2009-2010|SAN JOSÉ|2009-12-08|12:30|110.0|Sin alerta|No definido|Tránsito de personasvehículos o aeronaves|0.0|0.0|0.0|0.04|0.0|0.0|0.0|0.4|0.0|0.0|0.44|-33.31722222222222|-71.61555555555556|WGS84
Valparaíso|Valparaíso|Casablanca|2009-2010|SANTUARIO LO VASQUEZ|2009-12-08|12:30|70.0|Sin alerta|No definido|Tránsito de personasvehículos o aeronaves|0.0|0.0|0.0|0.0|0.0|0.0|0.1|0.13|0.0|0.0|0.23|-33.2575|-71.44222222222223|WGS84
Valparaíso|San Antonio|San Antonio|2009-2010|SAN ANTONIO DE LAS BODEGAS|2009-12-08|15:08|51.0|Sin alerta|No definido|Tránsito de personasvehículos o aeronaves|0.0|0.0|0.0|0.0|0.0|0.0|0.0|0.01|0.0|0.0|0.01|-33.560833333333335|-71.60138888888889|WGS84
Valparaíso|San Antonio|San Antonio|2009-2010|CERRO EL CRISTO|2009-12-08|15:30|106.0|Sin alerta|No definido|Incendios intencionales|0.0|0.0|0.0|0.0|0.0|0.0|0.0|12.4|0.0|0.0|12.4|-33.62444444444444|-71.58194444444445|WGS84
Valparaíso|Valparaíso|Valparaíso|2009-2010|PEZOA VELIZ|2009-12-08|15:55|112.0|Sin alerta|No definido|Tránsito de personasvehículos o aeronaves|0.0|0.0|0.0|0.0|0.0|0.0|0.3|0.5|0.0|0.0|0.8|-33.055277777777775|-71.64|WGS84
Valparaíso|Marga Marga|Limache|2009-2010|SAN ALFONSO|2009-12-08|16:37|1257.0|Sin alerta|No definido|Tránsito de personasvehículos o aeronaves|0.0|0.0|0.0|0.77|0.0|3.0|20.0|50.0|0.0|0.0|73.77|-33.035555555555554|-71.25416666666666|WGS84
Valparaíso|Valparaíso|Viña del Mar|2009-2010|REÑACA ALTO|2009-12-08|16:20|115.0|Sin alerta|No definido|No definida|0.0|0.0|0.0|0.0|0.0|0.0|0.18|1.0|0.0|0.0|1.18|-33.00472222222222|-71.46722222222222|WGS84
Valparaíso|San Antonio|San Antonio|2009-2010|VISTA HERMOSA|2009-12-08|16:50|87.0|Sin alerta|No definido|Tránsito de personasvehículos o aeronaves|0.0|0.0|0.0|0.05|0.0|0.0|0.0|0.8|0.0|0.0|0.8500000000000001|-33.56055555555555|-71.61222222222223|WGS84
Valparaíso|San Antonio|San Antonio|2009-2010|CERRO LA VIRGEN|2009-12-08|16:40|110.0|Sin alerta|No definido|Actividades recreativas|0.0|0.0|0.0|0.0|0.0|0.0|0.0|0.26|0.0|0.0|0.26|-33.56944444444444|-71.62333333333333|WGS84
Valparaíso|Petorca|La Ligua|2009-2010|LAS  CHACARILLAS|2009-12-08|12:40|295.0|Sin alerta|No definido|Tránsito de personasvehículos o aeronaves|0.0|0.0|0.0|0.0|0.0|0.0|6.0|12.0|0.0|0.0|18.0|-32.449444444444445|-71.26055555555556|WGS84
Valparaíso|San Antonio|San Antonio|2009-2010|FUNDO MIRAMAR|2009-12-08|17:40|77.0|Sin alerta|No definido|Incendios intencionales|0.0|0.0|0.0|0.0|0.0|0.0|0.0|0.63|0.0|0.0|0.63|-33.58805555555556|-71.59138888888889|WGS84
Valparaíso|San Antonio|San Antonio|2009-2010|FUNDO DE LLO LLEO|2009-12-08|18:05|70.0|Sin alerta|No definido|Tránsito de personasvehículos o aeronaves|0.0|0.0|0.0|0.0|0.0|0.0|0.0|0.05|0.0|0.0|0.05|-33.60611111111111|-71.59194444444445|WGS84
Valparaíso|Marga Marga|Limache|2009-2010|LOS LAURELES|2009-12-08|18:05|109.0|Sin alerta|No definido|Tránsito de personasvehículos o aeronaves|0.0|0.0|0.0|0.7|0.0|0.0|1.0|2.0|0.0|0.0|3.7|-32.98972222222222|-71.29555555555555|WGS84
Valparaíso|Valparaíso|Valparaíso|2009-2010|R.N.L.P|2009-12-09|11:40|67.0|Sin alerta|No definido|Tránsito de personasvehículos o aeronaves|0.0|0.0|0.0|0.0|0.0|0.0|0.0|0.0|0.0|0.07|0.07|-33.15611111111111|-71.55722222222222|WGS84
Valparaíso|San Antonio|El Tabo|2009-2010|FUNDO CAPELLANIA|2009-12-09|13:00|170.0|Sin alerta|No definido|Tránsito de personasvehículos o aeronaves|0.0|0.0|0.13|0.0|0.0|0.0|0.0|0.0|0.0|0.0|0.13|-33.44277777777778|-71.64083333333333|WGS84
Valparaíso|Petorca|Zapallar|2009-2010|TIERRAS BLANCAS|2009-12-09|15:00|193.0|Sin alerta|No definido|Tránsito de personasvehículos o aeronaves|0.0|0.0|0.0|0.0|0.0|5.0|6.0|5.0|0.0|0.0|16.0|-32.62111111111111|-71.24361111111111|WGS84
Valparaíso|Valparaíso|Valparaíso|2009-2010|CHAPARRO|2009-12-09|17:01|128.0|Sin alerta|No definido|Actividades recreativas|0.0|0.0|0.0|0.0|0.0|0.0|0.3|0.1|0.0|0.0|0.4|-33.055277777777775|-71.64|WGS84
Valparaíso|Marga Marga|Villa Alemana|2009-2010|PUYARAL|2009-12-09|17:07|63.0|Sin alerta|No definido|Tránsito de personasvehículos o aeronaves|0.0|0.0|0.0|0.0|0.0|0.0|1.0|1.0|0.0|0.0|2.0|-33.06916666666667|-71.39416666666666|WGS84
Valparaíso|Marga Marga|Quilpué|2009-2010|HACIENDA LAS PALMAS|2009-12-09|18:53|67.0|Sin alerta|No definido|Tránsito de personasvehículos o aeronaves|0.0|0.0|0.0|0.0|0.0|0.0|0.0|0.05|0.0|0.0|0.05|-33.09583333333333|-71.40555555555555|WGS84
Valparaíso|Valparaíso|Viña del Mar|2009-2010|LAJARILLA|2009-12-10|16:37|129.0|Sin alerta|No definido|Actividades recreativas|0.0|0.0|0.0|0.0|0.0|0.0|1.0|1.0|0.0|0.0|2.0|-32.986111111111114|-71.48805555555556|WGS84
Valparaíso|Valparaíso|Viña del Mar|2009-2010|CANAL BEAGLE|2009-12-10|17:05|57.0|Sin alerta|No definido|Incendios intencionales|0.0|0.0|0.0|0.0|0.0|0.0|0.01|0.02|0.0|0.0|0.03|-33.039722222222224|-71.5111111111111|WGS84
Valparaíso|San Antonio|El Tabo|2009-2010|EL TABO|2009-12-10|17:00|60.0|Sin alerta|No definido|Actividades recreativas|0.0|0.0|0.0|0.0|0.0|0.0|0.0|0.01|0.0|0.0|0.01|-33.44277777777778|-71.64083333333333|WGS84
Valparaíso|San Antonio|San Antonio|2009-2010|GRANJA LEYDA|2009-12-11|14:45|55.0|Sin alerta|No definido|Accidentes eléctricos|0.0|0.0|0.0|0.0|0.0|0.0|0.0|0.01|0.0|0.0|0.01|-33.6275|-71.43111111111111|WGS84
Valparaíso|Valparaíso|Viña del Mar|2009-2010|EL OLIVAR|2009-12-11|15:17|54.0|Sin alerta|No definido|Actividades recreativas|0.0|0.0|0.0|0.0|0.0|0.0|0.02|0.06|0.0|0.0|0.08|-33.03111111111111|-71.48944444444444|WGS84
Valparaíso|Valparaíso|Valparaíso|2009-2010|LOMAS NEGRAS|2009-12-12|10:22|105.0|Sin alerta|No definido|Incendios intencionales|0.0|0.0|0.0|0.0|0.0|0.0|0.03|0.02|0.0|0.0|0.05|-33.111111111111114|-71.55583333333334|WGS84
Valparaíso|Valparaíso|Casablanca|2009-2010|TRANQUE OROZCO|2009-12-12|15:08|216.0|Sin alerta|IFor-Vn|No definida|0.0|0.0|0.0|0.0|0.0|0.0|0.9|3.0|0.0|0.0|3.9|-33.23111111111111|-71.40916666666666|WGS84
Valparaíso|Marga Marga|Quilpué|2009-2010|QUILLAYES   COLLIGUAY|2009-12-12|15:37|73.0|Sin alerta|No definido|Tránsito de personasvehículos o aeronaves|0.0|0.0|0.0|0.0|0.0|0.0|0.04|0.06|0.0|0.0|0.1|-33.16916666666667|-71.35388888888889|WGS84
Valparaíso|Valparaíso|Valparaíso|2009-2010|POBLACION BASICA|2009-12-12|16:25|76.0|Sin alerta|No definido|Actividades recreativas|0.0|0.0|0.0|0.0|0.0|0.0|0.1|0.1|0.0|0.0|0.2|-33.06583333333333|-71.56527777777778|WGS84
Valparaíso|Valparaíso|Valparaíso|2009-2010|RAMADITAS|2009-12-12|17:58|112.0|Sin alerta|No definido|Actividades recreativas|0.0|0.0|0.0|0.0|0.0|0.0|0.4|0.8|0.0|0.0|1.2000000000000002|-33.07416666666666|-71.59777777777778|WGS84
Valparaíso|Marga Marga|Villa Alemana|2009-2010|POBLACION WILSON|2009-12-12|18:07|118.0|Sin alerta|No definido|Actividades recreativas|0.0|0.0|0.0|0.5|0.0|0.0|0.5|0.7|0.0|0.0|1.7|-33.043055555555554|-71.34|WGS84
Valparaíso|San Antonio|San Antonio|2009-2010|VISTA HERMOSA|2009-12-12|17:01|239.0|Sin alerta|No definido|Incendios intencionales|0.0|0.0|0.0|0.3|0.0|0.0|0.1|0.5|0.0|0.0|0.9|-33.569722222222225|-71.6125|WGS84
Valparaíso|Valparaíso|Valparaíso|2009-2010|LOMAS DE RODELILLO|2009-12-12|19:09|38.0|Sin alerta|No definido|Actividades recreativas|0.0|0.0|0.0|0.0|0.0|0.0|0.0|0.01|0.0|0.0|0.01|-33.06583333333333|-71.56527777777778|WGS84
Valparaíso|San Antonio|San Antonio|2009-2010|FUNDO MIRAMAR|2009-12-12|18:00|152.0|Sin alerta|No definido|Incendios intencionales|0.0|0.0|0.0|1.0|0.0|0.0|0.0|2.4|0.0|0.0|3.4|-33.58833333333333|-71.58083333333333|WGS84
Valparaíso|San Antonio|San Antonio|2009-2010|MILTIL SUR|2009-12-13|08:45|85.0|Sin alerta|No definido|Tránsito de personasvehículos o aeronaves|0.0|0.0|0.0|0.0|0.0|0.0|0.0|0.4|0.0|0.0|0.4|-33.58111111111111|-71.49444444444444|WGS84
Valparaíso|San Antonio|San Antonio|2009-2010|BAQUEDANO 2|2009-12-13|11:40|16.0|Sin alerta|No definido|Actividades recreativas|0.0|0.0|0.0|0.0|0.0|0.0|0.0|0.01|0.0|0.0|0.01|-33.615|-71.60305555555556|WGS84
Valparaíso|Valparaíso|Puchuncavi|2009-2010|QUIRIYUCA|2009-12-13|11:03|227.0|Sin alerta|No definido|No definida|80.0|0.0|0.0|100.0|0.0|0.0|95.0|93.5|3.5|0.0|372.0|-32.70777777777778|-71.42694444444444|WGS84
Valparaíso|Marga Marga|Villa Alemana|2009-2010|POBLACION WILSON|2009-12-13|13:28|269.0|Sin alerta|No definido|Actividades recreativas|0.0|0.0|0.0|10.0|0.0|10.0|30.0|70.0|0.0|0.0|120.0|-33.043055555555554|-71.34|WGS84
Valparaíso|San Antonio|San Antonio|2009-2010|VISTA HERMOSA|2009-12-13|12:00|235.0|Sin alerta|No definido|Actividades recreativas|0.0|0.0|0.0|0.9|0.0|0.0|0.0|2.0|0.0|0.0|2.9|-33.569722222222225|-71.6125|WGS84
Valparaíso|Valparaíso|Valparaíso|2009-2010|MONTEDONICO|2009-12-13|16:02|141.0|Sin alerta|No definido|Tránsito de personasvehículos o aeronaves|0.0|0.0|0.0|0.0|0.0|0.0|1.0|1.0|0.0|0.0|2.0|-33.064166666666665|-71.64027777777778|WGS84
Valparaíso|San Antonio|Algarrobo|2009-2010|ALGARROBO|2009-12-13|18:05|155.0|Sin alerta|No definido|Actividades recreativas|0.0|0.0|0.0|0.0|0.0|0.0|0.1|0.13|0.0|0.0|0.23|-33.37027777777778|-71.66027777777778|WGS84
Valparaíso|San Antonio|Algarrobo|2009-2010|ALGARROBO 2|2009-12-13|19:25|35.0|Sin alerta|No definido|Actividades recreativas|0.0|0.0|0.0|0.0|0.0|0.0|0.0|0.06|0.0|0.0|0.06|-33.370555555555555|-71.64944444444444|WGS84
Valparaíso|Valparaíso|Valparaíso|2009-2010|PARCELA MAIPO|2009-12-13|18:45|112.0|Sin alerta|No definido|Tránsito de personasvehículos o aeronaves|0.0|0.0|0.0|0.5|0.0|0.0|0.0|0.0|0.0|0.0|0.5|-33.073055555555555|-71.64055555555555|WGS84
Valparaíso|Marga Marga|Olmué|2009-2010|EL MAQUI|2009-12-13|16:00|146.0|Sin alerta|No definido|Tránsito de personasvehículos o aeronaves|0.0|0.0|0.0|0.0|0.0|0.0|2.7|5.0|0.0|0.0|7.7|-33.06527777777778|-71.10472222222222|WGS84
Valparaíso|Los Andes|Calle Larga|2009-2010|CALLE  LARGA|2009-12-13|14:35|285.0|Sin alerta|No definido|Incendios intencionales|0.0|0.0|0.0|0.0|0.0|0.0|10.0|30.0|0.0|0.0|40.0|-32.89138888888889|-70.67305555555555|WGS84
Valparaíso|Valparaíso|Concón|2009-2010|VILLA PRIMAVERA|2009-12-14|11:41|242.0|Sin alerta|No definido|Tránsito de personasvehículos o aeronaves|0.0|0.0|0.16|0.15|0.0|0.0|0.1|0.25|0.0|0.0|0.66|-32.940555555555555|-71.5188888888889|WGS84
Valparaíso|Valparaíso|Valparaíso|2009-2010|REGIMIENTO MAIPO|2009-12-14|13:13|323.0|Sin alerta|No definido|Tránsito de personasvehículos o aeronaves|0.0|0.0|0.0|0.02|0.0|0.0|0.0|0.03|0.0|0.0|0.05|-33.073055555555555|-71.64055555555555|WGS84
Valparaíso|San Antonio|San Antonio|2009-2010|TRANQUE SAN JUAN|2009-12-14|15:02|153.0|Sin alerta|No definido|Tránsito de personasvehículos o aeronaves|0.0|0.0|0.0|0.4|0.0|0.0|0.0|0.0|0.0|0.0|0.4|-33.634166666666665|-71.53888888888889|WGS84
Valparaíso|Marga Marga|Limache|2009-2010|LIMACHITO|2009-12-14|15:44|1291.0|Sin alerta|No definido|Tránsito de personasvehículos o aeronaves|0.0|0.0|0.0|0.0|0.0|15.0|50.0|49.0|0.0|0.0|114.0|-33.035|-71.29694444444445|WGS84
Valparaíso|Petorca|La Ligua|2009-2010|SANTA MARTA|2009-12-14|14:00|110.0|Sin alerta|No definido|Tránsito de personasvehículos o aeronaves|0.0|0.0|0.0|0.0|0.0|0.0|0.02|0.01|0.0|0.0|0.03|-32.32472222222222|-71.1725|WGS84
Valparaíso|Marga Marga|Villa Alemana|2009-2010|POBLACION WILSON PARADERO 3|2009-12-14|15:59|32.0|Sin alerta|No definido|Actividades recreativas|0.0|0.0|0.0|0.0|0.0|0.0|0.0|0.05|0.0|0.0|0.05|-33.04277777777778|-71.35055555555556|WGS84
Valparaíso|Marga Marga|Villa Alemana|2009-2010|COPA WILSON|2009-12-14|16:30|101.0|Sin alerta|No definido|Actividades recreativas|0.0|0.0|0.0|0.0|0.0|0.0|0.01|0.03|0.0|0.0|0.04|-33.043055555555554|-71.34|WGS84
Valparaíso|San Antonio|San Antonio|2009-2010|VISTA HERMOSA|2009-12-14|16:20|69.0|Sin alerta|No definido|Incendios intencionales|0.0|0.0|0.0|0.0|0.0|0.0|0.0|0.09|0.0|0.0|0.09|-33.55138888888889|-71.62277777777778|WGS84
Valparaíso|San Antonio|San Antonio|2009-2010|VISTA HERMOSA II|2009-12-14|17:25|40.0|Sin alerta|No definido|Incendios intencionales|0.0|0.0|0.0|0.0|0.0|0.0|0.0|0.3|0.0|0.0|0.3|-33.56055555555555|-71.61222222222223|WGS84
Valparaíso|Valparaíso|Viña del Mar|2009-2010|RUTA 66|2009-12-14|22:10|47.0|Sin alerta|No definido|Incendios intencionales|0.0|0.0|0.0|0.0|0.0|0.0|0.05|0.1|0.0|0.0|0.15|-33.05694444444445|-71.55444444444444|WGS84
Valparaíso|Marga Marga|Quilpué|2009-2010|COLLIGAY|2009-12-15|13:15|345.0|Sin alerta|No definido|Tránsito de personasvehículos o aeronaves|0.0|0.0|0.0|0.0|0.0|80.0|47.4|10.0|0.0|0.0|137.4|-33.18055555555556|-71.22555555555556|WGS84
Valparaíso|San Antonio|San Antonio|2009-2010|VISTA HERMOSA|2009-12-15|13:30|57.0|Sin alerta|No definido|Incendios intencionales|0.0|0.0|0.0|0.3|0.0|0.0|0.0|0.9|0.0|0.0|1.2|-33.56055555555555|-71.61222222222223|WGS84
Valparaíso|San Antonio|Cartagena|2009-2010|VISTA HERMOSA II|2009-12-15|13:35|105.0|Sin alerta|No definido|Incendios intencionales|0.0|0.0|0.0|0.4|0.0|0.0|0.0|1.1|0.0|0.0|1.5|-33.56055555555555|-71.61222222222223|WGS84
Valparaíso|San Antonio|San Antonio|2009-2010|QUEBRADA VILLA EL MAR|2009-12-15|16:45|110.0|Sin alerta|No definido|Incendios intencionales|0.0|0.0|0.0|0.0|0.0|0.0|0.01|0.01|0.0|0.0|0.02|-33.388333333333335|-71.66083333333333|WGS84
Valparaíso|Marga Marga|Villa Alemana|2009-2010|ARANDA|2009-12-15|17:02|153.0|Sin alerta|No definido|Actividades recreativas|0.0|0.0|0.0|0.1|0.0|0.2|0.7|0.5|0.0|0.0|1.5|-33.033611111111114|-71.37166666666667|WGS84
Valparaíso|Marga Marga|Quilpué|2009-2010|LA RETUCA|2009-12-15|17:41|129.0|Sin alerta|No definido|Tránsito de personasvehículos o aeronaves|0.0|0.0|0.0|0.0|0.0|0.0|0.2|0.3|0.0|0.0|0.5|-33.13333333333333|-71.33166666666666|WGS84
Valparaíso|Valparaíso|Valparaíso|2009-2010|CERRO SAN JUAN DE DIOS|2009-12-15|19:43|56.0|Sin alerta|No definido|Incendios intencionales|0.0|0.0|0.0|0.0|0.0|0.0|0.0|0.01|0.0|0.0|0.01|-33.06444444444445|-71.62944444444445|WGS84
Valparaíso|Marga Marga|Limache|2009-2010|LOS LAURELES|2009-12-16|10:21|82.0|Sin alerta|No definido|Incendios intencionales|0.0|0.0|0.0|0.0|0.0|0.0|0.05|0.05|0.0|0.0|0.1|-32.998333333333335|-71.31722222222223|WGS84
Valparaíso|Marga Marga|Villa Alemana|2009-2010|POBLACION WILSON|2009-12-16|11:34|85.0|Sin alerta|No definido|Actividades recreativas|0.0|0.0|0.0|0.0|0.0|0.0|0.9|1.0|0.0|0.0|1.9|-33.043055555555554|-71.34|WGS84
Valparaíso|Marga Marga|Villa Alemana|2009-2010|EL PATAGUAL|2009-12-16|13:33|327.0|Sin alerta|No definido|No definida|0.0|0.0|0.0|20.0|0.0|80.0|350.0|470.0|15.0|0.0|935.0|-33.04361111111111|-71.30777777777777|WGS84
Valparaíso|San Antonio|Algarrobo|2009-2010|QUEBRADA VILLA EL MAR|2009-12-16|14:20|93.0|Sin alerta|No definido|Incendios intencionales|0.0|0.0|0.0|0.0|0.0|0.0|0.03|0.07|0.0|0.0|0.1|-33.37027777777778|-71.66027777777778|WGS84
Valparaíso|San Antonio|San Antonio|2009-2010|FUNDO DE LLO LLEO|2009-12-16|14:45|80.0|Sin alerta|No definido|Tránsito de personasvehículos o aeronaves|0.0|0.0|0.0|0.02|0.0|0.0|0.0|0.03|0.0|0.0|0.05|-33.60583333333334|-71.60277777777777|WGS84
Valparaíso|San Antonio|San Antonio|2009-2010|VISTA HERMOSA|2009-12-16|15:40|87.0|Sin alerta|No definido|Tránsito de personasvehículos o aeronaves|0.0|0.0|0.0|0.2|0.0|0.0|0.0|0.4|0.0|0.0|0.6000000000000001|-33.56055555555555|-71.61222222222223|WGS84
Valparaíso|Valparaíso|Valparaíso|2009-2010|CERRO CORDILLERA|2009-12-16|18:30|140.0|Sin alerta|No definido|Actividades recreativas|0.0|0.0|0.0|0.0|0.0|0.0|0.2|0.3|0.0|0.0|0.5|-33.055|-71.65083333333334|WGS84
Valparaíso|San Antonio|San Antonio|2009-2010|VIUDA VI|2009-12-16|19:25|73.0|Sin alerta|No definido|Tránsito de personasvehículos o aeronaves|0.0|0.0|0.0|0.0|0.0|0.0|0.0|0.9|0.0|0.0|0.9|-33.61527777777778|-71.59222222222222|WGS84
Valparaíso|San Antonio|San Antonio|2009-2010|VISTA HERMOSA|2009-12-17|11:00|280.0|Sin alerta|No definido|Tránsito de personasvehículos o aeronaves|0.0|0.0|0.0|1.2|0.0|0.0|1.0|4.0|0.0|0.0|6.2|-33.56055555555555|-71.61222222222223|WGS84
Valparaíso|San Antonio|San Antonio|2009-2010|FUNDO DE LLO LLEO|2009-12-17|15:10|105.0|Sin alerta|No definido|Tránsito de personasvehículos o aeronaves|0.0|0.0|0.0|0.4|0.0|0.0|0.0|0.1|0.0|0.0|0.5|-33.60638888888889|-71.5813888888889|WGS84
Valparaíso|Marga Marga|Olmué|2009-2010|QUEBRADA ALVARADO|2009-12-17|16:05|300.0|Sin alerta|No definido|Incendios intencionales|0.0|0.0|0.0|0.0|0.0|0.0|6.0|9.0|0.0|0.0|15.0|-33.06638888888889|-71.04055555555556|WGS84
Valparaíso|San Antonio|San Antonio|2009-2010|PLANICIES DE BELLAVISTA|2009-12-17|17:30|78.0|Sin alerta|No definido|Incendios intencionales|0.0|0.0|0.0|0.0|0.0|0.0|0.0|0.03|0.0|0.0|0.03|-33.569722222222225|-71.6125|WGS84
Valparaíso|Valparaíso|Valparaíso|2009-2010|EL ROCIO|2009-12-18|10:40|212.0|Sin alerta|No definido|Tránsito de personasvehículos o aeronaves|0.0|0.0|0.0|0.0|0.0|0.0|3.0|3.5|0.0|0.0|6.5|-33.06916666666667|-71.39416666666666|WGS84
Valparaíso|Valparaíso|Concón|2009-2010|FUERTE AGUAYO|2009-12-18|14:30|58.0|Sin alerta|No definido|Tránsito de personasvehículos o aeronaves|0.0|0.0|0.0|1.0|0.0|0.0|0.0|0.5|0.0|0.0|1.5|-32.950833333333335|-71.455|WGS84
Valparaíso|Marga Marga|Quilpué|2009-2010|LAGUNA QUILPUE|2009-12-18|14:32|154.0|Sin alerta|No definido|Tránsito de personasvehículos o aeronaves|0.0|0.0|0.0|0.0|0.0|0.0|0.5|0.8|0.0|0.0|1.3|-33.096111111111114|-71.39472222222223|WGS84
Valparaíso|San Antonio|Algarrobo|2009-2010|QUEBRADA PACIFICO|2009-12-18|14:30|285.0|Sin alerta|No definido|Incendios intencionales|0.0|0.0|0.0|0.5|0.0|0.0|0.0|0.5|0.0|0.0|1.0|-33.37027777777778|-71.66027777777778|WGS84
Valparaíso|San Antonio|San Antonio|2009-2010|VISTA HERMOSA|2009-12-18|14:45|140.0|Sin alerta|No definido|Incendios intencionales|0.0|0.0|0.0|2.0|0.0|0.0|0.0|0.5|0.0|0.0|2.5|-33.560833333333335|-71.60138888888889|WGS84
Valparaíso|San Antonio|Algarrobo|2009-2010|LOS PINARES|2009-12-18|15:00|285.0|Sin alerta|No definido|Incendios intencionales|0.0|0.3|0.0|0.2|0.0|0.0|0.0|0.4|0.0|0.0|0.9|-33.3975|-71.65027777777777|WGS84
Valparaíso|Marga Marga|Quilpué|2009-2010|VILLA CUMING|2009-12-18|17:07|63.0|Sin alerta|No definido|Tránsito de personasvehículos o aeronaves|0.0|0.0|0.0|0.0|0.0|0.0|0.2|0.8|0.0|0.0|1.0|-33.05916666666667|-71.4475|WGS84
Valparaíso|San Antonio|Santo Domingo|2009-2010|EL CONVENTO|2009-12-18|17:40|60.0|Sin alerta|No definido|Accidentes eléctricos|0.0|0.0|0.0|0.05|0.0|0.0|0.0|0.45|0.0|0.0|0.5|-33.77583333333333|-71.66194444444444|WGS84
Valparaíso|Marga Marga|Quilpué|2009-2010|FUNDO EL REBAÑO|2009-12-18|18:23|123.0|Sin alerta|No definido|Actividades recreativas|0.0|0.0|0.0|0.0|0.0|0.2|0.5|1.0|0.0|0.0|1.7|-33.0225|-71.4786111111111|WGS84
Valparaíso|Valparaíso|Valparaíso|2009-2010|PLACILLA|2009-12-18|19:42|133.0|Sin alerta|No definido|Incendios intencionales|0.0|0.0|0.0|0.0|0.0|0.0|0.05|0.05|0.0|0.0|0.1|-33.12888888888889|-71.56722222222223|WGS84
Valparaíso|Los Andes|Calle Larga|2009-2010|CUESTA CHACABUCO|2009-12-18|16:29|176.0|Sin alerta|No definido|Incendios intencionales|0.0|0.0|0.0|0.0|0.0|0.0|8.0|12.0|0.0|0.0|20.0|-32.91861111111111|-70.67361111111111|WGS84
Valparaíso|San Antonio|San Antonio|2009-2010|VISTA HERMOSA|2009-12-19|08:25|45.0|Sin alerta|No definido|Quema de desechos|0.0|0.0|0.0|0.0|0.0|0.0|0.0|0.25|0.0|0.0|0.25|-33.55166666666667|-71.61194444444445|WGS84
Valparaíso|Marga Marga|Quilpué|2009-2010|VILLA OLIMPICA|2009-12-19|12:35|79.0|Sin alerta|No definido|Tránsito de personasvehículos o aeronaves|0.0|0.0|0.0|0.0|0.0|0.0|0.02|0.1|0.0|0.0|0.12|-33.06777777777778|-71.45833333333333|WGS84
Valparaíso|San Antonio|Algarrobo|2009-2010|LOS PINARES|2009-12-19|14:30|60.0|Sin alerta|No definido|Incendios intencionales|0.03|0.0|0.0|0.0|0.0|0.0|0.0|0.07|0.0|0.0|0.1|-33.3975|-71.65027777777777|WGS84
Valparaíso|San Antonio|Santo Domingo|2009-2010|LA PRINCESA|2009-12-19|14:35|60.0|Sin alerta|No definido|Tránsito de personasvehículos o aeronaves|0.0|0.0|0.0|0.0|0.0|0.0|0.0|0.7|0.0|0.0|0.7|-33.678333333333335|-71.59416666666667|WGS84
Valparaíso|San Antonio|Algarrobo|2009-2010|QUEBRADA PACIFICO|2009-12-19|15:00|175.0|Sin alerta|No definido|Actividades recreativas|0.0|0.0|0.0|0.03|0.0|0.0|0.02|0.15|0.0|0.0|0.2|-33.37027777777778|-71.66027777777778|WGS84
Valparaíso|Valparaíso|Valparaíso|2009-2010|PESOA VELIZ|2009-12-19|15:45|29.0|Sin alerta|No definido|Actividades recreativas|0.0|0.0|0.0|0.0|0.0|0.0|0.0|0.01|0.0|0.0|0.01|-33.055277777777775|-71.64|WGS84
Valparaíso|Valparaíso|Viña del Mar|2009-2010|JARDIN BOTANICO|2009-12-19|17:00|214.0|Sin alerta|No definido|Tránsito de personasvehículos o aeronaves|0.0|0.0|0.0|0.0|0.0|3.0|2.0|1.0|0.0|0.0|6.0|-33.04944444444445|-71.47916666666667|WGS84
Valparaíso|Valparaíso|Valparaíso|2009-2010|MONTEDONICO|2009-12-19|17:39|76.0|Sin alerta|No definido|Actividades recreativas|0.0|0.0|0.0|0.0|0.0|0.0|0.07|0.07|0.0|0.0|0.14|-33.064166666666665|-71.64027777777778|WGS84
Valparaíso|San Antonio|San Antonio|2009-2010|FUNDO MIRAMAR|2009-12-19|17:30|132.0|Sin alerta|No definido|Tránsito de personasvehículos o aeronaves|0.0|0.0|0.0|0.0|0.0|0.0|0.0|8.0|0.0|0.0|8.0|-33.58805555555556|-71.59138888888889|WGS84
Valparaíso|Valparaíso|Viña del Mar|2009-2010|MONTEMAR|2009-12-19|18:40|124.0|Sin alerta|No definido|Actividades recreativas|0.0|0.0|0.0|0.4|0.0|0.0|0.0|0.8|0.0|0.0|1.2000000000000002|-32.94916666666667|-71.53|WGS84
Valparaíso|Marga Marga|Limache|2009-2010|SANTA ROSA|2009-12-19|18:45|120.0|Sin alerta|No definido|Incendios intencionales|0.0|0.0|0.0|0.05|0.0|0.0|0.0|0.05|0.0|0.0|0.1|-33.01777777777778|-71.24277777777777|WGS84
Valparaíso|Valparaíso|Valparaíso|2009-2010|LAS CENIZAS|2009-12-19|19:37|174.0|Sin alerta|No definido|Incendios intencionales|0.0|0.0|0.0|0.0|0.0|0.0|0.0|0.0|0.0|0.03|0.03|-33.1025|-71.53416666666666|WGS84
Valparaíso|San Antonio|San Antonio|2009-2010|PELANCURA|2009-12-19|19:35|63.0|Sin alerta|No definido|Tránsito de personasvehículos o aeronaves|0.0|0.0|0.0|0.0|0.0|0.0|0.0|0.24|0.0|0.0|0.24|-33.56027777777778|-71.62305555555555|WGS84
Valparaíso|Valparaíso|Viña del Mar|2009-2010|LA SKEGA|2009-12-20|13:28|1167.0|Sin alerta|No definido|Incendios de causa desconocida|0.0|0.0|5.0|1.0|0.0|0.0|20.0|5.7|0.0|0.0|31.7|-32.958333333333336|-71.53027777777778|WGS84
Valparaíso|Valparaíso|Viña del Mar|2009-2010|ACHUPALLAS|2009-12-20|13:30|90.0|Sin alerta|No definido|Actividades recreativas|0.0|0.0|0.0|0.0|0.0|0.0|0.05|0.1|0.0|0.0|0.15|-33.00361111111111|-71.51|WGS84
Valparaíso|San Antonio|San Antonio|2009-2010|FUNDO MIRAMAR|2009-12-20|14:20|47.0|Sin alerta|No definido|Incendios intencionales|0.0|0.0|0.0|0.0|0.0|0.0|0.0|0.15|0.0|0.0|0.15|-33.5975|-71.58111111111111|WGS84
Valparaíso|San Antonio|San Antonio|2009-2010|FUNDO MIRAMAR II|2009-12-20|14:20|202.0|Sin alerta|No definido|Incendios intencionales|0.0|0.0|0.0|1.0|0.0|0.0|0.0|0.6|0.0|0.0|1.6|-33.58805555555556|-71.59138888888889|WGS84
Valparaíso|Valparaíso|Valparaíso|2009-2010|CERRO CORDILLERA|2009-12-20|15:43|60.0|Sin alerta|No definido|Actividades recreativas|0.0|0.0|0.0|1.0|0.0|0.0|9.0|7.0|0.0|0.0|17.0|-33.064166666666665|-71.64027777777778|WGS84
Valparaíso|Marga Marga|Villa Alemana|2009-2010|POBLACION PRAT|2009-12-20|16:54|91.0|Sin alerta|No definido|Actividades recreativas|0.0|0.0|0.0|0.0|0.0|0.0|0.5|1.0|0.0|0.0|1.5|-33.069722222222225|-71.36194444444445|WGS84
Valparaíso|Marga Marga|Villa Alemana|2009-2010|CALLE HIPODROMO|2009-12-20|16:52|93.0|Sin alerta|No definido|Tránsito de personasvehículos o aeronaves|0.0|0.0|0.0|0.0|0.0|0.0|1.0|2.0|0.0|0.0|3.0|-33.07888888888889|-71.36222222222223|WGS84
Valparaíso|Marga Marga|Villa Alemana|2009-2010|CEMENTERIO VILLA ALEMANA|2009-12-20|17:01|84.0|Sin alerta|No definido|Actividades recreativas|0.0|0.0|0.0|0.0|0.0|0.0|0.5|1.0|0.0|0.0|1.5|-33.07861111111111|-71.37305555555555|WGS84
Valparaíso|Valparaíso|Viña del Mar|2009-2010|RHONA|2009-12-20|17:23|197.0|Sin alerta|No definido|Tránsito de personasvehículos o aeronaves|0.0|0.0|0.0|0.0|0.0|0.1|0.3|0.4|0.0|0.0|0.8|-33.056666666666665|-71.565|WGS84
Valparaíso|Valparaíso|Viña del Mar|2009-2010|REÑACA ALTO|2009-12-20|17:21|77.0|Sin alerta|No definido|Actividades recreativas|0.0|0.0|0.0|0.0|0.0|0.0|0.2|0.4|0.0|0.0|0.6000000000000001|-32.995555555555555|-71.46694444444445|WGS84
Valparaíso|Petorca|La Ligua|2009-2010|LA PATAGUA|2009-12-20|16:40|1040.0|Sin alerta|No definido|Tránsito de personasvehículos o aeronaves|0.0|0.0|0.0|0.0|0.0|0.0|5.0|4.0|1.0|0.0|10.0|-32.52305555555556|-71.17722222222223|WGS84
Valparaíso|Marga Marga|Villa Alemana|2009-2010|POBLACION LOS PROFESORES|2009-12-20|18:35|91.0|Sin alerta|No definido|Actividades recreativas|0.0|0.0|0.0|0.0|0.0|0.0|1.0|1.0|0.0|0.0|2.0|-33.04277777777778|-71.36138888888888|WGS84
Valparaíso|San Antonio|San Antonio|2009-2010|PALANCURA|2009-12-20|19:10|80.0|Sin alerta|No definido|Incendios intencionales|0.0|0.0|0.1|0.0|0.0|0.0|0.0|0.9|0.0|0.0|1.0|-33.56944444444444|-71.62333333333333|WGS84
Valparaíso|San Antonio|San Antonio|2009-2010|SAN ANTONIO DE LAS BODEGAS|2009-12-21|13:30|47.0|Sin alerta|No definido|Incendios intencionales|0.0|0.0|0.0|0.0|0.0|0.0|0.0|0.17|0.0|0.0|0.17|-33.57|-71.60166666666667|WGS84
Valparaíso|Quillota|Quillota|2009-2010|LO ROJAS|2009-12-21|14:03|44.0|Sin alerta|No definido|Tránsito de personasvehículos o aeronaves|0.0|0.0|0.0|0.0|0.0|15.0|50.0|25.0|0.0|0.0|90.0|-32.8375|-71.24888888888889|WGS84
Valparaíso|San Antonio|San Antonio|2009-2010|AROMOS|2009-12-21|15:40|39.0|Sin alerta|No definido|Tránsito de personasvehículos o aeronaves|0.0|0.0|0.0|0.0|0.0|0.0|0.0|0.01|0.0|0.0|0.01|-33.60583333333334|-71.60277777777777|WGS84
Valparaíso|Petorca|Cabildo|2009-2010|MONTE GRANDE|2009-12-21|15:16|59.0|Sin alerta|No definido|Tránsito de personasvehículos o aeronaves|0.0|0.0|0.0|0.0|0.0|0.0|0.01|0.01|0.0|0.0|0.02|-32.44361111111111|-71.07972222222222|WGS84
Valparaíso|San Antonio|Cartagena|2009-2010|SAN SEBASTIAN|2009-12-21|16:25|57.0|Sin alerta|No definido|Tránsito de personasvehículos o aeronaves|0.0|0.0|0.0|0.1|0.0|0.0|0.0|0.2|0.0|0.0|0.3|-33.525|-71.58972222222222|WGS84
Valparaíso|San Antonio|San Antonio|2009-2010|EL CARMEN|2009-12-21|17:00|80.0|Sin alerta|No definido|Actividades recreativas|0.0|0.0|0.0|0.1|0.0|0.0|0.0|0.15|0.0|0.0|0.25|-33.560833333333335|-71.60138888888889|WGS84
Valparaíso|San Antonio|San Antonio|2009-2010|FUNDO DE LLO LLEO|2009-12-21|17:00|210.0|Sin alerta|No definido|Incendios intencionales|0.0|0.0|0.0|0.1|0.0|0.0|0.0|0.2|0.0|0.0|0.3|-33.60611111111111|-71.59194444444445|WGS84
Valparaíso|Valparaíso|Valparaíso|2009-2010|CERRO MARIPOSA|2009-12-21|18:05|117.0|Sin alerta|No definido|Incendios intencionales|0.0|0.0|0.0|0.05|0.0|0.0|0.1|0.15|0.0|0.0|0.3|-33.06444444444445|-71.62944444444445|WGS84
Valparaíso|San Antonio|San Antonio|2009-2010|FUNDO MIRAMAR|2009-12-21|19:35|865.0|Sin alerta|No definido|Incendios intencionales|0.0|0.0|0.0|3.6|0.0|0.0|0.0|0.5|0.0|0.0|4.1|-33.498333333333335|-71.57805555555555|WGS84
Valparaíso|San Antonio|San Antonio|2009-2010|BELLAVISTA|2009-12-22|12:00|220.0|Sin alerta|No definido|Tránsito de personasvehículos o aeronaves|0.0|0.0|0.0|0.8|0.0|0.0|1.5|2.5|0.0|0.0|4.8|-33.56055555555555|-71.61222222222223|WGS84
Valparaíso|Marga Marga|Olmué|2009-2010|LA AGUADA|2009-12-22|14:25|65.0|Sin alerta|No definido|Incendios intencionales|0.0|0.0|0.0|0.0|0.0|0.0|15.0|10.0|0.0|0.0|25.0|-33.01027777777778|-71.15694444444445|WGS84
Valparaíso|Quillota|Nogales|2009-2010|SAN CARLOS|2009-12-22|14:57|281.0|Sin alerta|No definido|Incendios intencionales|0.0|0.0|0.0|0.0|0.0|30.0|20.0|10.0|0.0|0.0|60.0|-32.76583333333333|-71.21527777777777|WGS84
Valparaíso|Valparaíso|Viña del Mar|2009-2010|SANTA INES|2009-12-22|15:46|30.0|Sin alerta|No definido|Tránsito de personasvehículos o aeronaves|0.0|0.0|0.0|0.0|0.0|0.0|0.01|0.01|0.0|0.0|0.02|-33.00333333333333|-71.53138888888888|WGS84
Valparaíso|Marga Marga|Quilpué|2009-2010|ALTO EL YUGO|2009-12-22|15:42|99.0|Sin alerta|No definido|Tránsito de personasvehículos o aeronaves|0.0|0.0|0.0|0.05|0.0|0.0|0.0|0.5|0.0|0.0|0.55|-33.07805555555556|-71.39444444444445|WGS84
Valparaíso|San Antonio|San Antonio|2009-2010|VALLE  ABAJO|2009-12-22|15:50|130.0|Sin alerta|No definido|Tránsito de personasvehículos o aeronaves|0.0|0.0|0.0|7.9|0.0|145.65|94.95|322.5|0.0|0.0|571.0|-33.76166666666667|-71.4888888888889|WGS84
Valparaíso|San Antonio|San Antonio|2009-2010|POTRERILLO|2009-12-22|18:00|44.0|Sin alerta|No definido|Actividades recreativas|0.0|0.0|0.0|0.0|0.0|0.0|0.0|0.35|0.0|0.0|0.35|-33.56138888888889|-71.58|WGS84
Valparaíso|Marga Marga|Quilpué|2009-2010|FUNDO LOS LUNES|2009-12-22|21:33|1209.0|Sin alerta|No definido|Incendios intencionales|0.0|0.0|0.0|1.5|0.0|0.0|2.0|3.5|0.0|0.0|7.0|-33.04638888888889|-71.62916666666666|WGS84
Valparaíso|Valparaíso|Valparaíso|2009-2010|CERRO ALEGRE|2009-12-23|15:28|146.0|Sin alerta|No definido|Actividades recreativas|0.0|0.0|0.0|0.0|0.0|0.0|0.03|0.07|0.0|0.0|0.1|-33.04638888888889|-71.62916666666666|WGS84
Valparaíso|San Antonio|San Antonio|2009-2010|CERRO LA VIRGEN|2009-12-23|14:30|330.0|Sin alerta|No definido|Tránsito de personasvehículos o aeronaves|0.0|0.0|1.0|0.0|0.0|0.0|0.0|7.0|0.0|0.0|8.0|-33.569722222222225|-71.6125|WGS84
Valparaíso|San Antonio|San Antonio|2009-2010|LA CAMPIÑA|2009-12-23|16:20|73.0|Sin alerta|No definido|Actividades recreativas|0.0|0.0|0.0|0.0|0.0|0.0|0.0|0.1|0.0|0.0|0.1|-33.62416666666667|-71.5925|WGS84
Valparaíso|Marga Marga|Limache|2009-2010|EL PANGAL|2009-12-23|17:18|61.0|Sin alerta|No definido|Actividades recreativas|0.0|0.0|0.0|0.0|0.0|0.0|0.0|0.15|0.0|0.0|0.15|-33.01777777777778|-71.25361111111111|WGS84
Valparaíso|Valparaíso|Viña del Mar|2009-2010|POBLACION PUERTO AYSEN|2009-12-23|19:10|83.0|Sin alerta|No definido|Tránsito de personasvehículos o aeronaves|0.0|0.0|0.0|0.0|0.0|0.0|0.01|0.02|0.0|0.0|0.03|-33.06638888888889|-71.51833333333333|WGS84
Valparaíso|Marga Marga|Limache|2009-2010|PARCELA LA LIBERTAD|2009-12-24|09:43|148.0|Sin alerta|No definido|Tránsito de personasvehículos o aeronaves|0.0|0.0|0.0|0.0|0.0|0.0|0.03|0.02|0.0|0.0|0.05|-32.925|-71.39027777777778|WGS84
Valparaíso|Marga Marga|Quilpué|2009-2010|FUNDO EL LLANO|2009-12-24|11:40|13.0|Sin alerta|No definido|Incendios intencionales|0.0|0.0|0.1|2.3|0.0|442.9|258.7|176.0|0.0|0.0|880.0|-33.18944444444445|-71.22583333333333|WGS84
Valparaíso|Marga Marga|Quilpué|2009-2010|PASO HONDO|2009-12-24|16:27|25.0|Sin alerta|No definido|Incendios intencionales|0.0|0.0|0.0|0.0|0.0|0.0|0.0|0.01|0.0|0.0|0.01|-33.04944444444445|-71.47916666666667|WGS84
Valparaíso|Petorca|La Ligua|2009-2010|LA PATAGUA|2009-12-24|16:20|180.0|Sin alerta|No definido|Tránsito de personasvehículos o aeronaves|0.0|0.0|0.0|0.0|0.0|0.5|4.0|0.5|0.0|0.0|5.0|-32.532222222222224|-71.16694444444444|WGS84
Valparaíso|Valparaíso|Viña del Mar|2009-2010|QUINTA VERGARA|2009-12-24|18:40|90.0|Sin alerta|No definido|Actividades recreativas|0.0|0.0|0.0|0.1|0.0|0.0|0.05|0.2|0.0|0.0|0.35|-33.03861111111111|-71.56444444444445|WGS84
Valparaíso|Marga Marga|Quilpué|2009-2010|PUENTE LAS CUCHARAS|2009-12-24|18:16|64.0|Sin alerta|No definido|Tránsito de personasvehículos o aeronaves|0.0|0.0|0.0|0.0|0.0|0.0|0.01|0.02|0.0|0.0|0.03|-33.05833333333333|-71.47944444444444|WGS84
Valparaíso|Valparaíso|Viña del Mar|2009-2010|JARDIN BOTANICO|2009-12-24|20:05|83.0|Sin alerta|No definido|Incendios intencionales|0.0|0.0|0.0|0.2|0.0|0.0|0.16|0.3|0.0|0.0|0.6599999999999999|-33.039722222222224|-71.5111111111111|WGS84
Valparaíso|Valparaíso|Viña del Mar|2009-2010|QUINTA VERGARA|2009-12-25|03:40|643.0|Sin alerta|No definido|Incendios intencionales|0.0|0.0|0.0|0.0|0.0|0.3|0.2|0.13|0.0|0.0|0.63|-33.03|-71.55361111111111|WGS84
Valparaíso|Valparaíso|Viña del Mar|2009-2010|RENE SHNEIDER|2009-12-25|13:06|52.0|Sin alerta|No definido|Actividades recreativas|0.0|0.0|0.0|0.0|0.0|0.0|0.01|0.02|0.0|0.0|0.03|-33.04833333333333|-71.53277777777778|WGS84
Valparaíso|San Antonio|Cartagena|2009-2010|SAN SEBASTIAN|2009-12-25|12:40|70.0|Sin alerta|No definido|Quema de desechos|0.0|0.0|0.0|0.0|0.0|0.0|0.0|0.01|0.0|0.0|0.01|-33.525|-71.58972222222222|WGS84
Valparaíso|San Antonio|San Antonio|2009-2010|PLANICIES DE BELLAVISTA|2009-12-25|14:05|55.0|Sin alerta|No definido|Incendios intencionales|0.0|0.0|0.0|0.0|0.0|0.0|0.0|0.1|0.0|0.0|0.1|-33.560833333333335|-71.60138888888889|WGS84
Valparaíso|Valparaíso|Viña del Mar|2009-2010|QUINTA VERGARA II|2009-12-25|15:53|36.0|Sin alerta|No definido|Incendios intencionales|0.0|0.0|0.0|0.9|0.0|0.3|0.5|0.8|0.0|0.0|2.5|-33.03|-71.55361111111111|WGS84
Valparaíso|Valparaíso|Valparaíso|2009-2010|FUNDO EL LLANO PLACILLA|2009-12-25|16:47|1153.0|Sin alerta|No definido|No definida|0.0|0.0|630.0|180.0|0.0|230.3|158.7|30.0|0.0|27.0|1256.0|-33.11944444444445|-71.58833333333334|WGS84
Valparaíso|Valparaíso|Concón|2009-2010|LA SKEGA|2009-12-25|17:08|1406.0|Sin alerta|No definido|Incendios intencionales|0.0|0.0|0.0|0.0|0.0|0.0|1.0|2.0|0.0|0.5|3.5|-32.949444444444445|-71.51916666666666|WGS84
Valparaíso|San Antonio|San Antonio|2009-2010|QUEBRADA BRUCELAS|2009-12-25|18:25|49.0|Sin alerta|No definido|Tránsito de personasvehículos o aeronaves|0.0|0.0|0.0|0.0|0.0|0.0|0.0|0.06|0.0|0.0|0.06|-33.57|-71.60166666666667|WGS84
Valparaíso|San Antonio|San Antonio|2009-2010|FUNDO MIRAMAR|2009-12-26|08:00|100.0|Sin alerta|No definido|No definida|0.0|0.0|0.0|0.0|0.0|0.0|0.0|0.8|0.0|0.0|0.8|-33.58805555555556|-71.59138888888889|WGS84
Valparaíso|Petorca|La Ligua|2009-2010|LLAY LLAY    VALLE HERMOSO|2009-12-25|10:45|60.0|Sin alerta|No definido|Tránsito de personasvehículos o aeronaves|0.0|0.0|0.0|0.0|0.0|0.0|0.03|0.02|0.0|0.0|0.05|-32.450833333333335|-71.1775|WGS84
Valparaíso|Valparaíso|Valparaíso|2009-2010|LOS MOLLES|2009-12-26|10:49|560.0|Sin alerta|No definido|Actividades recreativas|0.0|0.0|0.0|150.0|0.0|145.0|100.0|20.0|0.0|0.0|415.0|-33.073055555555555|-71.64055555555555|WGS84
Valparaíso|Marga Marga|Olmué|2009-2010|LA DORMIDA|2009-12-26|14:36|121.0|Sin alerta|No definido|Tránsito de personasvehículos o aeronaves|0.0|0.0|0.0|0.0|0.0|0.0|1.5|1.5|0.0|0.0|3.0|-33.07416666666666|-71.11583333333333|WGS84
Valparaíso|Valparaíso|Valparaíso|2009-2010|LAGUNA VERDE|2009-12-26|18:56|84.0|Sin alerta|No definido|Incendios intencionales|0.0|0.05|0.0|0.0|0.0|0.0|0.0|0.0|0.0|0.0|0.05|-33.126666666666665|-71.66361111111111|WGS84
Valparaíso|San Antonio|Algarrobo|2009-2010|EL BOCHINCHE|2009-12-26|19:50|62.0|Sin alerta|No definido|Tránsito de personasvehículos o aeronaves|0.0|0.0|0.0|0.0|0.0|0.0|0.05|0.15|0.0|0.0|0.2|-33.32694444444444|-71.58361111111111|WGS84
Valparaíso|Valparaíso|Viña del Mar|2009-2010|LOS ALMENDROS|2009-12-27|13:42|194.0|Sin alerta|No definido|Tránsito de personasvehículos o aeronaves|0.0|0.0|0.0|0.7|0.0|0.0|0.3|0.5|0.0|0.0|1.5|-32.966944444444444|-71.5411111111111|WGS84
Valparaíso|Petorca|Cabildo|2009-2010|PAIHUEN|2009-12-27|13:30|87.0|Sin alerta|No definido|Tránsito de personasvehículos o aeronaves|0.0|0.0|0.0|0.0|0.0|0.0|0.03|0.02|0.0|0.0|0.05|-32.374722222222225|-70.855|WGS84
Valparaíso|San Antonio|San Antonio|2009-2010|ALTO SAN JUAN|2009-12-27|16:50|111.0|Sin alerta|No definido|Faenas agrícolas y pecuarias|0.0|0.0|0.0|9.5|0.0|0.0|0.5|9.26|0.0|0.0|19.26|-33.63361111111111|-71.57138888888889|WGS84
Valparaíso|San Antonio|San Antonio|2009-2010|VISTA HERMOSA|2009-12-27|13:05|135.0|Sin alerta|No definido|Actividades recreativas|0.0|0.0|0.0|0.3|0.0|0.0|0.0|0.7|0.0|0.0|1.0|-33.560833333333335|-71.60138888888889|WGS84
Valparaíso|Valparaíso|Casablanca|2009-2010|LA VINILLA|2009-12-27|19:07|826.0|Sin alerta|No definido|Incendios intencionales|0.0|0.0|0.0|0.0|0.0|0.0|2.0|3.0|0.0|0.0|5.0|-33.32194444444445|-71.37944444444445|WGS84
Valparaíso|San Antonio|San Antonio|2009-2010|ALTO SANTO DOMINGO|2009-12-28|15:32|82.0|Sin alerta|No definido|Otras actividades|0.0|0.0|0.0|0.0|0.0|0.0|0.12|0.75|0.0|0.0|0.87|-33.660555555555554|-71.57222222222222|WGS84
Valparaíso|San Antonio|El Quisco|2009-2010|FUNDO HUALLILEMU|2009-12-28|16:40|220.0|Sin alerta|No definido|Tránsito de personasvehículos o aeronaves|0.0|1.2|0.0|0.0|0.0|0.0|0.4|0.6|0.0|0.0|2.2|-33.42444444444445|-71.6511111111111|WGS84
Valparaíso|Valparaíso|Valparaíso|2009-2010|R.N.L.P|2009-12-29|07:30|285.0|Sin alerta|No definido|Incendios intencionales|0.0|0.0|0.0|0.3|0.0|0.0|0.0|0.2|0.0|0.0|0.5|-33.138333333333335|-71.54611111111112|WGS84
Valparaíso|Marga Marga|Quilpué|2009-2010|ESTERO VIEJO|2009-12-29|14:28|144.0|Sin alerta|No definido|Incendios intencionales|0.0|0.0|0.0|0.5|0.0|0.0|1.0|1.0|0.0|0.0|2.5|-33.077777777777776|-71.41583333333334|WGS84
Valparaíso|San Antonio|San Antonio|2009-2010|POTRERILLO|2009-12-29|16:20|173.0|Sin alerta|No definido|Incendios intencionales|0.0|0.0|0.0|0.7|0.0|0.0|0.0|0.3|0.0|0.0|1.0|-33.57|-71.59083333333334|WGS84
Valparaíso|San Antonio|San Antonio|2009-2010|FUNDO DE LLO LLEO|2009-12-29|17:00|120.0|Sin alerta|No definido|Tránsito de personasvehículos o aeronaves|0.0|0.0|0.0|0.08|0.0|0.0|0.0|0.3|0.0|0.0|0.38|-33.60611111111111|-71.59194444444445|WGS84
Valparaíso|Petorca|Petorca|2009-2010|EL SOBRANTE|2009-12-29|15:50|335.0|Sin alerta|No definido|Tránsito de personasvehículos o aeronaves|0.0|0.0|0.0|0.0|0.0|4.0|2.0|1.0|0.0|0.0|7.0|-32.21277777777778|-70.83027777777778|WGS84
Valparaíso|San Antonio|San Antonio|2009-2010|CAMINO VIEJO CARTAGENA|2009-12-30|10:00|93.0|Sin alerta|No definido|Tránsito de personasvehículos o aeronaves|0.0|0.0|0.0|0.2|0.0|0.0|0.0|0.7|0.0|0.0|0.8999999999999999|-33.56111111111111|-71.59055555555555|WGS84
Valparaíso|San Antonio|San Antonio|2009-2010|POTRERILLOS|2009-12-30|10:00|120.0|Sin alerta|No definido|Actividades recreativas|0.0|0.0|0.0|0.01|0.0|0.0|0.0|0.02|0.0|0.0|0.03|-33.56111111111111|-71.59055555555555|WGS84
Valparaíso|San Antonio|Cartagena|2009-2010|LAS PALMAS|2009-12-30|13:20|135.0|Sin alerta|No definido|Tránsito de personasvehículos o aeronaves|0.0|6.4|0.0|69.1|0.0|0.0|13.8|212.7|0.0|0.0|302.0|-33.54555555555555|-71.47166666666666|WGS84
Valparaíso|Valparaíso|Casablanca|2009-2010|FUNDO SANTA MATILDE|2009-12-30|12:00|0.0|Sin alerta|No definido|Tránsito de personasvehículos o aeronaves|0.0|0.0|0.0|30.0|0.0|0.0|9.0|10.0|0.0|0.0|49.0|-33.43805555555556|-71.43638888888889|WGS84
Valparaíso|Marga Marga|Quilpué|2009-2010|CRUCE DE COLLIGUAY|2009-12-30|15:52|75.0|Sin alerta|No definido|Tránsito de personasvehículos o aeronaves|0.0|0.0|0.0|0.0|0.0|0.0|0.02|0.02|0.0|0.0|0.04|-33.17|-71.31111111111112|WGS84
Valparaíso|Valparaíso|Concón|2009-2010|BOSQUES DE MONTEMAR|2009-12-30|16:36|95.0|Sin alerta|No definido|Actividades recreativas|0.0|0.0|0.0|0.2|0.0|0.0|0.0|0.1|0.0|0.0|0.3|-32.940555555555555|-71.5188888888889|WGS84
Valparaíso|San Antonio|San Antonio|2009-2010|CAMINO VIEJO CARTAGENA II|2009-12-30|15:49|139.0|Sin alerta|No definido|Tránsito de personasvehículos o aeronaves|0.0|0.0|0.0|0.4|0.0|0.0|0.1|7.0|0.0|0.0|7.5|-33.56111111111111|-71.59055555555555|WGS84
Valparaíso|Valparaíso|Valparaíso|2009-2010|RESERVA NACIONAL LAGO PEÑUELAS|2009-12-31|08:00|705.0|Sin alerta|No definido|Incendios intencionales|0.0|0.0|0.0|0.7|0.0|0.0|0.0|1.3|0.0|0.0|2.0|-33.13805555555555|-71.55666666666667|WGS84
Valparaíso|San Antonio|San Antonio|2009-2010|FUNDO MIRAMAR|2009-12-31|12:25|257.0|Sin alerta|No definido|Incendios intencionales|0.0|0.0|0.0|0.0|0.0|0.0|2.0|20.0|0.0|0.0|22.0|-33.58805555555556|-71.59138888888889|WGS84
Valparaíso|Valparaíso|Viña del Mar|2009-2010|FORESTAL|2009-12-31|13:56|192.0|Sin alerta|No definido|No definida|0.0|0.0|0.0|0.0|0.0|0.0|0.2|0.0|0.0|0.3|0.5|-33.08416666666667|-71.54444444444445|WGS84
Valparaíso|Valparaíso|Valparaíso|2009-2010|CEMENTERIO PEÑUELAS|2009-12-31|13:49|371.0|Sin alerta|No definido|Incendios intencionales|0.0|0.13|0.0|0.17|0.0|0.0|0.0|0.0|0.0|0.0|0.3|-33.12027777777778|-71.54555555555555|WGS84
Valparaíso|San Antonio|San Antonio|2009-2010|FUNDO MIRAMAR II|2009-12-31|14:20|80.0|Sin alerta|No definido|Incendios intencionales|0.0|0.0|0.0|0.2|0.0|0.0|0.0|0.3|0.0|0.0|0.5|-33.58833333333333|-71.58083333333333|WGS84
Valparaíso|Valparaíso|Valparaíso|2009-2010|CEMENTERIO PEÑUELAS II|2009-12-31|14:19|351.0|Sin alerta|No definido|Incendios intencionales|0.0|0.0|0.0|0.02|0.0|0.0|0.0|0.0|0.0|0.0|0.02|-33.12027777777778|-71.54555555555555|WGS84
Valparaíso|San Antonio|San Antonio|2009-2010|FUNDO DE LLO LLEO|2009-12-31|15:45|35.0|Sin alerta|No definido|Tránsito de personasvehículos o aeronaves|0.0|0.0|0.0|0.0|0.0|0.0|0.0|0.02|0.0|0.0|0.02|-33.596944444444446|-71.6025|WGS84
Valparaíso|Valparaíso|Casablanca|2009-2010|TUNQUEN|2010-01-01|12:30|385.0|Sin alerta|No definido|Tránsito de personasvehículos o aeronaves|0.0|0.0|0.0|0.0|0.0|0.0|0.0|0.01|0.0|0.01|0.02|-33.2625|-71.63555555555556|WGS84
Valparaíso|Marga Marga|Quilpué|2009-2010|LOS QUILLAYES|2010-01-01|13:17|326.0|Sin alerta|No definido|Incendios intencionales|0.0|0.0|0.0|10.0|0.0|10.0|5.0|15.0|0.0|0.0|40.0|-33.16|-71.3536111111111|WGS84
Valparaíso|Marga Marga|Quilpué|2009-2010|CUESTA COLLIGUAY|2010-01-01|13:47|1326.0|Sin alerta|No definido|Incendios intencionales|0.0|0.0|0.0|0.0|0.0|60.0|40.0|50.0|0.0|0.0|150.0|-33.18861111111111|-71.26861111111111|WGS84
Valparaíso|Marga Marga|Olmué|2009-2010|EL MAQUI|2010-01-01|13:24|1346.0|Sin alerta|No definido|Incendios intencionales|0.0|0.0|0.0|0.0|0.0|15.0|5.0|10.0|0.0|0.0|30.0|-33.05638888888889|-71.10472222222222|WGS84
Valparaíso|San Antonio|San Antonio|2009-2010|CERRO LA VIRGEN|2010-01-01|14:10|104.0|Sin alerta|No definido|Incendios intencionales|0.0|0.0|0.0|0.0|0.0|0.0|0.0|5.0|0.0|0.0|5.0|-33.569722222222225|-71.6125|WGS84
Valparaíso|Valparaíso|Valparaíso|2009-2010|AUTODROMO|2010-01-01|16:43|133.0|Sin alerta|No definido|No definida|0.0|0.0|0.0|0.4|0.0|0.0|0.0|1.0|0.0|0.0|1.4|-33.138333333333335|-71.54611111111112|WGS84
Valparaíso|Quillota|La Cruz|2009-2010|CERRO PALMILLA|2010-01-02|12:27|663.0|Sin alerta|No definido|Incendios intencionales|0.0|0.0|0.0|0.9|0.0|0.0|2.0|2.0|0.0|0.0|4.9|-32.7925|-71.23722222222223|WGS84
Valparaíso|Valparaíso|Valparaíso|2009-2010|EL LLANO  ASERRADERO|2010-01-02|16:05|37.0|Sin alerta|No definido|Actividades recreativas|0.0|0.0|0.0|0.01|0.0|0.0|0.0|0.0|0.0|0.0|0.01|-33.12861111111111|-71.57777777777778|WGS84
Valparaíso|Valparaíso|Quintero|2009-2010|LAS GAVIOTAS|2010-01-02|16:49|225.0|Sin alerta|No definido|Incendios intencionales|0.0|0.0|0.0|9.0|0.0|0.0|0.0|4.0|0.0|0.0|13.0|-32.91416666666667|-71.48611111111111|WGS84
Valparaíso|San Antonio|San Antonio|2009-2010|PIEDRA EL INDIO|2010-01-02|17:10|183.0|Sin alerta|No definido|Incendios intencionales|0.0|2.0|0.0|0.0|0.0|0.0|0.0|12.0|0.0|0.0|14.0|-33.61527777777778|-71.59222222222222|WGS84
Valparaíso|San Antonio|San Antonio|2009-2010|FUNDO MIRAMAR|2010-01-02|18:10|80.0|Sin alerta|No definido|Tránsito de personasvehículos o aeronaves|0.0|0.0|0.0|0.0|0.0|0.0|0.0|0.06|0.0|0.0|0.06|-33.579166666666666|-71.5911111111111|WGS84
Valparaíso|San Antonio|San Antonio|2009-2010|FUNDO DE LLO LLEO|2010-01-03|08:20|270.0|Sin alerta|No definido|Tránsito de personasvehículos o aeronaves|0.0|0.0|0.0|0.02|0.0|0.0|0.0|0.08|0.0|0.0|0.1|-33.60583333333334|-71.60277777777777|WGS84
Valparaíso|San Antonio|Santo Domingo|2009-2010|LOS LILENES|2010-01-04|15:35|125.0|Sin alerta|No definido|Tránsito de personasvehículos o aeronaves|0.0|0.0|0.0|0.5|0.0|0.0|0.0|0.1|0.0|0.0|0.6|-33.69638888888889|-71.5838888888889|WGS84
Valparaíso|Marga Marga|Quilpué|2009-2010|ZOOLOGICO DE QUILPUE|2010-01-04|18:24|67.0|Sin alerta|No definido|Actividades recreativas|0.0|0.0|0.0|0.0|0.0|0.0|0.04|0.08|0.0|0.0|0.12|-33.041111111111114|-71.44694444444444|WGS84
Valparaíso|San Antonio|Cartagena|2009-2010|QIULLAICILLO|2010-01-04|19:40|102.0|Sin alerta|No definido|Incendios intencionales|0.0|0.0|0.0|0.7|0.0|0.0|0.3|1.0|0.0|0.0|2.0|-33.50888888888889|-71.50305555555556|WGS84
Valparaíso|San Antonio|San Antonio|2009-2010|LAS PALMAS|2010-01-05|01:30|540.0|Sin alerta|No definido|Incendios intencionales|0.0|0.0|0.0|0.1|0.0|0.0|0.2|0.2|0.0|0.0|0.5|-33.771388888888886|-71.44583333333334|WGS84
Valparaíso|San Antonio|Cartagena|2009-2010|QUILLAICILLO|2010-01-05|08:30|120.0|Sin alerta|No definido|Actividades recreativas|0.0|0.0|460.4|541.0|0.0|408.7|1129.9|102.4|0.0|0.0|2642.4|-33.499722222222225|-71.50277777777778|WGS84
Valparaíso|San Antonio|El Tabo|2009-2010|AGUA LUNA|2010-01-05|12:15|35.0|Sin alerta|No definido|Tránsito de personasvehículos o aeronaves|0.0|0.0|0.0|0.0|0.0|0.0|0.02|0.04|0.0|0.0|0.06|-33.46055555555556|-71.65222222222222|WGS84
Valparaíso|Valparaíso|Valparaíso|2009-2010|SAN ROQUE|2010-01-05|14:21|138.0|Sin alerta|No definido|Actividades recreativas|0.0|0.0|0.0|0.0|0.0|0.0|0.01|0.01|0.0|0.0|0.02|-33.07416666666666|-71.58694444444444|WGS84
Valparaíso|Marga Marga|Quilpué|2009-2010|FUNDO EL REBAÑO|2010-01-05|15:13|86.0|Sin alerta|No definido|Actividades recreativas|0.0|0.0|0.0|0.0|0.0|0.3|0.6|0.6|0.0|0.0|1.5|-33.04972222222222|-71.45777777777778|WGS84
Valparaíso|Valparaíso|Valparaíso|2009-2010|FUNDO OBREGON|2010-01-05|14:45|310.0|Sin alerta|No definido|Tránsito de personasvehículos o aeronaves|0.0|0.0|0.0|1.0|0.0|0.0|1.8|0.0|0.0|1.4|4.199999999999999|-33.15416666666667|-71.6536111111111|WGS84
Valparaíso|Valparaíso|Viña del Mar|2009-2010|SAUSALITO|2010-01-06|16:03|241.0|Sin alerta|No definido|Actividades recreativas|0.0|0.0|0.0|1.0|0.0|0.0|2.0|5.0|0.0|0.0|8.0|-33.00333333333333|-71.53138888888888|WGS84
Valparaíso|Petorca|Cabildo|2009-2010|SAN LORENZO|2010-01-05|13:20|385.0|Sin alerta|No definido|Quema de desechos|0.0|0.0|0.0|0.0|0.0|0.0|3.0|2.0|0.0|0.0|5.0|-32.41777777777778|-71.00472222222223|WGS84
Valparaíso|Marga Marga|Quilpué|2009-2010|LOMAS DEL SOL|2010-01-06|14:13|127.0|Sin alerta|No definido|Actividades recreativas|0.0|0.0|0.0|0.0|0.0|0.0|0.4|0.6|0.0|0.0|1.0|-33.0325|-71.42527777777778|WGS84
Valparaíso|San Antonio|Cartagena|2009-2010|CAPELLANIA|2010-01-07|12:40|75.0|Sin alerta|No definido|Incendios intencionales|0.0|0.0|0.0|0.5|0.0|0.0|0.3|1.2|0.0|0.0|2.0|-33.54361111111111|-71.56861111111111|WGS84
Valparaíso|Petorca|La Ligua|2009-2010|VILLA FERTIL|2010-01-07|14:47|48.0|Sin alerta|No definido|Actividades recreativas|0.0|0.0|0.0|0.0|0.0|0.0|0.02|0.03|0.0|0.0|0.05|-32.458888888888886|-71.23944444444444|WGS84
Valparaíso|Marga Marga|Olmué|2009-2010|LAS ROSAS|2010-01-07|15:36|244.0|Sin alerta|No definido|Tránsito de personasvehículos o aeronaves|0.0|0.0|0.0|0.0|0.0|0.0|1.0|2.0|0.0|0.0|3.0|-33.056111111111115|-71.11527777777778|WGS84
Valparaíso|Valparaíso|Casablanca|2009-2010|QUILPILCHO|2010-01-08|14:15|1128.0|Sin alerta|No definido|Tránsito de personasvehículos o aeronaves|0.0|1.0|0.0|0.8|0.0|0.7|0.0|0.0|0.0|0.0|2.5|-33.22027777777778|-71.50555555555556|WGS84
Valparaíso|San Antonio|San Antonio|2009-2010|FUNDO DE LLO LLEO|2010-01-08|12:55|193.0|Sin alerta|No definido|Incendios intencionales|0.0|0.0|0.0|0.03|0.0|0.0|0.0|0.0|0.0|0.0|0.03|-33.60611111111111|-71.59194444444445|WGS84
Valparaíso|Marga Marga|Olmué|2009-2010|EL TEBAL|2010-01-08|13:53|151.0|Sin alerta|No definido|Incendios intencionales|0.0|0.0|0.0|0.0|0.0|0.0|5.0|12.0|0.0|0.0|17.0|-33.056111111111115|-71.11527777777778|WGS84
Valparaíso|Valparaíso|Valparaíso|2009-2010|LAGUNA VERDE|2010-01-08|16:04|1019.0|Sin alerta|No definido|Incendios intencionales|0.0|18.0|0.0|0.0|0.0|0.0|0.0|1.0|0.0|0.0|19.0|-33.12638888888889|-71.685|WGS84
Valparaíso|San Antonio|San Antonio|2009-2010|PELANCURA|2010-01-08|16:10|120.0|Sin alerta|No definido|Incendios intencionales|0.0|0.0|0.0|0.03|0.0|0.0|0.0|0.02|0.0|0.0|0.05|-33.56944444444444|-71.62333333333333|WGS84
Valparaíso|San Antonio|San Antonio|2009-2010|FUNDO DE LLO LLEO|2010-01-08|17:30|270.0|Sin alerta|No definido|Incendios intencionales|0.0|0.0|0.0|0.0|0.0|0.0|5.0|15.0|0.0|0.0|20.0|-33.61527777777778|-71.59222222222222|WGS84
Valparaíso|San Antonio|Cartagena|2009-2010|LAS BERBENAS|2010-01-09|12:16|44.0|Sin alerta|No definido|Actividades recreativas|0.0|0.0|0.0|0.0|0.0|0.0|0.0|0.06|0.0|0.0|0.06|-33.54333333333334|-71.57944444444445|WGS84
Valparaíso|San Antonio|Cartagena|2009-2010|LEYDA|2010-01-09|14:50|158.0|Sin alerta|No definido|Tránsito de personasvehículos o aeronaves|0.0|0.0|0.0|8.0|0.0|0.0|0.0|2.5|0.0|0.0|10.5|-33.60888888888889|-71.45194444444445|WGS84
Valparaíso|San Antonio|San Antonio|2009-2010|VISTA HERMOSA|2010-01-10|09:50|550.0|Sin alerta|No definido|Actividades recreativas|0.0|0.0|0.0|4.0|0.0|0.0|0.0|5.5|0.0|0.0|9.5|-33.56055555555555|-71.61222222222223|WGS84
Valparaíso|Valparaíso|Quintero|2009-2010|VALLE ALEGRE|2010-01-10|13:45|344.0|Sin alerta|No definido|Incendios intencionales|0.0|0.0|0.0|4.0|0.0|0.0|11.0|16.0|0.0|0.0|31.0|-32.81611111111111|-71.41944444444445|WGS84
Valparaíso|San Antonio|San Antonio|2009-2010|VISTA HERMOSA 2|2010-01-10|15:13|47.0|Sin alerta|No definido|Actividades recreativas|0.0|0.0|0.0|0.05|0.0|0.0|0.0|0.15|0.0|0.0|0.2|-33.56055555555555|-71.61222222222223|WGS84
Valparaíso|Valparaíso|Viña del Mar|2009-2010|EL OLIVAR|2010-01-11|15:46|62.0|Sin alerta|No definido|Actividades recreativas|0.0|0.0|0.0|0.0|0.0|0.0|0.01|0.05|0.0|0.0|0.06|-33.03111111111111|-71.5|WGS84
Valparaíso|San Antonio|San Antonio|2009-2010|CERRO LA VIRGEN|2010-01-11|14:30|165.0|Sin alerta|No definido|Actividades recreativas|0.0|0.0|0.0|0.0|0.0|0.0|0.15|0.7|0.0|0.0|0.85|-33.569722222222225|-71.6125|WGS84
Valparaíso|San Antonio|Santo Domingo|2009-2010|PARCELA MIRADOR EL YALI|2010-01-11|17:47|1303.0|Sin alerta|No definido|Actividades recreativas|0.0|0.0|0.0|3.0|0.0|0.0|0.2|8.2|0.0|0.0|11.4|-33.80388888888889|-71.61972222222222|WGS84
Valparaíso|San Antonio|San Antonio|2009-2010|FUNDO MIRAMAR|2010-01-11|18:40|130.0|Sin alerta|No definido|Incendios intencionales|0.0|0.0|0.0|0.0|0.0|0.0|0.0|5.0|0.0|0.0|5.0|-33.57944444444445|-71.58055555555555|WGS84
Valparaíso|Marga Marga|Quilpué|2009-2010|VILLA OLIMPICA|2010-01-12|14:00|36.0|Sin alerta|No definido|Quema de desechos|0.0|0.0|0.0|0.0|0.0|0.0|0.01|0.03|0.0|0.0|0.04|-33.04972222222222|-71.45777777777778|WGS84
Valparaíso|San Antonio|San Antonio|2009-2010|FUNDO MIRAMAR|2010-01-12|14:20|80.0|Sin alerta|No definido|Incendios intencionales|0.0|0.0|0.05|0.0|0.0|0.0|0.0|0.0|0.0|0.0|0.05|-33.58805555555556|-71.59138888888889|WGS84
Valparaíso|Valparaíso|Viña del Mar|2009-2010|LUSITANIA|2010-01-12|15:53|50.0|Sin alerta|No definido|Quema de desechos|0.0|0.0|0.0|0.0|0.0|0.0|0.1|0.1|0.0|0.0|0.2|-33.03055555555556|-71.5213888888889|WGS84
Valparaíso|San Antonio|San Antonio|2009-2010|HOLANDA|2010-01-12|15:45|30.0|Sin alerta|No definido|Otras actividades|0.0|0.0|0.0|0.0|0.0|0.0|0.0|0.01|0.0|0.0|0.01|-33.57|-71.60166666666667|WGS84
Valparaíso|Petorca|La Ligua|2009-2010|LAS CHACARILLAS|2010-01-12|15:50|60.0|Sin alerta|No definido|Tránsito de personasvehículos o aeronaves|0.0|0.0|0.0|0.0|0.0|0.0|0.2|0.3|0.0|0.0|0.5|-32.435|-71.2286111111111|WGS84
Valparaíso|Valparaíso|Viña del Mar|2009-2010|GOMEZ CARREÑO|2010-01-12|17:42|67.0|Sin alerta|No definido|Quema de desechos|0.0|0.0|0.0|0.0|0.0|0.0|0.03|0.05|0.0|0.0|0.08|-32.994166666666665|-71.54194444444444|WGS84
Valparaíso|Petorca|La Ligua|2009-2010|VILLA FERTIL|2010-01-12|19:02|42.0|Sin alerta|No definido|Tránsito de personasvehículos o aeronaves|0.0|0.0|0.0|0.0|0.0|0.0|0.01|0.01|0.0|0.0|0.02|-32.435|-71.2286111111111|WGS84
Valparaíso|Petorca|Cabildo|2009-2010|LA VEGA BAJA|2010-01-12|19:30|75.0|Sin alerta|No definido|Tránsito de personasvehículos o aeronaves|0.0|0.0|0.0|0.0|0.0|0.0|0.0|0.04|0.06|0.0|0.1|-32.41833333333334|-70.96222222222222|WGS84
Valparaíso|Marga Marga|Villa Alemana|2009-2010|CERRO LA VIRGEN|2010-01-13|12:30|45.0|Sin alerta|No definido|Actividades recreativas|0.0|0.0|0.0|35.0|0.0|0.0|70.0|30.0|0.0|0.0|135.0|-33.02472222222222|-71.36083333333333|WGS84
Valparaíso|Valparaíso|Casablanca|2009-2010|LO VASQUEZ|2010-01-13|15:45|1060.0|Sin alerta|No definido|Incendios intencionales|0.0|0.0|0.0|2.0|0.0|10.0|7.0|11.0|0.0|0.0|30.0|-33.257777777777775|-71.43138888888889|WGS84
Valparaíso|Valparaíso|Valparaíso|2009-2010|LOMA NEGRA|2010-01-13|15:55|280.0|Sin alerta|No definido|Incendios intencionales|0.0|0.0|0.0|0.06|0.0|0.0|0.0|0.0|0.0|0.0|0.06|-33.10194444444444|-71.55583333333334|WGS84
Valparaíso|San Antonio|Santo Domingo|2009-2010|PARCELA 3 SANTA BLANCA|2010-01-13|15:38|72.0|Sin alerta|No definido|Tránsito de personasvehículos o aeronaves|0.0|0.0|0.0|0.0|0.0|0.0|0.0|0.0|0.0|3.11|3.11|-33.78666666666667|-71.57583333333334|WGS84
Valparaíso|Petorca|La Ligua|2009-2010|EL RAYADO|2010-01-14|14:07|65.0|Sin alerta|No definido|Tránsito de personasvehículos o aeronaves|0.0|0.0|0.0|0.0|0.0|0.0|0.0|0.2|0.0|0.0|0.2|-32.45861111111111|-71.25027777777778|WGS84
Valparaíso|San Antonio|San Antonio|2009-2010|SAN JUAN PARCELA Nº 74|2010-01-15|13:20|120.0|Sin alerta|No definido|Tránsito de personasvehículos o aeronaves|0.0|0.0|0.0|0.1|0.0|0.0|0.0|0.2|0.0|0.0|0.3|-33.634166666666665|-71.54972222222223|WGS84
Valparaíso|Valparaíso|Quintero|2009-2010|PUNTA DE PIEDRA|2010-01-15|15:25|176.0|Sin alerta|No definido|Actividades recreativas|0.0|0.0|0.0|0.0|0.0|0.0|0.01|0.01|0.0|0.0|0.02|-32.88666666666667|-71.50666666666666|WGS84
Valparaíso|Quillota|Nogales|2009-2010|ALTO PUCALAN|2010-01-15|15:55|1175.0|Sin alerta|No definido|Incendios intencionales|0.0|0.0|0.0|0.0|0.0|37.0|15.9|15.0|0.0|0.0|67.9|-32.66583333333333|-71.26611111111112|WGS84
Valparaíso|San Antonio|San Antonio|2009-2010|FUNDO MIRAMAR|2010-01-16|08:00|270.0|Sin alerta|No definido|Actividades recreativas|0.0|0.0|0.25|0.0|0.0|0.0|0.0|0.0|0.0|0.0|0.25|-33.57888888888889|-71.60194444444444|WGS84
Valparaíso|Valparaíso|Valparaíso|2009-2010|R.N.L.P|2010-01-16|22:50|964.0|Sin alerta|No definido|Incendios intencionales|0.0|0.0|0.0|1.09|0.0|0.0|0.0|0.01|0.0|0.0|1.1|-33.129444444444445|-71.535|WGS84
Valparaíso|Valparaíso|Valparaíso|2009-2010|CORRALILLO R.N.L.P|2010-01-17|13:31|183.0|Sin alerta|No definido|Incendios intencionales|0.0|0.0|0.0|0.0|0.0|0.0|0.0|0.0|0.0|0.01|0.01|-33.1475|-71.53555555555556|WGS84
Valparaíso|Valparaíso|Concón|2009-2010|PARCELA 119|2010-01-17|14:05|176.0|Sin alerta|No definido|Incendios intencionales|0.0|0.11|0.0|0.0|0.0|0.0|0.0|0.1|0.0|0.0|0.21|-32.958333333333336|-71.53027777777778|WGS84
Valparaíso|Valparaíso|Casablanca|2009-2010|CUESTA PANGAL|2010-01-17|15:13|197.0|Sin alerta|No definido|Incendios intencionales|0.0|0.0|0.0|0.0|0.0|0.2|0.2|0.3|0.0|0.0|0.7|-33.420833333333334|-71.39305555555555|WGS84
Valparaíso|Petorca|Papudo|2009-2010|PULLALLY|2010-01-18|12:45|67.0|Sin alerta|No definido|Tránsito de personasvehículos o aeronaves|0.0|0.0|0.0|0.0|0.0|0.0|0.3|0.7|0.0|0.0|1.0|-32.430277777777775|-71.32388888888889|WGS84
Valparaíso|San Antonio|San Antonio|2009-2010|SAN JUAN|2010-01-18|15:00|85.0|Sin alerta|No definido|No definida|0.0|0.0|0.0|0.02|0.0|0.0|0.08|0.2|0.0|0.0|0.3|-33.660833333333336|-71.56138888888889|WGS84
Valparaíso|Valparaíso|Valparaíso|2009-2010|LAGUNA SECA CURAUMILLA|2010-01-18|17:31|109.0|Sin alerta|No definido|Actividades recreativas|0.0|0.0|0.0|0.0|0.0|0.0|0.0|0.0|0.0|0.1|0.1|-33.13527777777778|-71.68527777777778|WGS84
Valparaíso|Valparaíso|Concón|2009-2010|PARCELA LOS PINOS|2010-01-19|13:22|107.0|Sin alerta|No definido|Quema de desechos|0.0|0.0|0.05|0.0|0.0|0.0|0.0|0.05|0.0|0.0|0.1|-32.958333333333336|-71.53027777777778|WGS84
Valparaíso|Valparaíso|Viña del Mar|2009-2010|PALMAS CHILENAS 3|2010-01-19|13:49|171.0|Sin alerta|No definido|Incendios intencionales|0.0|0.0|0.0|0.0|0.0|0.0|0.25|0.15|0.0|0.0|0.4|-33.05722222222222|-71.5436111111111|WGS84
Valparaíso|Quillota|Nogales|2009-2010|LAS PATAGUAS|2010-01-19|14:59|416.0|Sin alerta|No definido|No definida|0.0|0.0|0.0|0.0|0.0|5.0|5.0|10.0|0.0|0.0|20.0|-32.613055555555555|-71.17944444444444|WGS84
Valparaíso|Valparaíso|Valparaíso|2009-2010|PARCELA ASERRIN|2010-01-19|15:18|77.0|Sin alerta|No definido|Tránsito de personasvehículos o aeronaves|0.0|0.0|0.0|0.01|0.0|0.0|0.0|0.02|0.0|0.0|0.03|-33.12916666666667|-71.54583333333333|WGS84
Valparaíso|Valparaíso|Valparaíso|2009-2010|CERRO ALEGRE|2010-01-19|17:50|89.0|Sin alerta|No definido|Incendios intencionales|0.0|0.0|0.0|0.0|0.0|0.0|0.0|0.13|0.0|0.0|0.13|-33.04638888888889|-71.62916666666666|WGS84
Valparaíso|Marga Marga|Quilpué|2009-2010|TRANQUE LAS VACAS|2010-01-20|14:20|78.0|Sin alerta|No definido|Actividades recreativas|0.0|0.0|0.0|0.04|0.0|0.0|0.0|0.01|0.0|0.0|0.05|-33.068888888888885|-71.40472222222222|WGS84
Valparaíso|Valparaíso|Valparaíso|2009-2010|CUESTA BALMACEDA|2010-01-20|14:40|170.0|Sin alerta|No definido|Incendios intencionales|0.0|0.0|0.0|0.2|0.0|0.0|0.0|0.1|0.0|0.0|0.3|-33.10111111111111|-71.59861111111111|WGS84
Valparaíso|Marga Marga|Quilpué|2009-2010|BELLOTO NORTE|2010-01-20|15:09|196.0|Sin alerta|No definido|Incendios intencionales|0.0|0.0|0.0|794.52|0.0|264.84|198.63|66.21|0.0|0.0|1324.1999999999998|-33.02361111111111|-71.41416666666667|WGS84
Valparaíso|Marga Marga|Olmué|2009-2010|PELUMPEN|2010-01-20|15:18|1074.0|Sin alerta|No definido|Tránsito de personasvehículos o aeronaves|0.0|0.0|0.0|0.0|0.0|150.0|70.0|30.0|0.0|0.0|250.0|-33.02|-71.12527777777778|WGS84
Valparaíso|Valparaíso|Valparaíso|2009-2010|LA ISLA|2010-01-20|15:23|38.0|Sin alerta|No definido|Actividades recreativas|0.0|0.0|0.0|0.0|0.0|0.0|0.0|0.01|0.0|0.0|0.01|-33.07416666666666|-71.58694444444444|WGS84
Valparaíso|Valparaíso|Casablanca|2009-2010|LA VINILLA|2010-01-20|16:00|44.0|Sin alerta|No definido|Tránsito de personasvehículos o aeronaves|0.0|0.0|0.0|0.1|0.0|0.0|0.0|0.05|0.0|0.0|0.15|-33.35944444444444|-71.30527777777777|WGS84
Valparaíso|Marga Marga|Villa Alemana|2009-2010|PARCELA SAN ISIDRO|2010-01-20|16:18|260.0|Sin alerta|No definido|Actividades recreativas|0.0|0.0|0.0|0.0|0.0|0.0|10.0|15.0|0.0|0.0|25.0|-33.03388888888889|-71.35027777777778|WGS84
Valparaíso|Marga Marga|Olmué|2009-2010|EL ROMERAL|2010-01-20|15:55|170.0|Sin alerta|No definido|Tránsito de personasvehículos o aeronaves|0.0|0.0|0.0|0.0|0.0|0.0|1.0|2.0|0.0|0.0|3.0|-33.00083333333333|-71.17833333333333|WGS84
Valparaíso|Petorca|La Ligua|2009-2010|PICHILEMU|2010-01-20|15:05|90.0|Sin alerta|No definido|Tránsito de personasvehículos o aeronaves|0.0|0.0|0.0|0.0|0.0|0.0|0.0|2.0|0.0|0.0|2.0|-32.38861111111111|-71.13138888888889|WGS84
Valparaíso|San Antonio|Cartagena|2009-2010|LA MARINA|2010-01-20|17:53|52.0|Sin alerta|No definido|Actividades recreativas|0.0|0.0|0.0|0.0|0.0|0.0|0.0|0.02|0.0|0.0|0.02|-33.55166666666667|-71.61194444444445|WGS84
