Región|Provincia|Comuna|Temporada|Nombre|Fecha|Hora inicio|Duración (minutos)|Alerta|Escenario|Causa|Superficie quemada: Pino A [ha]|Superficie quemada: Pino B [ha]|Superficie quemada: Pino C [ha]|Superficie quemada: Eucalípto [ha]|Superficie quemada: Otras plantas [ha]|Superficie quemada: Arbolado [ha]|Superficie quemada: Matorral [ha]|Superficie quemada: Pastizal [ha]|Superficie quemada: Agrícola [ha]|Superficie quemada: Desechos [ha]|Superficie quemada total [ha]|Latitud|Longitud|Datum
Coquimbo|Choapa|Salamanca|2011-2012|COIRON|2011-11-01|12:00|60.0|Sin alerta|No definido|Actividades recreativas|0.0|0.0|0.0|0.0|0.0|18.0|10.0|4.0|0.0|0.0|32.0|-31.91583333333333|-70.79277777777777|WGS84
Coquimbo|Elqui|La Serena|2011-2012|SAN JOAQUÍN|2011-11-03|16:00|150.0|Sin alerta|No definido|Incendios de causa desconocida|0.0|0.0|0.0|0.0|0.0|0.0|0.1|0.4|0.0|0.0|0.5|-29.92388888888889|-71.25305555555556|WGS84
Coquimbo|Limarí|Monte Patria|2011-2012|LA GALLARDINA|2011-11-14|14:00|63.0|Sin alerta|No definido|Incendios de causa desconocida|0.0|0.0|0.0|0.0|0.0|3.0|6.0|1.1|0.0|0.0|10.1|-30.85138888888889|-70.78305555555555|WGS84
Coquimbo|Limarí|Ovalle|2011-2012|LAGUNILLAS|2011-11-15|16:40|60.0|Sin alerta|No definido|Tránsito de personasvehículos o aeronaves|0.0|0.0|0.0|0.0|0.0|0.0|0.01|0.0|0.0|0.0|0.01|-30.601666666666667|-71.19555555555556|WGS84
Coquimbo|Limarí|Rio Hurtado|2011-2012|HUANPULLA|2011-11-18|18:00|995.0|Sin alerta|No definido|Quema de desechos|0.0|0.0|0.0|0.0|0.0|0.1|0.1|0.0|0.0|0.0|0.2|-30.433611111111112|-70.97333333333333|WGS84
Coquimbo|Elqui|La Serena|2011-2012|FUNDO LORETO|2011-11-19|13:30|260.0|Sin alerta|No definido|Incendios intencionales|0.0|0.0|0.0|0.0|0.0|0.0|0.8|1.2|0.0|0.0|2.0|-29.925833333333337|-71.13916666666667|WGS84
Coquimbo|Elqui|Andacollo|2011-2012|EL MANZANO|2011-11-21|13:00|1380.0|Sin alerta|No definido|Incendios de causa desconocida|0.0|0.0|0.0|0.0|0.0|0.0|30.0|320.0|0.0|0.0|350.0|-30.15027777777778|-71.2063888888889|WGS84
Coquimbo|Limarí|Ovalle|2011-2012|LA PLACA|2011-11-21|14:30|1335.0|Sin alerta|No definido|Incendios intencionales|0.0|0.0|0.0|3.0|0.0|2.0|0.0|1.0|0.0|0.0|6.0|-30.62555555555556|-71.37361111111112|WGS84
Coquimbo|Limarí|Ovalle|2011-2012|LA PUNTILLA|2011-11-24|16:05|215.0|Sin alerta|No definido|Incendios intencionales|0.0|0.0|0.0|0.0|0.0|1.0|1.0|0.5|0.0|0.0|2.5|-30.601666666666667|-71.18527777777778|WGS84
Coquimbo|Limarí|Ovalle|2011-2012|EL INGENIO|2011-11-29|18:00|1005.0|Sin alerta|No definido|Incendios de causa desconocida|0.0|0.0|0.0|0.3|0.0|0.0|0.5|0.0|0.0|0.0|0.8|-30.574444444444445|-71.195|WGS84
Coquimbo|Limarí|Punitaqui|2011-2012|EL LLANITO|2011-12-03|13:00|300.0|Sin alerta|No definido|Incendios de causa desconocida|0.0|0.0|0.0|0.0|0.0|0.0|2.0|3.0|0.0|0.0|5.0|-30.83361111111111|-71.33666666666667|WGS84
Coquimbo|Limarí|Ovalle|2011-2012|LA CHIMBA|2011-12-03|19:00|150.0|Sin alerta|No definido|Incendios intencionales|0.0|0.0|0.0|0.0|0.0|0.0|0.2|0.3|0.0|0.0|0.5|-30.63722222222222|-71.22777777777777|WGS84
Coquimbo|Elqui|La Serena|2011-2012|QUILACÁN|2011-12-07|11:00|0.0|Sin alerta|No definido|Quema de desechos|0.0|0.0|0.0|0.0|0.0|0.0|30.0|70.0|0.0|0.0|100.0|-29.9525|-71.16055555555556|WGS84
Coquimbo|Limarí|Monte Patria|2011-2012|FLOR DEL VALLE|2011-12-09|17:30|240.0|Sin alerta|No definido|Incendios intencionales|0.0|0.0|0.0|1.0|0.0|0.0|0.0|0.0|0.0|0.0|1.0|-30.71444444444445|-70.90583333333333|WGS84
Coquimbo|Limarí|Ovalle|2011-2012|EL NARANJO|2011-12-12|18:00|85.0|Sin alerta|No definido|Faenas agrícolas y pecuarias|0.0|0.0|0.0|0.0|0.0|0.0|0.5|0.5|0.0|0.0|1.0|-30.602222222222224|-71.16444444444444|WGS84
Coquimbo|Limarí|Ovalle|2011-2012|VILLA EL PORTAL|2011-12-16|19:40|70.0|Sin alerta|No definido|Faenas agrícolas y pecuarias|0.0|0.0|0.0|0.0|0.0|0.0|0.01|0.0|0.0|0.0|0.01|-30.61944444444444|-71.2063888888889|WGS84
Coquimbo|Limarí|Ovalle|2011-2012|LAS BRUJAS|2011-12-18|14:00|290.0|Sin alerta|No definido|Incendios intencionales|0.0|0.0|0.0|0.0|0.0|0.5|0.5|6.0|0.0|0.0|7.0|-30.5925|-71.20583333333333|WGS84
Coquimbo|Limarí|Ovalle|2011-2012|LOS PEÑONES|2011-12-20|12:30|320.0|Sin alerta|No definido|Incendios intencionales|0.0|0.0|0.0|3.0|0.0|0.0|0.0|0.0|0.0|0.0|3.0|-30.601666666666667|-71.18527777777778|WGS84
Coquimbo|Limarí|Ovalle|2011-2012|COSTANERA|2011-12-20|18:04|146.0|Sin alerta|No definido|Incendios intencionales|0.0|0.0|0.0|1.0|0.0|0.0|2.0|0.0|0.0|0.0|3.0|-30.619166666666665|-71.21694444444445|WGS84
Coquimbo|Elqui|Coquimbo|2011-2012|PORTAL DE GUANAQUEROS|2011-12-21|18:00|210.0|Sin alerta|No definido|Quema de desechos|0.0|0.0|0.0|0.0|0.0|0.0|2.0|3.0|0.0|0.0|5.0|-30.21888888888889|-71.41555555555556|WGS84
Coquimbo|Elqui|Coquimbo|2011-2012|EL SAUCE|2011-12-22|12:30|330.0|Sin alerta|No definido|Quema de desechos|0.0|0.0|0.0|0.0|0.0|0.0|2.0|10.0|0.0|0.0|12.0|-29.98611111111111|-71.31666666666666|WGS84
Coquimbo|Limarí|Ovalle|2011-2012|COSTANERA I|2011-12-23|14:30|104.0|Sin alerta|No definido|Incendios de causa desconocida|0.0|0.0|0.0|0.0|0.0|0.0|1.0|0.0|0.0|0.0|1.0|-30.61944444444444|-71.2063888888889|WGS84
Coquimbo|Limarí|Ovalle|2011-2012|LA MONTURA|2011-12-24|12:55|275.0|Sin alerta|No definido|Faenas agrícolas y pecuarias|0.0|0.0|0.0|0.0|0.0|0.0|5.0|10.0|0.0|0.0|15.0|-30.609722222222224|-71.24805555555555|WGS84
Coquimbo|Limarí|Ovalle|2011-2012|ESPINAL DE SOTAQUÍ|2011-12-25|16:00|1170.0|Sin alerta|No definido|Incendios intencionales|0.0|0.0|0.0|1.0|0.0|0.0|1.0|2.0|0.0|0.0|4.0|-30.638888888888893|-71.12333333333333|WGS84
Coquimbo|Elqui|La Serena|2011-2012|CERRO GRANDE|2011-12-26|21:50|670.0|Sin alerta|No definido|Actividades recreativas|0.0|0.0|0.0|0.0|0.0|0.0|0.3|0.7|0.0|0.0|1.0|-29.933055555555555|-71.25333333333333|WGS84
Coquimbo|Elqui|La Serena|2011-2012|EL HINOJAL|2011-12-27|14:00|190.0|Sin alerta|No definido|Quema de desechos|0.0|0.0|0.0|0.0|0.0|0.0|0.1|0.4|0.0|0.0|0.5|-29.999166666666667|-71.06833333333333|WGS84
Coquimbo|Limarí|Ovalle|2011-2012|ESPINAL DE SOTAQUÍ I|2011-12-27|16:10|190.0|Sin alerta|No definido|Incendios de causa desconocida|0.0|0.0|0.0|0.0|0.0|1.5|0.0|0.0|0.0|0.0|1.5|-30.638888888888893|-71.12333333333333|WGS84
Coquimbo|Elqui|La Serena|2011-2012|ISLÓN|2011-12-31|14:00|360.0|Sin alerta|No definido|Quema de desechos|0.0|0.0|0.0|0.0|0.0|0.0|0.0|0.01|0.0|0.0|0.01|-29.89805555555556|-71.19027777777778|WGS84
Coquimbo|Elqui|La Serena|2011-2012|EL SANTO|2012-01-02|15:00|110.0|Sin alerta|No definido|Incendios intencionales|0.0|0.0|0.0|0.0|0.0|0.0|0.0|0.9|0.0|0.0|0.9|-29.92388888888889|-71.26333333333334|WGS84
Coquimbo|Limarí|Ovalle|2011-2012|CHIMBA I|2012-01-02|18:00|1082.0|Sin alerta|No definido|Incendios de causa desconocida|0.0|0.0|0.0|3.2|0.0|0.0|0.0|0.0|0.0|0.0|3.2|-30.63722222222222|-71.22777777777777|WGS84
Coquimbo|Choapa|Illapel|2011-2012|CANELILLO|2012-01-02|12:45|75.0|Sin alerta|No definido|Quema de desechos|0.0|0.0|0.0|0.0|0.0|0.0|0.0|2.0|0.0|0.0|2.0|-31.66555555555556|-71.20972222222223|WGS84
Coquimbo|Elqui|Coquimbo|2011-2012|LAS CONCHILLAS|2012-01-04|13:00|136.0|Sin alerta|No definido|Quema de desechos|0.0|0.0|0.0|0.0|0.0|0.0|0.5|1.0|0.0|0.0|1.5|-29.995|-71.31694444444445|WGS84
Coquimbo|Elqui|La Serena|2011-2012|LA VARILLA|2012-01-05|15:00|77.0|Sin alerta|No definido|Incendios intencionales|0.0|0.0|0.0|0.0|0.0|0.0|0.0|0.5|0.0|0.0|0.5|-29.915|-71.25277777777778|WGS84
Coquimbo|Limarí|Ovalle|2011-2012|BOSQUE LAS BRUJAS|2012-01-05|15:15|175.0|Sin alerta|No definido|Incendios intencionales|0.0|0.0|0.0|0.0|0.0|0.0|1.0|2.0|0.0|0.0|3.0|-30.619722222222222|-71.18555555555555|WGS84
Coquimbo|Elqui|La Serena|2011-2012|LOS ARRAYANES|2012-01-06|19:00|88.0|Sin alerta|No definido|Incendios intencionales|0.0|0.0|0.0|0.0|0.0|0.0|0.0|0.1|0.0|0.0|0.1|-29.932777777777773|-71.27388888888889|WGS84
Coquimbo|Elqui|La Serena|2011-2012|BAHÍA ARRAYÁN|2012-01-08|11:00|114.0|Sin alerta|No definido|Quema de desechos|0.0|0.0|0.0|0.0|0.0|0.0|0.2|0.3|0.0|0.0|0.5|-29.724444444444444|-71.32111111111111|WGS84
Coquimbo|Elqui|La Serena|2011-2012|LA VARILLA I|2012-01-08|17:00|120.0|Sin alerta|No definido|Incendios intencionales|0.0|0.0|0.0|0.05|0.05|0.0|0.0|0.0|0.0|0.0|0.1|-29.914722222222224|-71.26333333333334|WGS84
Coquimbo|Limarí|Ovalle|2011-2012|SAN JULIÁN|2012-01-09|13:30|250.0|Sin alerta|No definido|Incendios intencionales|0.0|0.0|0.0|0.0|0.0|1.0|2.0|0.0|0.0|0.0|3.0|-30.65361111111111|-71.31166666666667|WGS84
Coquimbo|Limarí|Ovalle|2011-2012|FUNDO CHALÁN|2012-01-10|13:30|120.0|Sin alerta|No definido|Incendios intencionales|0.0|0.0|0.0|0.0|0.0|0.0|0.05|0.0|0.0|0.0|0.05|-30.636666666666663|-71.25888888888889|WGS84
Coquimbo|Elqui|La Serena|2011-2012|PORTAL DEL ARTESANO|2012-01-12|18:00|128.0|Sin alerta|No definido|Quema de desechos|0.0|0.0|0.0|0.0|0.0|0.0|0.0|0.0|0.0|0.1|0.1|-29.99|-71.07833333333333|WGS84
Coquimbo|Elqui|Coquimbo|2011-2012|PAN DE AZÚCAR|2012-01-15|13:00|91.0|Sin alerta|No definido|Incendios de causa desconocida|0.0|0.0|0.0|0.0|0.0|0.0|0.0|1.0|0.0|0.0|1.0|-30.014166666666668|-71.255|WGS84
Coquimbo|Elqui|La Serena|2011-2012|PAMPA ALTA|2012-01-15|17:30|80.0|Sin alerta|No definido|Incendios intencionales|0.0|0.0|0.0|0.0|0.0|0.0|0.0|0.01|0.0|0.0|0.01|-29.905555555555555|-71.27333333333333|WGS84
Coquimbo|Limarí|Ovalle|2011-2012|ESPINAL DE SOTAQUÍ II|2012-01-17|16:00|210.0|Sin alerta|No definido|Incendios intencionales|0.0|0.0|0.0|0.0|0.0|0.0|3.1|5.0|0.0|0.0|8.1|-30.63861111111111|-71.13388888888889|WGS84
Coquimbo|Limarí|Ovalle|2011-2012|LA CHIMBA II|2012-01-19|16:10|160.0|Sin alerta|No definido|Incendios intencionales|0.0|0.0|0.0|0.0|0.0|0.0|0.01|0.0|0.0|0.0|0.01|-30.636944444444445|-71.23805555555556|WGS84
Coquimbo|Elqui|La Higuera|2011-2012|MAITENES ALTOS|2012-01-21|14:00|105.0|Sin alerta|No definido|Actividades recreativas|0.0|0.0|0.0|0.0|0.0|0.0|70.0|130.0|0.0|0.0|200.0|-29.51111111111112|-71.12|WGS84
Coquimbo|Limarí|Ovalle|2011-2012|SOTAQUI|2012-01-21|17:00|120.0|Sin alerta|No definido|Incendios de causa desconocida|0.0|0.0|0.0|0.0|0.0|0.0|1.0|0.0|0.0|0.0|1.0|-30.638888888888893|-71.12333333333333|WGS84
Coquimbo|Choapa|Los Vilos|2011-2012|FUNDO CARACAS|2012-01-21|15:15|345.0|Sin alerta|No definido|Accidentes eléctricos|0.0|0.0|0.0|0.0|0.0|0.0|1.2|0.51|0.0|0.0|1.71|-31.92194444444445|-71.49083333333333|WGS84
Coquimbo|Elqui|La Serena|2011-2012|EL ROSARIO|2012-01-23|12:00|277.0|Sin alerta|No definido|Quema de desechos|0.0|0.0|0.0|0.0|0.0|0.0|0.09|0.0|0.0|0.01|0.0999999999999999|-29.971111111111107|-71.12972222222223|WGS84
Coquimbo|Elqui|Coquimbo|2011-2012|TAMBILLOS|2012-01-23|18:00|91.0|Sin alerta|No definido|Quema de desechos|0.0|0.0|0.0|0.0|0.0|0.0|0.1|0.6|0.0|0.0|0.7|-30.212222222222223|-71.28027777777778|WGS84
Coquimbo|Elqui|La Serena|2011-2012|FUNDO LORETO|2012-01-25|14:00|195.0|Sin alerta|No definido|Otras actividades|0.0|0.0|0.0|0.0|0.0|0.0|0.5|0.3|0.0|0.0|0.8|-29.90777777777777|-71.14916666666667|WGS84
Coquimbo|Limarí|Ovalle|2011-2012|ESTANCIA GUALLILLINGA|2012-01-27|14:30|240.0|Sin alerta|No definido|Incendios de causa desconocida|0.0|0.0|0.0|0.0|0.0|1.0|7.0|9.0|0.0|0.0|17.0|-30.66611111111111|-71.11361111111111|WGS84
Coquimbo|Limarí|Ovalle|2011-2012|SANTA CATALINA|2012-01-29|14:30|198.0|Sin alerta|No definido|Incendios intencionales|0.0|0.0|0.0|0.0|0.0|0.3|0.4|0.5|0.0|0.0|1.2|-30.630277777777778|-71.1025|WGS84
Coquimbo|Elqui|La Serena|2011-2012|LA CACHINA|2012-02-02|12:00|140.0|Sin alerta|No definido|Quema de desechos|0.0|0.0|0.0|0.0|0.0|0.0|3.0|5.0|0.0|0.0|8.0|-29.989444444444445|-71.10944444444445|WGS84
Coquimbo|Elqui|La Serena|2011-2012|LA FLORIDA|2012-02-05|13:00|315.0|Sin alerta|No definido|Incendios de causa desconocida|0.0|0.0|0.0|0.2|0.0|0.0|0.1|0.2|0.0|0.0|0.5|-29.924444444444447|-71.2325|WGS84
Coquimbo|Limarí|Ovalle|2011-2012|FUNDO SOC. AGRÍC. CERRILLOS TAMAYA|2012-02-07|14:30|110.0|Sin alerta|No definido|Incendios de causa desconocida|0.0|0.0|0.0|0.5|0.0|0.0|0.0|0.0|0.0|0.0|0.5|-30.58|-71.39333333333333|WGS84
Coquimbo|Elqui|La Serena|2011-2012|ALTOVALSOL|2012-02-07|15:10|50.0|Sin alerta|No definido|Actividades recreativas|0.0|0.0|0.0|0.0|0.0|0.0|0.0|0.01|0.0|0.0|0.01|-29.935|-71.13944444444445|WGS84
Coquimbo|Elqui|La Serena|2011-2012|ISLÓN I|2012-02-12|10:30|103.0|Sin alerta|No definido|Quema de desechos|0.0|0.0|0.0|0.0|0.0|0.0|0.02|0.0|0.0|0.0|0.02|-29.89805555555556|-71.19027777777778|WGS84
Coquimbo|Elqui|La Serena|2011-2012|PARQUE COLL|2012-02-13|15:40|86.0|Sin alerta|No definido|Quema de desechos|0.0|0.0|0.0|0.0|0.0|0.0|0.0|0.04|0.0|0.0|0.04|-29.924166666666668|-71.24277777777777|WGS84
Coquimbo|Elqui|La Serena|2011-2012|VEGAS SUR|2012-02-13|18:00|81.0|Sin alerta|No definido|Incendios de causa desconocida|0.0|0.0|0.0|0.0|0.0|0.0|0.0|0.01|0.0|0.0|0.01|-29.905555555555555|-71.27333333333333|WGS84
Coquimbo|Elqui|Coquimbo|2011-2012|RINCONADA MIRAMAR|2012-02-16|14:00|1372.0|Sin alerta|No definido|Quema de desechos|0.0|0.0|0.0|0.0|0.0|0.0|35.0|35.0|0.0|0.0|70.0|-29.98611111111111|-71.31666666666666|WGS84
Coquimbo|Elqui|La Serena|2011-2012|QUEBRADA EL MILAGRO|2012-02-17|10:30|275.0|Sin alerta|No definido|Incendios de causa desconocida|0.0|0.0|0.0|0.0|0.0|0.0|0.0|0.5|0.0|0.0|0.5|-29.951666666666668|-71.22277777777778|WGS84
Coquimbo|Elqui|Coquimbo|2011-2012|NUEVA VIDA|2012-02-24|10:00|180.0|Sin alerta|No definido|Incendios intencionales|0.0|0.0|0.0|0.0|0.0|0.0|0.0|0.1|0.0|0.0|0.1|-30.09583333333333|-71.23611111111111|WGS84
Coquimbo|Limarí|Ovalle|2011-2012|FUNDO TABALÍ|2012-02-25|15:20|280.0|Sin alerta|No definido|Incendios de causa desconocida|0.0|0.0|0.0|0.0|0.0|2.0|0.0|0.0|0.0|0.0|2.0|-30.633611111111115|-71.41527777777777|WGS84
Coquimbo|Elqui|Coquimbo|2011-2012|LOMAS DE GUANAQUEROS|2012-02-28|18:30|1360.0|Sin alerta|No definido|Accidentes eléctricos|0.0|0.0|0.0|0.0|0.0|0.0|30.0|60.0|0.0|0.0|90.0|-30.22833333333333|-71.38472222222222|WGS84
Coquimbo|Limarí|Ovalle|2011-2012|QUEBRADA EL INGENIO|2012-03-04|17:30|30.0|Sin alerta|No definido|Incendios intencionales|0.0|0.0|0.0|0.0|0.0|3.0|7.0|10.0|0.0|0.0|20.0|-30.583333333333336|-71.20555555555555|WGS84
Coquimbo|Choapa|Illapel|2011-2012|QUEBRADA LO GALLARDO|2012-03-12|15:45|1155.0|Sin alerta|No definido|Incendios de causa desconocida|0.0|0.0|0.0|0.0|0.0|1.0|2.0|2.0|0.0|0.0|5.0|-31.567499999999995|-71.15472222222222|WGS84
Coquimbo|Limarí|Ovalle|2011-2012|LA CHIMBA III|2012-03-13|17:30|180.0|Sin alerta|No definido|Incendios de causa desconocida|0.0|0.0|0.0|1.5|0.0|0.0|0.0|0.0|0.0|0.0|1.5|-30.64555555555556|-71.25916666666667|WGS84
Coquimbo|Elqui|Coquimbo|2011-2012|TAMBILLOS|2012-03-18|14:30|110.0|Sin alerta|No definido|Tránsito de personasvehículos o aeronaves|0.0|0.0|0.0|0.0|0.0|0.0|0.0|0.5|0.0|0.0|0.5|-30.20361111111111|-71.24916666666667|WGS84
Coquimbo|Choapa|Salamanca|2011-2012|ASOCIACION PEREZ CAMPO|2012-03-20|17:45|80.0|Sin alerta|No definido|Actividades recreativas|0.0|0.0|0.0|0.0|0.0|0.0|0.2|0.8|0.0|0.0|1.0|-31.81305555555555|-71.02305555555556|WGS84
Coquimbo|Elqui|La Serena|2011-2012|LA QUEBRADA|2012-04-13|13:00|173.0|Sin alerta|No definido|Incendios de causa desconocida|0.0|0.0|0.0|0.1|0.0|0.0|0.0|0.4|0.0|0.0|0.5|-29.933611111111112|-71.21194444444444|WGS84
Coquimbo|Elqui|Coquimbo|2011-2012|LOS PRADOS DE PEÑUELAS|2012-04-14|17:50|100.0|Sin alerta|No definido|Tránsito de personasvehículos o aeronaves|0.0|0.0|0.0|0.0|0.0|0.0|0.0|0.0|0.0|0.1|0.1|-29.96055555555555|-71.21833333333333|WGS84
Coquimbo|Limarí|Ovalle|2011-2012|ALGARROBO|2012-04-17|18:00|105.0|Sin alerta|No definido|Tránsito de personasvehículos o aeronaves|0.0|0.0|0.0|0.0|0.0|0.0|0.01|0.0|0.0|0.0|0.01|-30.51305555555556|-71.085|WGS84
Coquimbo|Elqui|La Serena|2011-2012|QUILACAN 1|2012-04-21|12:50|130.0|Sin alerta|No definido|Incendios de causa desconocida|0.0|0.0|0.0|0.0|0.0|0.0|1.7|0.3|0.0|0.0|2.0|-29.9525|-71.16055555555556|WGS84
Coquimbo|Choapa|Los Vilos|2011-2012|PANGALILLO|2012-05-08|13:00|245.0|Sin alerta|No definido|Faenas agrícolas y pecuarias|0.0|0.0|0.0|0.0|0.0|0.0|0.0|0.01|0.0|0.0|0.01|-32.08777777777778|-71.31527777777778|WGS84
Coquimbo|Elqui|La Serena|2011-2012|PARQUE COLL 1|2012-06-13|10:00|215.0|Sin alerta|No definido|Incendios intencionales|0.0|0.0|0.0|0.15|0.0|0.0|0.03|0.02|0.0|0.0|0.1999999999999999|-29.90611111111112|-71.25277777777778|WGS84
Valparaíso|Valparaíso|Casablanca|2011-2012|QUEPILCH|2011-09-01|15:20|210.0|Sin alerta|No definido|Faenas agrícolas y pecuarias|0.0|0.0|0.0|0.0|0.0|0.0|1.5|0.0|0.0|0.5|2.0|-33.22277777777778|-71.49694444444444|WGS84
Valparaíso|Valparaíso|Valparaíso|2011-2012|QUEBRADA VERDE|2011-09-08|13:30|180.0|Sin alerta|No definido|Incendios intencionales|0.0|0.0|0.0|1.0|0.0|0.0|0.1|0.0|0.0|0.4|1.5|-33.0825|-71.61666666666666|WGS84
Valparaíso|Valparaíso|Valparaíso|2011-2012|NUEVO PLACILLA|2011-09-12|16:30|1210.0|Sin alerta|No definido|Incendios intencionales|0.0|0.0|0.0|0.01|0.0|4.56|0.0|0.08|0.0|0.0|4.65|-32.74138888888889|-70.74527777777777|WGS84
Valparaíso|San Felipe de Aconcagua|San Felipe|2011-2012|FUNDO GRANEROS EL TOTORAL|2011-09-13|16:44|1066.0|Sin alerta|No definido|Tránsito de personasvehículos o aeronaves|0.0|0.0|0.0|6.1|0.0|22.8|0.0|10.4|0.0|1.3|40.6|-32.73166666666667|-70.735|WGS84
Valparaíso|San Antonio|Algarrobo|2011-2012|EL MANZANO|2011-09-27|14:30|130.0|Sin alerta|No definido|Tránsito de personasvehículos o aeronaves|0.0|0.0|0.0|1.0|0.0|0.0|0.0|0.0|0.0|0.0|1.0|-33.38027777777778|-71.62333333333333|WGS84
Valparaíso|Petorca|La Ligua|2011-2012|CASAS VIEJAS LONGOTOMA|2011-09-28|12:36|147.0|Sin alerta|No definido|Incendios intencionales|0.0|0.0|0.0|0.4|0.0|0.5|0.9|0.0|0.0|0.0|1.8|-32.33972222222222|-71.31583333333333|WGS84
Valparaíso|Valparaíso|Puchuncavi|2011-2012|CAMPICHE 2|2011-10-08|12:18|251.0|Sin alerta|No definido|Actividades recreativas|0.0|1.0|0.0|0.5|0.0|0.0|0.0|0.5|0.0|0.0|2.0|-32.72805555555556|-71.44166666666666|WGS84
Valparaíso|Valparaíso|Valparaíso|2011-2012|CERRO LA CRUZ|2011-10-09|11:07|93.0|Sin alerta|No definido|Tránsito de personasvehículos o aeronaves|0.0|0.0|0.0|0.15|0.0|0.0|0.0|0.0|0.0|0.0|0.15|-33.07666666666667|-71.61305555555556|WGS84
Valparaíso|Valparaíso|Valparaíso|2011-2012|CERRO JIMENEZ|2011-10-10|14:49|219.0|Sin alerta|No definido|Tránsito de personasvehículos o aeronaves|0.0|0.0|0.0|0.7|0.0|0.0|0.1|0.0|0.0|0.0|0.7999999999999999|-33.06472222222222|-71.63166666666666|WGS84
Valparaíso|Valparaíso|Valparaíso|2011-2012|FUNDO EL LLANO|2011-10-10|15:38|117.0|Sin alerta|No definido|Tránsito de personasvehículos o aeronaves|0.03|0.0|0.0|0.0|0.0|0.0|0.0|0.0|0.0|0.0|0.03|-33.1275|-71.58194444444445|WGS84
Valparaíso|San Felipe de Aconcagua|Catemu|2011-2012|SECTOR LA REDONDA|2011-10-10|14:10|215.0|Sin alerta|No definido|Tránsito de personasvehículos o aeronaves|0.0|0.0|0.0|3.0|0.0|0.0|0.0|0.0|0.0|0.0|3.0|-32.76694444444445|-70.84916666666666|WGS84
Valparaíso|Valparaíso|Valparaíso|2011-2012|FUNDO EL LLANO|2011-10-14|13:35|111.0|Sin alerta|No definido|Tránsito de personasvehículos o aeronaves|0.0|0.0|0.0|0.0|0.0|0.0|0.0|0.02|0.0|0.03|0.05|-33.12722222222222|-71.58194444444445|WGS84
Valparaíso|Valparaíso|Valparaíso|2011-2012|EL PALMAR R.N.L.P|2011-10-28|13:00|56.0|Sin alerta|No definido|Tránsito de personasvehículos o aeronaves|0.0|0.0|0.0|0.0|0.0|0.0|0.0|0.03|0.0|0.0|0.03|-33.19611111111111|-71.49305555555556|WGS84
Valparaíso|Valparaíso|Valparaíso|2011-2012|LAS LATAS R.N.L.P|2011-11-01|19:20|1260.0|Sin alerta|No definido|Tránsito de personasvehículos o aeronaves|0.02|0.0|0.0|0.0|0.0|0.05|0.15|0.2|0.0|0.0|0.42|-33.14277777777778|-71.51583333333333|WGS84
Valparaíso|Valparaíso|Valparaíso|2011-2012|CAMINO LOS LOBOS|2011-11-02|16:45|160.0|Sin alerta|No definido|Incendios intencionales|0.0|0.07|0.0|0.0|0.0|0.1|0.1|0.1|0.0|0.0|0.37|-33.11361111111111|-71.67277777777778|WGS84
Valparaíso|Valparaíso|Valparaíso|2011-2012|NUEVO PLACILLA|2011-11-03|16:05|105.0|Sin alerta|No definido|Actividades recreativas|0.0|0.0|0.0|0.0|0.0|0.0|0.03|0.0|0.0|0.03|0.06|-33.12277777777778|-71.55083333333333|WGS84
Valparaíso|Valparaíso|Valparaíso|2011-2012|NUEVO PLACILLA II|2011-11-03|18:30|43.0|Sin alerta|No definido|Actividades recreativas|0.0|0.0|0.0|0.02|0.0|0.0|0.0|0.0|0.0|0.0|0.02|-33.1125|-71.55666666666667|WGS84
Valparaíso|Valparaíso|Quintero|2011-2012|EL MAUCO|2011-11-05|15:20|161.0|Sin alerta|No definido|Tránsito de personasvehículos o aeronaves|0.0|0.0|0.0|0.1|0.0|0.0|0.0|0.4|0.0|0.2|0.7|-32.903888888888886|-71.45527777777778|WGS84
Valparaíso|San Antonio|Cartagena|2011-2012|QUEBRADA SAN JOSE|2011-11-05|17:20|62.0|Sin alerta|No definido|Incendios intencionales|0.0|0.0|0.0|0.0|0.0|0.0|0.0|0.01|0.0|0.0|0.01|-33.560833333333335|-71.60138888888889|WGS84
Valparaíso|Marga Marga|Quilpué|2011-2012|LINCOYAN|2011-11-05|18:20|100.0|Sin alerta|No definido|Actividades recreativas|0.0|0.0|0.0|0.0|0.0|0.0|0.5|1.5|0.0|0.0|2.0|-33.02555555555556|-71.40166666666667|WGS84
Valparaíso|San Antonio|El Tabo|2011-2012|LAS CRUCES|2011-11-06|11:40|40.0|Sin alerta|No definido|Tránsito de personasvehículos o aeronaves|0.0|0.0|0.0|0.02|0.0|0.0|0.0|0.01|0.0|0.0|0.03|-33.492777777777775|-71.60944444444445|WGS84
Valparaíso|Valparaíso|Valparaíso|2011-2012|NUEVO PLACILLA|2011-11-06|12:25|99.0|Sin alerta|No definido|Actividades recreativas|0.0|0.0|0.0|0.02|0.0|0.0|0.0|0.1|0.0|0.0|0.12|-33.1225|-71.5525|WGS84
Valparaíso|Valparaíso|Valparaíso|2011-2012|TRANQUE LOS PERALES|2011-11-06|12:30|118.0|Sin alerta|No definido|Tránsito de personasvehículos o aeronaves|0.0|0.0|0.0|0.06|0.0|0.0|0.0|0.2|0.0|0.0|0.26|-33.12277777777778|-71.54888888888888|WGS84
Valparaíso|San Antonio|Algarrobo|2011-2012|AGUAS MARINAS|2011-11-06|15:10|60.0|Sin alerta|No definido|Tránsito de personasvehículos o aeronaves|0.0|0.0|0.0|0.0|0.0|0.03|0.0|0.07|0.0|0.0|0.1|-33.359722222222224|-71.65222222222222|WGS84
Valparaíso|San Antonio|El Tabo|2011-2012|VILLA EL TABO|2011-11-06|19:35|43.0|Sin alerta|No definido|Tránsito de personasvehículos o aeronaves|0.0|0.0|0.0|0.0|0.0|0.0|0.01|0.02|0.0|0.0|0.03|-33.44416666666667|-71.66916666666667|WGS84
Valparaíso|San Antonio|Santo Domingo|2011-2012|SAN ENRIQUE|2011-11-09|14:30|1308.0|Sin alerta|No definido|Quema de desechos|1.5|0.0|0.0|0.0|0.0|0.0|0.5|2.0|0.0|0.0|4.0|-33.91111111111111|-71.6661111111111|WGS84
Valparaíso|San Felipe de Aconcagua|San Felipe|2011-2012|PANQUEHUE|2011-11-09|17:10|136.0|Sin alerta|No definido|Tránsito de personasvehículos o aeronaves|0.0|0.0|0.0|0.5|0.0|0.0|0.0|1.5|0.0|0.0|2.0|-32.76638888888889|-70.83722222222222|WGS84
Valparaíso|San Antonio|Algarrobo|2011-2012|CRUCE ALGARROBO|2011-11-10|12:11|69.0|Sin alerta|No definido|Quema de desechos|0.0|0.03|0.0|0.0|0.0|0.0|0.04|0.0|0.0|0.0|0.07|-33.37972222222222|-71.63916666666667|WGS84
Valparaíso|San Antonio|San Antonio|2011-2012|CANCHA TORINO|2011-11-10|13:15|80.0|Sin alerta|No definido|Incendios intencionales|0.0|0.0|0.0|0.0|0.0|0.0|0.0|0.22|0.0|0.0|0.22|-33.60583333333334|-71.60277777777777|WGS84
Valparaíso|Valparaíso|Valparaíso|2011-2012|PORVENIR BAJO|2011-11-10|17:00|65.0|Sin alerta|No definido|Tránsito de personasvehículos o aeronaves|0.0|0.0|0.0|0.0|0.0|0.0|0.0|0.2|0.0|0.0|0.2|-33.03|-71.65444444444445|WGS84
Valparaíso|San Antonio|San Antonio|2011-2012|VISTA HERMOSA|2011-11-10|18:25|71.0|Sin alerta|No definido|Incendios intencionales|0.0|0.0|0.0|0.0|0.0|0.0|0.0|0.1|0.0|0.0|0.1|-33.56055555555555|-71.61222222222223|WGS84
Valparaíso|Valparaíso|Viña del Mar|2011-2012|LAJARILLA|2011-11-10|21:20|83.0|Sin alerta|No definido|Incendios intencionales|0.1|0.0|0.0|0.0|0.0|0.0|0.0|0.0|0.0|0.05|0.15|-32.98361111111111|-71.48972222222223|WGS84
Valparaíso|San Antonio|San Antonio|2011-2012|FUNDO MIRAMAR|2011-11-11|10:00|150.0|Sin alerta|No definido|Incendios intencionales|0.0|0.0|0.15|0.0|0.0|0.0|0.0|0.0|0.0|0.0|0.15|-33.58805555555556|-71.59138888888889|WGS84
Valparaíso|San Antonio|El Tabo|2011-2012|LA QUEBRADA|2011-11-11|16:00|65.0|Sin alerta|No definido|Actividades recreativas|0.0|0.0|0.0|0.0|0.0|0.0|0.8|0.0|0.0|0.0|0.8|-33.47027777777778|-71.62027777777777|WGS84
Valparaíso|San Antonio|San Antonio|2011-2012|FUNDO  LLO LLEO|2011-11-12|20:00|863.0|Sin alerta|No definido|Incendios intencionales|0.0|0.0|0.15|0.0|0.0|0.0|0.0|0.2|0.0|0.0|0.35|-33.60638888888889|-71.5813888888889|WGS84
Valparaíso|Valparaíso|Viña del Mar|2011-2012|LAJARILLA|2011-11-13|11:45|135.0|Sin alerta|No definido|Incendios intencionales|0.0|0.0|0.0|0.0|0.0|0.0|0.05|0.15|0.0|0.0|0.2|-32.97638888888889|-71.49138888888889|WGS84
Valparaíso|San Antonio|San Antonio|2011-2012|FUNDO LLO LLEO|2011-11-13|13:35|90.0|Sin alerta|No definido|Incendios intencionales|0.0|0.0|0.1|0.0|0.0|0.0|0.0|0.15|0.0|0.0|0.25|-33.60638888888889|-71.5813888888889|WGS84
Valparaíso|San Antonio|San Antonio|2011-2012|FUNDO MIRAMAR|2011-11-13|14:50|105.0|Sin alerta|No definido|Actividades recreativas|0.0|0.0|0.16|0.0|0.0|0.0|0.0|0.0|0.0|0.0|0.16|-33.58805555555556|-71.59138888888889|WGS84
Valparaíso|Marga Marga|Quilpué|2011-2012|FUNDO LOS QUILLAYES|2011-11-14|10:23|82.0|Sin alerta|No definido|Tránsito de personasvehículos o aeronaves|0.0|0.0|0.0|0.0|0.0|0.0|0.0|0.25|0.0|0.0|0.25|-33.15055555555556|-71.3425|WGS84
Valparaíso|San Antonio|San Antonio|2011-2012|FUNDO MIRAMAR|2011-11-14|09:30|160.0|Sin alerta|No definido|Actividades recreativas|0.0|0.0|0.14|0.0|0.0|0.0|0.0|0.0|0.0|0.0|0.14|-33.58805555555556|-71.59138888888889|WGS84
Valparaíso|Valparaíso|Viña del Mar|2011-2012|FUNDO SIETE HERMANAS|2011-11-14|10:40|91.0|Sin alerta|No definido|Tránsito de personasvehículos o aeronaves|0.0|0.0|0.0|0.0|0.0|0.0|0.0|0.01|0.0|0.0|0.01|-33.0325|-71.55111111111111|WGS84
Valparaíso|Marga Marga|Quilpué|2011-2012|FUNDO LAS PALMAS|2011-11-14|19:25|91.0|Sin alerta|No definido|Tránsito de personasvehículos o aeronaves|0.0|0.0|0.0|0.0|0.0|0.05|0.1|0.1|0.0|0.05|0.3|-33.09|-71.40305555555555|WGS84
Valparaíso|San Antonio|El Tabo|2011-2012|QUILLAICILLO|2011-11-15|14:45|103.0|Sin alerta|No definido|Tránsito de personasvehículos o aeronaves|0.0|0.0|0.0|0.1|0.0|0.0|0.02|0.25|0.0|0.0|0.37|-33.499722222222225|-71.50277777777778|WGS84
Valparaíso|Valparaíso|Viña del Mar|2011-2012|SECTOR FAUNA  JARDIN BOTANICO|2011-11-15|18:10|101.0|Sin alerta|No definido|Tránsito de personasvehículos o aeronaves|0.0|0.0|0.0|0.0|0.0|0.5|0.0|1.0|0.0|0.0|1.5|-33.04194444444445|-71.51361111111112|WGS84
Valparaíso|Marga Marga|Quilpué|2011-2012|EL BASURAL|2011-11-17|14:20|122.0|Sin alerta|No definido|Incendios intencionales|0.0|0.0|0.0|0.0|0.0|0.0|0.05|0.15|0.0|0.05|0.25|-33.026944444444446|-71.4113888888889|WGS84
Valparaíso|San Antonio|Algarrobo|2011-2012|LAS BALANDRAS|2011-11-17|14:15|90.0|Sin alerta|No definido|Incendios intencionales|0.0|0.0|0.0|0.0|0.0|0.0|0.2|0.4|0.0|0.0|0.6000000000000001|-33.38805555555555|-71.67138888888888|WGS84
Valparaíso|San Antonio|El Quisco|2011-2012|SANTA LUISA|2011-11-17|14:29|127.0|Sin alerta|No definido|Quema de desechos|0.0|0.0|0.0|0.16|0.0|0.0|0.0|0.0|0.0|0.0|0.16|-33.43805555555556|-71.66833333333334|WGS84
Valparaíso|Marga Marga|Quilpué|2011-2012|PARCELA EL SAUCE|2011-11-17|15:45|87.0|Sin alerta|No definido|Incendios intencionales|0.0|0.0|0.0|0.0|0.0|0.0|0.05|0.05|0.0|0.0|0.1|-33.02916666666667|-71.42444444444445|WGS84
Valparaíso|Valparaíso|Valparaíso|2011-2012|SECTOR LA LAGUNA|2011-11-17|19:18|94.0|Sin alerta|No definido|Tránsito de personasvehículos o aeronaves|0.0|0.02|0.0|0.0|0.0|0.0|0.0|0.0|0.0|0.0|0.02|-33.1275|-71.67916666666666|WGS84
Valparaíso|San Antonio|El Quisco|2011-2012|MAQUIHUANO|2011-11-18|14:15|85.0|Sin alerta|No definido|Quema de desechos|0.01|0.0|0.0|0.0|0.0|0.0|0.0|0.01|0.0|0.0|0.02|-33.26222222222222|-71.65694444444445|WGS84
Valparaíso|San Antonio|San Antonio|2011-2012|FUNDO DE LLO LLEO|2011-11-18|16:30|105.0|Sin alerta|No definido|Incendios intencionales|0.0|0.0|0.0|0.02|0.0|0.0|0.0|0.03|0.0|0.0|0.05|-33.61527777777778|-71.59222222222222|WGS84
Valparaíso|San Antonio|San Antonio|2011-2012|PUERTO NUEVO|2011-11-18|16:40|55.0|Sin alerta|No definido|Tránsito de personasvehículos o aeronaves|0.0|0.0|0.0|0.0|0.0|0.0|0.0|0.01|0.0|0.0|0.01|-33.590833333333336|-71.625|WGS84
Valparaíso|Marga Marga|Quilpué|2011-2012|FRUTILLAR|2011-11-19|15:50|90.0|Sin alerta|No definido|Incendios intencionales|0.0|0.0|0.0|0.0|0.0|0.0|0.0|1.55|0.0|0.0|1.55|-33.029444444444444|-71.40472222222222|WGS84
Valparaíso|San Antonio|San Antonio|2011-2012|FUNDO DE LLO LLEO|2011-11-20|14:20|68.0|Sin alerta|No definido|Actividades recreativas|0.0|0.0|0.0|0.01|0.0|0.0|0.0|0.02|0.0|0.0|0.03|-33.60611111111111|-71.59194444444445|WGS84
Valparaíso|Valparaíso|Casablanca|2011-2012|PARCELAS DE PASO HONDO|2011-11-21|12:20|55.0|Sin alerta|No definido|Accidentes eléctricos|0.0|0.0|0.0|0.0|0.0|0.02|0.0|0.03|0.0|0.0|0.05|-33.223055555555554|-71.475|WGS84
Valparaíso|Marga Marga|Villa Alemana|2011-2012|FUNDO EL TRIANGULO|2011-11-21|13:15|47.0|Sin alerta|No definido|Incendios intencionales|0.0|0.0|0.0|0.0|0.0|0.0|0.0|1.0|0.0|0.0|1.0|-33.073055555555555|-71.36833333333334|WGS84
Valparaíso|Marga Marga|Quilpué|2011-2012|AVICOLA EL HORIZONTE|2011-11-21|14:40|50.0|Sin alerta|No definido|Incendios intencionales|0.0|0.0|0.0|0.0|0.0|0.0|0.0|0.08|0.0|0.0|0.08|-33.123333333333335|-71.3561111111111|WGS84
Valparaíso|Marga Marga|Villa Alemana|2011-2012|FUNDO EL TRIANGULO|2011-11-22|18:00|28.0|Sin alerta|No definido|Incendios intencionales|0.0|0.0|0.0|0.0|0.0|0.0|0.1|0.1|0.0|0.0|0.2|-33.07388888888889|-71.35166666666667|WGS84
Valparaíso|Marga Marga|Villa Alemana|2011-2012|LA OBRA|2011-11-22|18:00|1080.0|Sin alerta|No definido|Tránsito de personasvehículos o aeronaves|0.0|0.0|0.0|0.0|0.0|0.0|1.8|3.0|0.0|0.0|4.8|-33.02972222222222|-71.37416666666667|WGS84
Valparaíso|San Antonio|San Antonio|2011-2012|FUNDO MIRAMAR|2011-11-23|11:30|158.0|Sin alerta|No definido|Tránsito de personasvehículos o aeronaves|0.0|0.0|0.2|0.0|0.0|0.0|0.0|0.0|0.0|0.0|0.2|-33.58805555555556|-71.59138888888889|WGS84
Valparaíso|Marga Marga|Quilpué|2011-2012|LA AGUADA|2011-11-23|12:55|87.0|Sin alerta|No definido|Tránsito de personasvehículos o aeronaves|0.0|0.0|0.0|0.0|0.0|0.0|0.0|0.6|0.0|0.0|0.6|-33.0625|-71.41638888888889|WGS84
Valparaíso|Valparaíso|Casablanca|2011-2012|LA RETAMA|2011-11-23|13:15|140.0|Sin alerta|No definido|Tránsito de personasvehículos o aeronaves|0.0|0.0|0.0|0.0|0.0|0.0|0.0|3.0|0.0|0.0|3.0|-33.300555555555555|-71.29472222222222|WGS84
Valparaíso|Quillota|Quillota|2011-2012|SAN ISIDRO|2011-11-23|14:55|140.0|Sin alerta|No definido|Incendios intencionales|0.0|0.0|0.0|5.0|0.0|0.0|15.0|17.0|0.0|0.0|37.0|-32.91583333333333|-71.22583333333333|WGS84
Valparaíso|Quillota|Quillota|2011-2012|LA PALMA|2011-11-23|16:10|116.0|Sin alerta|No definido|Tránsito de personasvehículos o aeronaves|0.0|0.0|0.0|0.0|0.0|0.0|0.0|1.0|0.9|0.0|1.9|-32.882777777777775|-71.2311111111111|WGS84
Valparaíso|Valparaíso|Valparaíso|2011-2012|SENDERO LAS DOCAS|2011-11-24|13:50|151.0|Sin alerta|No definido|Incendios intencionales|0.07|0.0|0.0|0.0|0.0|0.0|0.0|0.0|0.0|0.0|0.07|-33.169444444444444|-71.67416666666666|WGS84
Valparaíso|Valparaíso|Valparaíso|2011-2012|SEGUNDO SECTOR CORVI|2011-11-24|17:00|52.0|Sin alerta|No definido|Actividades recreativas|0.0|0.0|0.0|0.0|0.0|0.0|0.0|0.1|0.0|0.0|0.1|-33.04277777777778|-71.65472222222222|WGS84
Valparaíso|San Antonio|Algarrobo|2011-2012|LAS BALANDRAS|2011-11-24|19:00|50.0|Sin alerta|No definido|Tránsito de personasvehículos o aeronaves|0.0|0.0|0.9|0.0|0.0|0.0|0.0|0.0|0.0|0.0|0.9|-33.37916666666667|-71.67111111111112|WGS84
Valparaíso|Quillota|Quillota|2011-2012|GRANADEROS|2011-11-25|14:00|160.0|Sin alerta|No definido|Incendios intencionales|0.0|0.0|0.0|0.05|0.0|0.0|0.05|0.0|0.0|0.0|0.1|-32.91444444444444|-71.22833333333334|WGS84
Valparaíso|Marga Marga|Villa Alemana|2011-2012|JOHN KENNEDY|2011-11-25|14:40|137.0|Sin alerta|No definido|Actividades recreativas|0.0|0.0|0.0|0.0|0.0|0.0|0.0|1.03|0.0|0.0|1.03|-33.05638888888889|-71.38388888888889|WGS84
Valparaíso|San Antonio|San Antonio|2011-2012|FUNDO LLO LLEO|2011-11-25|17:05|40.0|Sin alerta|No definido|Tránsito de personasvehículos o aeronaves|0.0|0.0|0.0|0.1|0.0|0.0|0.0|0.25|0.0|0.0|0.35|-33.60583333333334|-71.60277777777777|WGS84
Valparaíso|Marga Marga|Quilpué|2011-2012|FINAL JOSE URIBE|2011-11-25|17:50|139.0|Sin alerta|No definido|Incendios intencionales|0.0|0.0|0.0|0.0|0.0|1.0|1.0|3.0|0.0|0.0|5.0|-33.02916666666667|-71.41277777777778|WGS84
Valparaíso|San Antonio|San Antonio|2011-2012|PIEDRA DEL INDIO|2011-11-26|12:50|90.0|Sin alerta|No definido|Actividades recreativas|0.0|0.0|0.0|0.0|0.0|0.0|0.0|1.0|0.0|0.0|1.0|-33.61527777777778|-71.59222222222222|WGS84
Valparaíso|San Antonio|El Tabo|2011-2012|QUEBRADA HONDA|2011-11-26|13:30|130.0|Sin alerta|No definido|Incendios intencionales|0.1|0.0|0.0|0.2|0.0|0.0|0.0|0.25|0.0|0.0|0.55|-33.4425|-71.6625|WGS84
Valparaíso|San Antonio|San Antonio|2011-2012|FUNDO LLO LLEO|2011-11-26|13:58|22.0|Sin alerta|No definido|Actividades recreativas|0.0|0.0|0.0|0.01|0.0|0.0|0.0|0.0|0.0|0.0|0.01|-33.60611111111111|-71.59194444444445|WGS84
Valparaíso|Marga Marga|Quilpué|2011-2012|TENIENTE SERRANO|2011-11-26|18:20|100.0|Sin alerta|No definido|Tránsito de personasvehículos o aeronaves|0.0|0.0|0.0|0.0|0.0|0.0|0.0|1.38|0.0|0.0|1.38|-33.05166666666667|-71.40972222222223|WGS84
Valparaíso|Marga Marga|Quilpué|2011-2012|TENIENTE SERRANO II|2011-11-26|18:20|125.0|Sin alerta|No definido|Tránsito de personasvehículos o aeronaves|0.0|0.0|0.0|0.0|0.0|0.0|0.0|0.04|0.0|0.0|0.04|-33.066944444444445|-71.41222222222223|WGS84
Valparaíso|Quillota|Nogales|2011-2012|LA PEÑA|2011-11-27|14:35|245.0|Sin alerta|No definido|Incendios intencionales|0.0|0.0|0.0|0.0|0.0|0.0|0.2|0.1|0.0|0.0|0.3|-32.74527777777778|-71.17194444444445|WGS84
Valparaíso|Valparaíso|Viña del Mar|2011-2012|DU PLISA EL OLIVAR|2011-11-27|15:35|58.0|Sin alerta|No definido|Incendios intencionales|0.0|0.0|0.0|0.0|0.0|0.0|0.01|0.02|0.0|0.0|0.03|-33.02611111111111|-71.4925|WGS84
Valparaíso|San Antonio|Cartagena|2011-2012|PARCELACION SANTA GEMITA|2011-11-27|18:08|40.0|Sin alerta|No definido|Incendios intencionales|0.0|0.0|0.0|0.0|0.0|0.0|0.01|0.0|0.0|0.0|0.01|-33.55222222222222|-71.59055555555555|WGS84
Valparaíso|San Antonio|San Antonio|2011-2012|FUNDO LLO LLEO|2011-11-27|18:40|71.0|Sin alerta|No definido|Incendios intencionales|0.0|0.0|0.0|0.05|0.0|0.0|0.0|0.0|0.0|0.0|0.05|-33.60611111111111|-71.59194444444445|WGS84
Valparaíso|Marga Marga|Quilpué|2011-2012|AVICOLA  HORIZONTE|2011-11-28|14:00|87.0|Sin alerta|No definido|Incendios intencionales|0.0|0.0|0.0|0.0|0.0|0.0|0.0|0.7|0.0|0.0|0.7|-33.07361111111111|-71.39277777777778|WGS84
Valparaíso|San Antonio|San Antonio|2011-2012|FUNDO LLO LLEO|2011-11-28|14:00|130.0|Sin alerta|No definido|Actividades recreativas|0.0|0.0|0.0|2.4|0.0|0.0|0.0|1.5|0.0|0.0|3.9|-33.61527777777778|-71.59222222222222|WGS84
Valparaíso|San Antonio|Cartagena|2011-2012|21 DE MAYO|2011-11-28|17:43|52.0|Sin alerta|No definido|Incendios intencionales|0.0|0.0|0.0|0.0|0.0|0.0|0.0|0.3|0.0|0.0|0.3|-33.55166666666667|-71.61194444444445|WGS84
Valparaíso|Marga Marga|Villa Alemana|2011-2012|SECTOR LOS PROFESORES|2011-11-28|17:40|90.0|Sin alerta|No definido|Incendios intencionales|0.0|0.0|0.0|0.0|0.0|0.0|0.5|1.0|0.0|0.0|1.5|-33.028888888888886|-71.36333333333333|WGS84
Valparaíso|Marga Marga|Quilpué|2011-2012|LOS PINOS|2011-11-28|18:36|34.0|Sin alerta|No definido|Tránsito de personasvehículos o aeronaves|0.0|0.0|0.0|0.01|0.0|0.0|0.0|0.0|0.0|0.0|0.01|-33.0675|-71.42027777777778|WGS84
Valparaíso|Valparaíso|Viña del Mar|2011-2012|LAJARILLA|2011-11-29|11:50|81.0|Sin alerta|No definido|Incendios intencionales|0.0|0.0|0.0|0.0|0.0|0.0|0.1|0.3|0.0|0.0|0.4|-32.98583333333333|-71.49277777777777|WGS84
Valparaíso|Marga Marga|Quilpué|2011-2012|OASIS BELLOTO NORTE|2011-11-29|13:25|85.0|Sin alerta|No definido|Tránsito de personasvehículos o aeronaves|0.0|0.0|0.0|0.0|0.0|0.0|0.2|0.5|0.0|0.0|0.7|-33.028333333333336|-71.40555555555555|WGS84
Valparaíso|Valparaíso|Casablanca|2011-2012|TAPIHUE|2011-11-29|14:55|135.0|Sin alerta|No definido|Accidentes eléctricos|0.0|0.0|0.0|0.0|0.0|0.0|0.0|0.0|0.0|3.0|3.0|-33.29944444444445|-71.295|WGS84
Valparaíso|Marga Marga|Limache|2011-2012|LA ISLA|2011-11-29|15:50|47.0|Sin alerta|No definido|Incendios intencionales|0.0|0.0|0.0|0.0|0.0|0.0|0.06|0.06|0.0|0.0|0.12|-32.0075|-71.24722222222222|WGS84
Valparaíso|Marga Marga|Villa Alemana|2011-2012|QUEBRADA ESCOBAR|2011-11-29|16:10|155.0|Sin alerta|No definido|Tránsito de personasvehículos o aeronaves|0.0|0.0|0.0|0.0|0.0|0.0|1.5|5.0|0.0|0.0|6.5|-33.07194444444445|-71.30916666666667|WGS84
Valparaíso|Quillota|Hijuelas|2011-2012|OASIS LA CAMPANA|2011-11-29|16:25|100.0|Sin alerta|No definido|Incendios de causa desconocida|0.0|0.0|0.0|0.0|0.0|0.0|0.03|0.05|0.0|0.0|0.08|-32.901666666666664|-71.06805555555556|WGS84
Valparaíso|Marga Marga|Villa Alemana|2011-2012|POBLACION WILSON|2011-11-29|17:00|9.0|Sin alerta|No definido|Incendios intencionales|0.0|0.0|0.0|0.0|0.0|0.0|0.0|0.01|0.0|0.0|0.01|-33.05583333333333|-71.33027777777778|WGS84
Valparaíso|Marga Marga|Quilpué|2011-2012|TRANQUE LAS VACAS|2011-11-29|18:08|139.0|Sin alerta|No definido|Incendios intencionales|0.0|0.0|0.0|0.0|0.0|0.0|1.0|3.0|0.0|0.0|4.0|-33.0675|-71.39833333333333|WGS84
Valparaíso|Marga Marga|Villa Alemana|2011-2012|POBLACION BERNARDO LEITON|2011-11-29|19:20|26.0|Sin alerta|No definido|Incendios intencionales|0.0|0.0|0.0|0.0|0.0|0.0|0.0|0.01|0.0|0.01|0.02|-33.06638888888889|-71.35944444444445|WGS84
Valparaíso|Marga Marga|Villa Alemana|2011-2012|TRANQUE RUMIE|2011-11-30|14:23|90.0|Sin alerta|No definido|Tránsito de personasvehículos o aeronaves|0.0|0.0|0.0|0.0|0.0|0.0|1.0|1.33|0.0|0.0|2.33|-33.03722222222222|-71.38777777777777|WGS84
Valparaíso|Quillota|Hijuelas|2011-2012|PARCELA ZEGERS|2011-11-30|13:17|133.0|Sin alerta|No definido|Tránsito de personasvehículos o aeronaves|0.0|0.0|0.0|0.0|0.0|0.0|0.2|0.3|0.0|0.0|0.5|-32.108333333333334|-71.10833333333333|WGS84
Valparaíso|San Antonio|San Antonio|2011-2012|FUNDO LLO LLEO|2011-11-30|15:50|180.0|Sin alerta|No definido|Incendios intencionales|0.0|0.0|0.0|0.7|0.0|0.0|0.0|0.4|0.0|0.0|1.1|-33.60611111111111|-71.59194444444445|WGS84
Valparaíso|San Antonio|El Tabo|2011-2012|EL MEMBRILLO|2011-11-30|16:00|200.0|Sin alerta|No definido|Tránsito de personasvehículos o aeronaves|0.3|0.0|0.0|3.0|0.0|0.0|0.0|0.2|0.0|0.0|3.5|-33.45194444444444|-71.63055555555556|WGS84
Valparaíso|Marga Marga|Villa Alemana|2011-2012|POBLACION WILSON|2011-11-30|17:00|85.0|Sin alerta|No definido|Actividades recreativas|0.0|0.0|0.0|0.0|0.0|0.0|0.2|0.2|0.0|0.0|0.4|-33.04388888888889|-71.34055555555555|WGS84
Valparaíso|Valparaíso|Viña del Mar|2011-2012|QUINTA VERGARA|2011-11-30|17:35|145.0|Sin alerta|No definido|Incendios intencionales|0.0|0.0|0.0|0.0|0.0|0.0|0.02|0.01|0.0|0.0|0.03|-33.032222222222224|-71.55027777777778|WGS84
Valparaíso|San Antonio|San Antonio|2011-2012|FUNDO LLO LLEO 2|2011-11-30|18:15|95.0|Sin alerta|No definido|Incendios intencionales|0.0|0.0|0.0|0.03|0.0|0.0|0.0|0.07|0.0|0.0|0.1|-33.60611111111111|-71.59194444444445|WGS84
Valparaíso|Marga Marga|Quilpué|2011-2012|PASO HONDO|2011-12-01|17:05|39.0|Sin alerta|No definido|Incendios intencionales|0.0|0.0|0.0|0.0|0.0|0.0|0.0|0.01|0.0|0.0|0.01|-33.03527777777778|-71.4825|WGS84
Valparaíso|San Antonio|Santo Domingo|2011-2012|LA PRINCESA II|2011-12-02|09:30|48.0|Sin alerta|No definido|Quema de desechos|0.0|0.0|0.0|0.0|0.0|0.0|0.0|0.01|0.0|0.0|0.01|-33.678333333333335|-71.58333333333333|WGS84
Valparaíso|San Antonio|San Antonio|2011-2012|VISTA HERMOSA|2011-12-02|13:40|127.0|Sin alerta|No definido|Incendios intencionales|0.0|0.0|0.0|0.01|0.0|0.0|0.0|0.01|0.0|0.0|0.02|-33.55166666666667|-71.61194444444445|WGS84
Valparaíso|Valparaíso|Quintero|2011-2012|SAN RAMON|2011-12-02|18:30|140.0|Sin alerta|No definido|Tránsito de personasvehículos o aeronaves|0.0|0.0|0.0|0.15|0.0|0.1|0.0|0.0|0.0|0.0|0.25|-32.876666666666665|-71.46138888888889|WGS84
Valparaíso|San Antonio|Algarrobo|2011-2012|EL PINAR|2011-12-02|19:30|111.0|Sin alerta|No definido|Incendios intencionales|0.0|0.0|0.0|0.0|0.0|0.0|0.2|0.3|0.0|0.0|0.5|-33.388333333333335|-71.66083333333333|WGS84
Valparaíso|San Antonio|San Antonio|2011-2012|CERRO EL CRISTO|2011-12-03|12:35|60.0|Sin alerta|No definido|Incendios intencionales|0.0|0.0|0.0|0.0|0.0|0.0|0.0|0.02|0.0|0.0|0.02|-33.62388888888889|-71.60333333333334|WGS84
Valparaíso|Marga Marga|Limache|2011-2012|LOS MAITENES|2011-12-03|14:00|128.0|Sin alerta|No definido|Incendios intencionales|0.0|0.0|0.0|0.0|0.0|0.0|0.2|0.4|0.0|0.0|0.6000000000000001|-32.99666666666667|-71.23027777777777|WGS84
Valparaíso|Valparaíso|Viña del Mar|2011-2012|JARDIN BOTANICO|2011-12-03|15:10|53.0|Sin alerta|No definido|Incendios intencionales|0.0|0.0|0.0|0.0|0.0|0.0|0.01|0.02|0.0|0.0|0.03|-33.03722222222222|-71.49055555555556|WGS84
Valparaíso|San Antonio|Santo Domingo|2011-2012|ALTO EL YALI|2011-12-03|14:50|90.0|Sin alerta|No definido|Incendios intencionales|0.0|0.0|0.0|0.0|0.0|0.0|0.1|0.9|0.0|0.0|1.0|-33.84|-71.62055555555555|WGS84
Valparaíso|Petorca|La Ligua|2011-2012|EL RAYADO|2011-12-03|16:00|38.0|Sin alerta|No definido|Incendios intencionales|0.0|0.0|0.0|0.0|0.0|0.0|0.02|0.08|0.0|0.0|0.1|-32.460277777777776|-71.245|WGS84
Valparaíso|San Antonio|Santo Domingo|2011-2012|RIO MAIPO|2011-12-03|16:45|143.0|Sin alerta|No definido|Quema de desechos|0.0|0.0|0.0|0.0|0.0|0.2|0.8|0.5|0.0|0.0|1.5|-33.65111111111111|-71.59333333333333|WGS84
Valparaíso|Marga Marga|Quilpué|2011-2012|ALTO MANQUEHUE|2011-12-04|12:28|102.0|Sin alerta|No definido|Incendios intencionales|0.0|0.0|0.0|0.0|0.0|0.0|1.0|1.5|0.0|0.0|2.5|-33.07222222222222|-71.43388888888889|WGS84
Valparaíso|Valparaíso|Valparaíso|2011-2012|NUEVO PLACILLA|2011-12-04|15:15|103.0|Sin alerta|No definido|Actividades recreativas|0.0|0.0|0.0|0.3|0.0|0.0|0.02|0.1|0.0|0.0|0.42|-33.11361111111111|-71.55|WGS84
Valparaíso|Marga Marga|Quilpué|2011-2012|CEMENTERIO BELLOTO|2011-12-04|16:45|101.0|Sin alerta|No definido|Tránsito de personasvehículos o aeronaves|0.0|0.0|0.0|0.0|0.0|0.0|0.05|0.2|0.0|0.0|0.25|-33.03472222222222|-71.41805555555555|WGS84
Valparaíso|Marga Marga|Quilpué|2011-2012|ALTO MANQUEHUE II|2011-12-04|16:45|45.0|Sin alerta|No definido|Incendios intencionales|0.0|0.0|0.0|0.0|0.0|0.0|0.05|0.2|0.0|0.0|0.25|-33.0725|-71.43305555555555|WGS84
Valparaíso|Valparaíso|Quintero|2011-2012|EL CRUCE|2011-12-04|17:44|168.0|Sin alerta|No definido|Tránsito de personasvehículos o aeronaves|0.0|0.0|0.0|0.0|0.0|0.0|3.0|4.28|0.0|0.0|7.28|-32.79944444444445|-71.47916666666667|WGS84
Valparaíso|San Antonio|Algarrobo|2011-2012|QUEBRADA PACIFICO|2011-12-05|11:40|190.0|Sin alerta|No definido|Incendios intencionales|0.0|0.0|0.25|0.25|0.0|0.0|0.5|0.0|0.0|0.0|1.0|-33.37305555555555|-71.65583333333333|WGS84
Valparaíso|Marga Marga|Villa Alemana|2011-2012|MONTE CARMELO|2011-12-05|13:15|135.0|Sin alerta|No definido|Accidentes eléctricos|0.0|0.0|0.0|0.0|0.0|0.0|0.68|1.0|0.0|0.0|1.6800000000000002|-33.03305555555556|-71.36444444444444|WGS84
Valparaíso|Valparaíso|Casablanca|2011-2012|SANTA BARBARA|2011-12-05|14:48|74.0|Sin alerta|No definido|Actividades recreativas|0.0|0.0|0.0|0.0|0.0|0.0|0.01|0.06|0.0|0.0|0.0699999999999999|-33.30361111111111|-71.365|WGS84
Valparaíso|San Antonio|San Antonio|2011-2012|LOS GERANEOS|2011-12-05|16:50|35.0|Sin alerta|No definido|Incendios intencionales|0.0|0.0|0.0|0.0|0.0|0.0|0.0|0.03|0.0|0.0|0.03|-33.62111111111111|-71.61277777777778|WGS84
Valparaíso|San Antonio|San Antonio|2011-2012|VISTA HERMOSA|2011-12-05|17:43|32.0|Sin alerta|No definido|Incendios intencionales|0.0|0.0|0.0|0.0|0.0|0.0|0.0|0.08|0.0|0.0|0.08|-33.56055555555555|-71.61222222222223|WGS84
Valparaíso|Petorca|La Ligua|2011-2012|EL RAYADO|2011-12-05|18:19|29.0|Sin alerta|No definido|Incendios de causa desconocida|0.0|0.0|0.0|0.0|0.0|0.0|0.0|0.03|0.0|0.0|0.03|-32.45861111111111|-71.24777777777778|WGS84
Valparaíso|San Antonio|San Antonio|2011-2012|POBLACION PADRE HURTADO|2011-12-06|09:52|68.0|Sin alerta|No definido|Quema de desechos|0.0|0.0|0.0|0.0|0.0|0.0|0.0|0.02|0.0|0.0|0.02|-33.57|-71.60166666666667|WGS84
Valparaíso|San Antonio|San Antonio|2011-2012|FUNDO LLO LLEO|2011-12-06|11:00|62.0|Sin alerta|No definido|Tránsito de personasvehículos o aeronaves|0.0|0.0|0.0|0.0|0.0|0.0|0.0|1.0|0.0|0.0|1.0|-33.62416666666667|-71.5925|WGS84
Valparaíso|San Antonio|Algarrobo|2011-2012|QUEBRADA PACIFICO|2011-12-06|14:29|76.0|Sin alerta|No definido|Incendios intencionales|0.0|0.0|0.0|0.04|0.0|0.0|0.0|0.0|0.0|0.0|0.04|-33.37027777777778|-71.66027777777778|WGS84
Valparaíso|San Antonio|San Antonio|2011-2012|FUNDO LLO LLEO|2011-12-07|07:35|121.0|Sin alerta|No definido|Incendios intencionales|0.0|0.0|0.0|0.8|0.0|0.0|0.0|0.2|0.0|0.0|1.0|-33.60888888888889|-71.5911111111111|WGS84
Valparaíso|Petorca|La Ligua|2011-2012|VILLA FERTIL|2011-12-07|12:48|55.0|Sin alerta|No definido|Tránsito de personasvehículos o aeronaves|0.0|0.0|0.0|0.01|0.0|0.0|0.01|0.03|0.0|0.0|0.05|-32.45805555555555|-71.23916666666666|WGS84
Valparaíso|San Antonio|San Antonio|2011-2012|FUNDO MIRAMAR|2011-12-07|13:00|40.0|Sin alerta|No definido|Actividades recreativas|0.0|0.0|0.0|0.0|0.0|0.0|0.0|0.03|0.0|0.0|0.03|-33.58805555555556|-71.59138888888889|WGS84
Valparaíso|Valparaíso|Viña del Mar|2011-2012|EL REFUGIO|2011-12-07|14:46|67.0|Sin alerta|No definido|Incendios intencionales|0.0|0.0|0.0|0.0|0.0|0.01|0.02|0.06|0.0|0.0|0.09|-33.009166666666665|-71.48277777777778|WGS84
Valparaíso|San Antonio|Algarrobo|2011-2012|CASAS AZULES|2011-12-07|14:10|100.0|Sin alerta|No definido|Actividades recreativas|0.0|0.0|0.0|0.0|0.0|0.0|0.1|0.2|0.0|0.0|0.3|-33.37027777777778|-71.66027777777778|WGS84
Valparaíso|San Antonio|El Tabo|2011-2012|FUNDO EL MEMBRILLO|2011-12-07|14:32|73.0|Sin alerta|No definido|Incendios intencionales|0.0|0.0|0.0|0.1|0.0|0.0|0.03|0.0|0.0|0.0|0.13|-33.452222222222225|-71.61972222222222|WGS84
Valparaíso|Quillota|Quillota|2011-2012|EL BOCO|2011-12-09|11:40|297.0|Sin alerta|No definido|Incendios intencionales|0.0|0.0|0.0|0.0|0.0|0.0|4.0|1.9|0.0|0.0|5.9|-32.853611111111114|-71.24333333333334|WGS84
Valparaíso|San Antonio|Cartagena|2011-2012|PUERTO NUEVO|2011-12-09|12:20|57.0|Sin alerta|No definido|Incendios intencionales|0.0|0.0|0.0|0.0|0.0|0.0|0.13|0.0|0.0|0.0|0.13|-33.55166666666667|-71.61194444444445|WGS84
Valparaíso|Marga Marga|Limache|2011-2012|SAN ALFONSO|2011-12-09|16:14|80.0|Sin alerta|No definido|Actividades recreativas|0.0|0.0|0.0|0.0|0.0|0.0|0.2|0.6|0.0|0.0|0.8|-33.02472222222222|-71.27638888888889|WGS84
Valparaíso|Valparaíso|Valparaíso|2011-2012|SAN ROQUE|2011-12-09|16:38|39.0|Sin alerta|No definido|Actividades recreativas|0.0|0.0|0.0|0.0|0.0|0.0|0.01|0.03|0.0|0.0|0.04|-33.07555555555555|-71.27638888888889|WGS84
Valparaíso|Marga Marga|Quilpué|2011-2012|COLINAS DE ORO|2011-12-09|17:57|37.0|Sin alerta|No definido|Tránsito de personasvehículos o aeronaves|0.0|0.0|0.0|0.0|0.0|0.0|0.0|0.5|0.0|0.0|0.5|-33.062777777777775|-71.40722222222222|WGS84
Valparaíso|Marga Marga|Quilpué|2011-2012|BELLOTO NORTE|2011-12-10|11:08|228.0|Sin alerta|No definido|Incendios intencionales|0.0|0.0|0.0|0.0|0.0|0.0|1.5|2.5|0.0|0.0|4.0|-33.022777777777776|-71.39805555555556|WGS84
Valparaíso|Marga Marga|Limache|2011-2012|FUNDO LIMACHITO|2011-12-10|15:50|193.0|Sin alerta|No definido|Tránsito de personasvehículos o aeronaves|0.0|0.0|0.0|0.0|0.0|0.0|0.2|0.8|0.0|0.0|1.0|-32.99472222222222|-71.28555555555556|WGS84
Valparaíso|Marga Marga|Quilpué|2011-2012|VILLA OLIMPICA|2011-12-10|17:00|109.0|Sin alerta|No definido|Quema de desechos|0.0|0.0|0.0|0.0|0.0|0.0|0.26|0.2|0.0|0.0|0.46|-33.06361111111111|-71.45861111111111|WGS84
Valparaíso|Marga Marga|Limache|2011-2012|FINAL CALLE PRAT|2011-12-10|17:50|120.0|Sin alerta|No definido|Tránsito de personasvehículos o aeronaves|0.0|0.0|0.0|0.0|0.0|0.0|0.8|1.0|0.0|0.0|1.8|-32.99111111111111|-71.28222222222222|WGS84
Valparaíso|San Antonio|El Tabo|2011-2012|EL TRANSITO|2011-12-10|18:50|48.0|Sin alerta|No definido|Actividades recreativas|0.0|0.0|0.0|0.03|0.0|0.0|0.04|0.0|0.0|0.0|0.07|-33.46111111111111|-71.63083333333333|WGS84
Valparaíso|San Antonio|San Antonio|2011-2012|EL PEÑON DE LA VIUDA|2011-12-10|19:10|80.0|Sin alerta|No definido|Incendios intencionales|0.0|0.0|0.0|0.0|0.0|0.0|0.0|0.15|0.0|0.0|0.15|-33.60583333333334|-71.60277777777777|WGS84
Valparaíso|San Antonio|San Antonio|2011-2012|FUNDO LLO LLEO|2011-12-10|20:10|37.0|Sin alerta|No definido|Incendios intencionales|0.0|0.0|0.0|0.02|0.0|0.0|0.0|0.03|0.0|0.0|0.05|-33.60666666666667|-71.59805555555556|WGS84
Valparaíso|San Antonio|San Antonio|2011-2012|PELANCURA|2011-12-10|21:10|1017.0|Sin alerta|No definido|Incendios intencionales|0.0|0.0|0.0|0.5|0.0|0.0|0.3|0.5|0.0|0.0|1.3|-33.56055555555555|-71.61222222222223|WGS84
Valparaíso|Marga Marga|Limache|2011-2012|EMBALSE SANTA ROSA|2011-12-11|14:50|198.0|Sin alerta|No definido|Tránsito de personasvehículos o aeronaves|0.0|0.0|0.0|0.0|0.0|0.0|0.0|5.5|0.0|0.0|5.5|-33.03111111111111|-71.19416666666666|WGS84
Valparaíso|Valparaíso|Puchuncavi|2011-2012|LOS MAITENES|2011-12-11|14:50|341.0|Sin alerta|No definido|Incendios intencionales|0.0|5.2|0.0|1.0|0.0|0.0|1.0|1.0|0.0|0.0|8.2|-32.77|-71.42333333333333|WGS84
Valparaíso|San Antonio|San Antonio|2011-2012|VISTA HERMOSA|2011-12-11|17:30|135.0|Sin alerta|No definido|Tránsito de personasvehículos o aeronaves|0.0|0.0|0.0|1.0|0.0|0.0|0.0|1.5|0.0|0.0|2.5|-33.56055555555555|-71.61222222222223|WGS84
Valparaíso|San Antonio|San Antonio|2011-2012|LOS AROMOS|2011-12-11|18:50|55.0|Sin alerta|No definido|Incendios intencionales|0.0|0.0|0.0|0.0|0.0|0.0|0.0|0.03|0.0|0.0|0.03|-33.60583333333334|-71.60277777777777|WGS84
Valparaíso|Valparaíso|Viña del Mar|2011-2012|RHONA|2011-12-11|19:18|41.0|Sin alerta|No definido|Actividades recreativas|0.0|0.0|0.0|0.0|0.0|0.0|0.0|0.01|0.0|0.0|0.01|-33.05222222222222|-71.55444444444444|WGS84
Valparaíso|Valparaíso|Casablanca|2011-2012|LO VASQUEZ|2011-12-12|11:54|126.0|Sin alerta|No definido|Tránsito de personasvehículos o aeronaves|0.0|0.0|0.0|0.0|0.0|0.0|0.12|0.2|0.0|0.0|0.32|-33.24722222222222|-71.44527777777778|WGS84
Valparaíso|Valparaíso|Viña del Mar|2011-2012|REÑACA ALTO|2011-12-12|11:58|157.0|Sin alerta|No definido|Incendios intencionales|0.0|0.0|0.0|0.0|0.0|0.0|0.18|0.2|0.0|0.0|0.38|-32.98722222222222|-71.49194444444444|WGS84
Valparaíso|Marga Marga|Quilpué|2011-2012|LOMAS DEL SOL|2011-12-12|12:34|167.0|Sin alerta|No definido|Tránsito de personasvehículos o aeronaves|0.0|0.0|0.0|1.0|0.0|0.0|0.0|0.5|0.0|0.0|1.5|-33.026666666666664|-71.42166666666667|WGS84
Valparaíso|Valparaíso|Puchuncavi|2011-2012|LAS MELOSILLAS|2011-12-12|12:40|256.0|Sin alerta|No definido|Incendios de causa desconocida|0.0|0.0|0.0|0.0|0.0|0.0|2.45|5.0|0.0|0.0|7.45|-33.77583333333333|-71.42361111111111|WGS84
Valparaíso|Valparaíso|Casablanca|2011-2012|LA PLAYA|2011-12-12|15:55|258.0|Sin alerta|No definido|Tránsito de personasvehículos o aeronaves|0.0|0.0|0.0|0.0|0.0|0.0|0.9|1.0|0.0|0.0|1.9|-33.24638888888889|-71.44555555555556|WGS84
Valparaíso|Marga Marga|Quilpué|2011-2012|VILLA OLIMPICA|2011-12-12|16:50|165.0|Sin alerta|No definido|Actividades recreativas|0.0|0.0|0.0|0.0|0.0|0.0|1.0|1.5|0.0|0.0|2.5|-33.0575|-71.47333333333333|WGS84
Valparaíso|Marga Marga|Quilpué|2011-2012|PASO HONDO|2011-12-12|16:53|52.0|Sin alerta|No definido|Actividades recreativas|0.0|0.0|0.0|0.0|0.0|0.0|0.0|0.03|0.0|0.0|0.03|-33.04|-71.48083333333334|WGS84
Valparaíso|San Antonio|Algarrobo|2011-2012|QUEBRADA PACIFICO|2011-12-12|16:40|50.0|Sin alerta|No definido|Incendios intencionales|0.0|0.0|0.0|0.0|0.0|0.0|0.02|0.04|0.0|0.0|0.06|-33.37027777777778|-71.66027777777778|WGS84
Valparaíso|Valparaíso|Puchuncavi|2011-2012|LAS MELOSILLAS II|2011-12-12|18:50|1038.0|Sin alerta|No definido|Incendios intencionales|1.98|0.0|0.0|0.0|0.0|0.0|0.2|0.1|0.0|0.0|2.28|-32.77111111111111|-71.42527777777778|WGS84
Valparaíso|San Antonio|San Antonio|2011-2012|CERRO LA VIRGEN|2011-12-12|20:05|80.0|Sin alerta|No definido|Incendios intencionales|0.0|0.0|0.0|0.0|0.0|0.0|0.0|0.14|0.0|0.0|0.14|-33.569722222222225|-71.6125|WGS84
Valparaíso|San Antonio|Algarrobo|2011-2012|LOMA VERDE|2011-12-13|10:40|55.0|Sin alerta|No definido|Tránsito de personasvehículos o aeronaves|0.0|0.0|0.0|0.0|0.0|0.0|0.05|0.15|0.0|0.0|0.2|-33.39888888888889|-71.58583333333333|WGS84
Valparaíso|Valparaíso|Concón|2011-2012|VILLA PRIMAVERA|2011-12-13|13:00|137.0|Sin alerta|No definido|Actividades recreativas|0.0|0.0|0.0|0.0|0.0|0.0|0.0|0.17|0.0|0.0|0.17|-32.93333333333333|-71.52027777777778|WGS84
Valparaíso|Valparaíso|Concón|2011-2012|VILLA PRIMAVERA II|2011-12-13|14:25|52.0|Sin alerta|No definido|Tránsito de personasvehículos o aeronaves|0.0|0.0|0.0|0.0|0.0|0.0|0.0|0.89|0.0|0.0|0.89|-32.934444444444445|-71.51555555555555|WGS84
Valparaíso|Valparaíso|Casablanca|2011-2012|MUNDO NUEVO|2011-12-13|14:00|93.0|Sin alerta|No definido|Actividades recreativas|0.0|0.0|0.0|0.0|0.0|0.0|0.0|0.4|0.0|0.0|0.4|-33.34166666666667|-71.35333333333334|WGS84
Valparaíso|San Antonio|San Antonio|2011-2012|QUEBRADA LA IGLESIA|2011-12-13|14:40|88.0|Sin alerta|No definido|Tránsito de personasvehículos o aeronaves|0.0|0.0|0.0|0.2|0.0|0.0|0.0|0.15|0.0|0.0|0.35|-33.74472222222222|-71.43444444444444|WGS84
Valparaíso|Marga Marga|Villa Alemana|2011-2012|POBLACION PRAT|2011-12-13|17:17|108.0|Sin alerta|No definido|Actividades recreativas|0.0|0.0|0.0|0.0|0.0|0.0|0.22|0.6|0.0|0.0|0.82|-33.062222222222225|-71.35555555555555|WGS84
Valparaíso|San Antonio|San Antonio|2011-2012|VISTA HERMOSA|2011-12-14|16:15|51.0|Sin alerta|No definido|Incendios intencionales|0.0|0.0|0.0|0.0|0.0|0.0|0.0|0.02|0.0|0.0|0.02|-33.55138888888889|-71.62277777777778|WGS84
Valparaíso|San Antonio|San Antonio|2011-2012|AGUA SALADA|2011-12-14|17:10|65.0|Sin alerta|No definido|Incendios intencionales|0.0|0.0|0.0|0.0|0.0|0.0|0.0|0.02|0.0|0.0|0.02|-33.56055555555555|-71.61222222222223|WGS84
Valparaíso|San Antonio|San Antonio|2011-2012|VIUDA VI|2011-12-14|18:10|60.0|Sin alerta|No definido|Actividades recreativas|0.0|0.0|0.0|0.0|0.0|0.0|0.0|0.03|0.0|0.0|0.03|-33.60611111111111|-71.59194444444445|WGS84
Valparaíso|Valparaíso|Viña del Mar|2011-2012|EL OLIVAR II ETAPA|2011-12-14|18:40|58.0|Sin alerta|No definido|Incendios intencionales|0.0|0.0|0.0|0.0|0.0|0.0|0.1|0.1|0.0|0.0|0.2|-33.03305555555556|-71.49555555555555|WGS84
Valparaíso|San Antonio|San Antonio|2011-2012|PIEDRA EL INDIO|2011-12-16|17:00|74.0|Sin alerta|No definido|Tránsito de personasvehículos o aeronaves|0.0|0.0|0.0|0.0|0.0|0.0|0.0|0.08|0.0|0.0|0.08|-33.61527777777778|-71.58166666666666|WGS84
Valparaíso|Marga Marga|Quilpué|2011-2012|VILLA OLIMPICA|2011-12-16|17:32|80.0|Sin alerta|No definido|Incendios intencionales|0.0|0.0|0.0|0.0|0.0|0.0|0.0|0.01|0.0|0.0|0.01|-33.07694444444444|-71.46166666666667|WGS84
Valparaíso|San Antonio|San Antonio|2011-2012|FUNDO LLO LLEO|2011-12-16|17:50|37.0|Sin alerta|No definido|Tránsito de personasvehículos o aeronaves|0.0|0.0|0.0|0.0|0.0|0.0|0.0|0.01|0.0|0.0|0.01|-33.60611111111111|-71.59194444444445|WGS84
Valparaíso|Valparaíso|Valparaíso|2011-2012|PARCELA REGIMIENTO MAIPO|2011-12-17|14:20|96.0|Sin alerta|No definido|Incendios intencionales|0.0|0.0|0.0|0.0|0.0|0.0|0.03|0.03|0.0|0.0|0.06|-33.06527777777778|-71.65138888888889|WGS84
Valparaíso|Valparaíso|Valparaíso|2011-2012|LAS PAJARERAS|2011-12-17|15:30|149.0|Sin alerta|No definido|Tránsito de personasvehículos o aeronaves|0.0|0.0|0.0|0.0|0.0|0.0|0.0|0.0|0.0|0.09|0.09|-33.10027777777778|-71.57166666666667|WGS84
Valparaíso|Valparaíso|Viña del Mar|2011-2012|EL OLIVAR|2011-12-17|17:00|37.0|Sin alerta|No definido|Actividades recreativas|0.0|0.0|0.0|0.0|0.0|0.0|0.09|0.1|0.0|0.0|0.19|-33.0325|-71.49138888888889|WGS84
Valparaíso|Marga Marga|Quilpué|2011-2012|CUATRO PINOS|2011-12-17|17:37|45.0|Sin alerta|No definido|Actividades recreativas|0.0|0.0|0.0|0.0|0.0|0.0|0.0|0.04|0.0|0.0|0.04|-33.068888888888885|-71.42916666666666|WGS84
Valparaíso|Valparaíso|Valparaíso|2011-2012|FUNDO EL LLANO|2011-12-18|10:30|95.0|Sin alerta|No definido|Incendios intencionales|0.0|0.0|0.0|0.0|0.0|0.0|0.04|0.08|0.0|0.0|0.12|-33.11416666666667|-71.58166666666666|WGS84
Valparaíso|Marga Marga|Villa Alemana|2011-2012|POBLACION WILSON|2011-12-18|12:38|92.0|Sin alerta|No definido|Incendios intencionales|0.0|0.0|0.0|0.0|0.0|0.0|0.3|0.4|0.0|0.0|0.7|-33.043055555555554|-71.34694444444445|WGS84
Valparaíso|Quillota|Hijuelas|2011-2012|CRUCE ROMERAL|2011-12-18|12:16|158.0|Sin alerta|No definido|Tránsito de personasvehículos o aeronaves|0.0|0.0|0.0|0.0|0.0|0.0|0.22|0.45|0.0|0.0|0.67|-32.841388888888886|-71.06416666666667|WGS84
Valparaíso|Valparaíso|Valparaíso|2011-2012|EL LLANO|2011-12-18|13:37|80.0|Sin alerta|No definido|Incendios intencionales|0.0|0.01|0.0|0.0|0.0|0.0|0.0|0.03|0.0|0.0|0.04|-33.124722222222225|-71.57972222222222|WGS84
Valparaíso|Valparaíso|Viña del Mar|2011-2012|EL OLIVAR|2011-12-18|15:58|35.0|Sin alerta|No definido|Incendios intencionales|0.0|0.0|0.0|0.0|0.0|0.0|0.0|0.12|0.0|0.0|0.12|-33.029444444444444|-71.49138888888889|WGS84
Valparaíso|Marga Marga|Quilpué|2011-2012|LOS FUNDADORES|2011-12-18|20:15|161.0|Sin alerta|No definido|Tránsito de personasvehículos o aeronaves|0.0|0.0|0.0|0.0|0.0|0.0|0.5|0.4|0.0|0.0|0.9|-33.060833333333335|-71.47555555555556|WGS84
Valparaíso|Marga Marga|Quilpué|2011-2012|LOS FUNDADORES II|2011-12-18|22:50|28.0|Sin alerta|No definido|Tránsito de personasvehículos o aeronaves|0.0|0.0|0.0|0.0|0.0|0.0|0.0|0.05|0.0|0.0|0.05|-33.05916666666667|-71.4713888888889|WGS84
Valparaíso|San Antonio|San Antonio|2011-2012|VISTA HERMOSA|2011-12-19|12:00|88.0|Sin alerta|No definido|Actividades recreativas|0.0|0.0|0.0|0.0|0.0|0.0|0.0|0.25|0.0|0.0|0.25|-33.560833333333335|-71.60138888888889|WGS84
Valparaíso|San Antonio|San Antonio|2011-2012|PUERTO NUEVO|2011-12-19|13:15|58.0|Sin alerta|No definido|Actividades recreativas|0.0|0.0|0.0|0.0|0.0|0.0|0.0|0.01|0.0|0.0|0.01|-33.56055555555555|-71.61222222222223|WGS84
Valparaíso|San Antonio|San Antonio|2011-2012|AGUA SALADA|2011-12-19|13:38|25.0|Sin alerta|No definido|Actividades recreativas|0.0|0.0|0.0|0.0|0.0|0.0|0.0|0.01|0.0|0.0|0.01|-33.560833333333335|-71.60138888888889|WGS84
Valparaíso|San Antonio|San Antonio|2011-2012|CAMINO VIEJO CARTAGENA|2011-12-19|16:10|53.0|Sin alerta|No definido|Actividades recreativas|0.0|0.0|0.0|0.0|0.0|0.0|0.0|0.03|0.0|0.0|0.03|-33.560833333333335|-71.60138888888889|WGS84
Valparaíso|San Antonio|El Tabo|2011-2012|QUEBRADA HONDA|2011-12-19|16:17|103.0|Sin alerta|No definido|Tránsito de personasvehículos o aeronaves|0.0|0.05|0.0|0.25|0.0|0.0|0.0|0.2|0.0|0.0|0.5|-33.4425|-71.6625|WGS84
Valparaíso|San Antonio|Cartagena|2011-2012|VISTA HERMOSA|2011-12-19|17:05|55.0|Sin alerta|No definido|Incendios intencionales|0.0|0.0|0.0|0.0|0.0|0.0|0.03|0.0|0.0|0.0|0.03|-33.55166666666667|-71.61194444444445|WGS84
Valparaíso|Valparaíso|Viña del Mar|2011-2012|EL OLIVAR|2011-12-19|23:16|44.0|Sin alerta|No definido|Tránsito de personasvehículos o aeronaves|0.0|0.0|0.0|0.0|0.0|0.0|0.0|0.02|0.0|0.0|0.02|-33.03472222222222|-71.50055555555555|WGS84
Valparaíso|Valparaíso|Viña del Mar|2011-2012|VILLA DULCE|2011-12-19|23:55|25.0|Sin alerta|No definido|Tránsito de personasvehículos o aeronaves|0.0|0.0|0.0|0.0|0.0|0.0|0.08|0.3|0.0|0.0|0.38|-33.033611111111114|-71.50444444444445|WGS84
Valparaíso|Marga Marga|Villa Alemana|2011-2012|POBLACION PEDRO AGUIRRE CERDA|2011-12-20|13:57|27.0|Sin alerta|No definido|Tránsito de personasvehículos o aeronaves|0.0|0.0|0.0|0.0|0.0|0.0|0.03|0.02|0.0|0.0|0.05|-33.041666666666664|-71.34333333333333|WGS84
Valparaíso|San Antonio|San Antonio|2011-2012|FUNDO MIRAMAR|2011-12-20|13:55|226.0|Sin alerta|No definido|Incendios intencionales|0.0|0.0|0.0|0.0|0.0|0.0|1.5|40.3|0.0|0.0|41.8|-33.585277777777776|-71.58972222222222|WGS84
Valparaíso|San Antonio|San Antonio|2011-2012|FUNDO MIRAMAR II|2011-12-20|14:08|213.0|Sin alerta|No definido|Incendios intencionales|0.0|0.0|0.0|0.0|0.0|0.0|0.0|15.0|0.0|0.0|15.0|-33.58805555555556|-71.59138888888889|WGS84
Valparaíso|Marga Marga|Quilpué|2011-2012|EL SOL|2011-12-20|14:55|110.0|Sin alerta|No definido|Tránsito de personasvehículos o aeronaves|0.0|0.0|0.0|0.0|0.0|0.0|0.05|0.6|0.0|0.0|0.65|-33.040277777777774|-71.44944444444444|WGS84
Valparaíso|San Antonio|San Antonio|2011-2012|FUNDO MIRAMAR III|2011-12-20|14:33|158.0|Sin alerta|No definido|Incendios intencionales|0.0|0.0|0.0|0.0|0.0|0.0|0.5|4.0|0.0|0.0|4.5|-33.58805555555556|-71.59138888888889|WGS84
Valparaíso|San Antonio|San Antonio|2011-2012|SAN JUAN|2011-12-20|16:29|67.0|Sin alerta|No definido|Incendios intencionales|0.0|0.0|0.0|0.0|0.0|0.0|0.0|1.71|0.0|0.0|1.71|-33.62416666666667|-71.5925|WGS84
Valparaíso|Marga Marga|Quilpué|2011-2012|FUNDO SAN JORGE|2011-12-20|17:10|127.0|Sin alerta|No definido|Incendios intencionales|0.0|0.0|0.0|0.0|0.0|0.0|20.0|10.0|0.0|0.0|30.0|-33.01833333333333|-71.42666666666666|WGS84
Valparaíso|Marga Marga|Villa Alemana|2011-2012|POBLACION WILSON|2011-12-20|17:45|30.0|Sin alerta|No definido|Actividades recreativas|0.0|0.0|0.0|0.0|0.0|0.0|0.01|0.01|0.0|0.0|0.02|-33.04194444444445|-71.34305555555555|WGS84
Valparaíso|Valparaíso|Valparaíso|2011-2012|POBLACION BASICA|2011-12-20|17:40|74.0|Sin alerta|No definido|Tránsito de personasvehículos o aeronaves|0.0|0.0|0.0|0.0|0.0|0.0|0.03|0.01|0.0|0.0|0.04|-33.0625|-71.56777777777778|WGS84
Valparaíso|Marga Marga|Quilpué|2011-2012|VILLA OLIMPICA|2011-12-20|19:00|213.0|Sin alerta|No definido|Actividades recreativas|0.0|0.0|0.0|0.0|0.0|0.0|1.2|4.0|0.0|0.0|5.2|-33.06055555555555|-71.475|WGS84
Valparaíso|San Antonio|San Antonio|2011-2012|BELLAVISTA|2011-12-21|09:30|50.0|Sin alerta|No definido|Quema de desechos|0.0|0.0|0.0|0.0|0.0|0.0|0.0|0.01|0.0|0.0|0.01|-33.57|-71.60166666666667|WGS84
Valparaíso|Marga Marga|Limache|2011-2012|TABOLANGO|2011-12-21|11:00|257.0|Sin alerta|No definido|Incendios intencionales|0.0|0.0|0.0|0.0|0.0|0.0|17.0|20.0|0.0|0.0|37.0|-32.934444444444445|-71.36194444444445|WGS84
Valparaíso|San Antonio|San Antonio|2011-2012|SECTOR 1 BRASIL|2011-12-21|13:30|50.0|Sin alerta|No definido|Incendios intencionales|0.0|0.0|0.0|0.0|0.0|0.0|0.0|0.03|0.0|0.0|0.03|-33.57|-71.60166666666667|WGS84
Valparaíso|Marga Marga|Villa Alemana|2011-2012|POBLACION WILSON|2011-12-21|14:40|72.0|Sin alerta|No definido|Tránsito de personasvehículos o aeronaves|0.0|0.0|0.0|0.0|0.0|0.0|0.0|0.06|0.0|0.04|0.1|-33.04527777777778|-71.34|WGS84
Valparaíso|San Felipe de Aconcagua|Catemu|2011-2012|AGRICOLA CATEMU|2011-12-21|15:05|1151.0|Sin alerta|No definido|Incendios intencionales|0.0|0.0|0.0|0.0|0.0|0.0|12.0|8.0|0.0|0.0|20.0|-32.77166666666667|-71.00944444444444|WGS84
Valparaíso|Marga Marga|Villa Alemana|2011-2012|POBLACION WILSON II|2011-12-21|15:50|94.0|Sin alerta|No definido|Tránsito de personasvehículos o aeronaves|0.0|0.0|0.0|0.0|0.0|0.0|0.0|0.1|0.0|0.0|0.1|-33.045|-71.33944444444444|WGS84
Valparaíso|Marga Marga|Villa Alemana|2011-2012|HIPODROMO|2011-12-21|16:14|128.0|Sin alerta|No definido|Tránsito de personasvehículos o aeronaves|0.0|0.0|0.0|0.0|0.0|0.0|0.9|1.0|0.0|0.0|1.9|-33.08861111111111|-71.36611111111111|WGS84
Valparaíso|San Antonio|Cartagena|2011-2012|LAS VERBENAS|2011-12-21|17:15|47.0|Sin alerta|No definido|Incendios intencionales|0.0|0.0|0.0|0.0|0.0|0.0|0.0|0.02|0.0|0.0|0.02|-33.55222222222222|-71.57972222222222|WGS84
Valparaíso|Marga Marga|Villa Alemana|2011-2012|POBLACION WILSON III|2011-12-21|18:20|57.0|Sin alerta|No definido|Tránsito de personasvehículos o aeronaves|0.0|0.0|0.0|0.0|0.0|0.0|0.1|0.2|0.0|0.0|0.3|-33.047777777777775|-71.34083333333334|WGS84
Valparaíso|San Antonio|El Tabo|2011-2012|QUEBRADA HONDA|2011-12-21|18:30|80.0|Sin alerta|No definido|Incendios intencionales|0.04|0.0|0.0|0.0|0.0|0.0|0.0|0.0|0.0|0.0|0.04|-33.4425|-71.6625|WGS84
Valparaíso|Valparaíso|Valparaíso|2011-2012|ALTO EL PUERTO|2011-12-22|11:20|102.0|Sin alerta|No definido|Tránsito de personasvehículos o aeronaves|0.0|0.0|0.0|0.15|0.0|0.0|0.05|0.1|0.0|0.0|0.3|-33.06861111111111|-71.63055555555556|WGS84
Valparaíso|Valparaíso|Viña del Mar|2011-2012|JARDIN BOTANICO|2011-12-22|14:25|93.0|Sin alerta|No definido|Tránsito de personasvehículos o aeronaves|0.0|0.0|0.0|0.0|0.0|0.0|0.3|0.07|0.0|0.0|0.37|-33.03638888888889|-71.49277777777777|WGS84
Valparaíso|San Antonio|San Antonio|2011-2012|BRASIL SECTOR 1|2011-12-22|14:30|43.0|Sin alerta|No definido|Incendios intencionales|0.0|0.0|0.0|0.0|0.0|0.0|0.0|0.02|0.0|0.0|0.02|-33.57|-71.60166666666667|WGS84
Valparaíso|Valparaíso|Valparaíso|2011-2012|VALLE EDEN|2011-12-22|15:00|118.0|Sin alerta|No definido|Incendios intencionales|0.0|0.0|0.0|0.05|0.0|0.0|0.0|0.1|0.0|0.0|0.15|-33.105555555555554|-71.67194444444445|WGS84
Valparaíso|Valparaíso|Viña del Mar|2011-2012|LAS TORRES|2011-12-22|15:25|49.0|Sin alerta|No definido|Actividades recreativas|0.0|0.0|0.0|0.0|0.0|0.0|0.0|0.02|0.0|0.0|0.02|-33.02638888888889|-71.47638888888889|WGS84
Valparaíso|Valparaíso|Viña del Mar|2011-2012|VILLA HERMOSA|2011-12-22|16:45|33.0|Sin alerta|No definido|Incendios intencionales|0.0|0.0|0.0|0.0|0.0|0.0|0.0|0.01|0.0|0.0|0.01|-33.026666666666664|-71.47694444444444|WGS84
Valparaíso|Marga Marga|Quilpué|2011-2012|VILLA PORVENIR|2011-12-22|18:30|67.0|Sin alerta|No definido|Actividades recreativas|0.0|0.0|0.0|0.1|0.0|0.0|0.0|0.3|0.0|0.0|0.4|-33.06722222222222|-71.42|WGS84
Valparaíso|Valparaíso|Viña del Mar|2011-2012|EL OLIVAR|2011-12-22|18:40|74.0|Sin alerta|No definido|Tránsito de personasvehículos o aeronaves|0.0|0.0|0.0|0.0|0.0|0.0|0.3|0.2|0.0|0.0|0.5|-33.034444444444446|-71.49194444444444|WGS84
Valparaíso|San Antonio|Algarrobo|2011-2012|CRUCE EL LITRE|2011-12-22|19:10|200.0|Sin alerta|No definido|Incendios intencionales|0.0|0.0|0.0|1.0|0.0|0.0|0.5|3.0|0.0|0.0|4.5|-33.379444444444445|-71.64972222222222|WGS84
Valparaíso|San Antonio|Algarrobo|2011-2012|LOS PITIGÜES|2011-12-22|18:50|226.0|Sin alerta|No definido|Incendios intencionales|0.0|0.0|0.0|0.0|0.0|0.0|0.5|1.5|0.0|0.0|2.0|-33.370555555555555|-71.64944444444444|WGS84
Valparaíso|San Antonio|Algarrobo|2011-2012|QUEBRADA PACIFICO|2011-12-22|19:45|203.0|Sin alerta|No definido|Incendios intencionales|0.0|0.0|0.0|0.5|0.0|0.0|0.5|0.5|0.0|0.0|1.5|-33.370555555555555|-71.64944444444444|WGS84
Valparaíso|Valparaíso|Viña del Mar|2011-2012|FUNDO 7 HERMANAS|2011-12-22|22:40|250.0|Sin alerta|No definido|Incendios intencionales|0.0|0.0|0.0|0.0|0.0|0.03|0.0|0.01|0.0|0.0|0.04|-33.06805555555555|-71.5436111111111|WGS84
Valparaíso|San Antonio|San Antonio|2011-2012|PUERTO NUEVO|2011-12-23|12:35|35.0|Sin alerta|No definido|Incendios intencionales|0.0|0.0|0.0|0.0|0.0|0.0|0.0|0.03|0.0|0.0|0.03|-33.551944444444445|-71.60111111111111|WGS84
Valparaíso|Quillota|Quillota|2011-2012|RAUTEN|2011-12-23|12:25|55.0|Sin alerta|No definido|Tránsito de personasvehículos o aeronaves|0.0|0.0|0.0|0.0|0.0|0.0|0.02|0.03|0.0|0.0|0.05|-32.856944444444444|-71.26722222222222|WGS84
Valparaíso|Marga Marga|Limache|2011-2012|LOS LAURELES|2011-12-23|12:45|153.0|Sin alerta|No definido|Tránsito de personasvehículos o aeronaves|0.0|0.0|0.0|0.0|0.0|0.0|6.0|4.2|0.0|0.0|10.2|-32.96361111111111|-71.34527777777778|WGS84
Valparaíso|Marga Marga|Villa Alemana|2011-2012|FUNDO RECREO|2011-12-23|13:48|132.0|Sin alerta|No definido|Incendios intencionales|0.0|0.0|0.0|0.0|0.0|0.0|3.1|3.0|0.0|0.0|6.1|-33.07555555555555|-71.3711111111111|WGS84
Valparaíso|San Antonio|Algarrobo|2011-2012|LOS PITAGÜES|2011-12-23|14:30|102.0|Sin alerta|No definido|Incendios intencionales|0.0|0.0|0.0|0.2|0.0|0.0|0.0|0.3|0.0|0.0|0.5|-33.370555555555555|-71.64944444444444|WGS84
Valparaíso|San Antonio|El Quisco|2011-2012|ALTA CUMBRE|2011-12-23|15:30|42.0|Sin alerta|No definido|Quema de desechos|0.0|0.0|0.0|0.0|0.0|0.0|0.0|0.05|0.0|0.0|0.05|-33.41138888888889|-71.685|WGS84
Valparaíso|Valparaíso|Valparaíso|2011-2012|FUNDO EL LLANO|2011-12-23|20:13|119.0|Sin alerta|No definido|Tránsito de personasvehículos o aeronaves|0.0|0.0|0.0|0.0|0.0|0.0|0.0|0.15|0.0|0.05|0.2|-33.1125|-71.58333333333333|WGS84
Valparaíso|San Antonio|San Antonio|2011-2012|CERRO LA VIRGEN|2011-12-24|12:05|128.0|Sin alerta|No definido|Incendios intencionales|0.0|0.0|0.0|0.0|0.0|0.0|0.0|5.4|0.0|0.0|5.4|-33.569722222222225|-71.6125|WGS84
Valparaíso|San Antonio|San Antonio|2011-2012|VISTA HERMOSA|2011-12-24|13:00|73.0|Sin alerta|No definido|Incendios intencionales|0.0|0.0|0.0|0.0|0.0|0.0|0.0|0.04|0.0|0.0|0.04|-33.560833333333335|-71.60138888888889|WGS84
Valparaíso|San Antonio|Santo Domingo|2011-2012|RIO MAIPO|2011-12-24|14:00|103.0|Sin alerta|No definido|Tránsito de personasvehículos o aeronaves|0.0|0.0|0.0|0.0|0.0|0.1|0.0|0.05|0.0|0.0|0.15|-33.65111111111111|-71.59333333333333|WGS84
Valparaíso|San Antonio|Cartagena|2011-2012|SANTA ELISA|2011-12-24|17:40|34.0|Sin alerta|No definido|Faenas forestales|0.0|0.0|0.0|0.0|0.0|0.0|0.02|0.01|0.0|0.0|0.03|-33.543055555555554|-71.59027777777777|WGS84
Valparaíso|San Antonio|El Tabo|2011-2012|LOS CEDROS|2011-12-24|17:50|105.0|Sin alerta|No definido|Incendios intencionales|0.0|0.0|0.0|0.09|0.0|0.0|0.0|0.0|0.0|0.0|0.09|-33.4425|-71.65166666666667|WGS84
Valparaíso|San Antonio|San Antonio|2011-2012|FUNDO MIRAMAR|2011-12-25|12:15|195.0|Sin alerta|No definido|Incendios intencionales|0.0|0.0|0.0|1.5|0.0|0.0|0.2|0.7|0.0|0.0|2.4|-33.58833333333333|-71.58083333333333|WGS84
Valparaíso|Marga Marga|Olmué|2011-2012|QUEBRADA ALVARADO|2011-12-25|15:13|125.0|Sin alerta|No definido|Tránsito de personasvehículos o aeronaves|0.0|0.0|0.0|0.0|0.0|0.0|0.3|0.9|0.0|0.0|1.2|-33.03722222222222|-71.1275|WGS84
Valparaíso|Marga Marga|Quilpué|2011-2012|TRANQUE LAS VACAS|2011-12-25|19:03|80.0|Sin alerta|No definido|Tránsito de personasvehículos o aeronaves|0.0|0.0|0.0|0.0|0.0|0.0|0.0|1.5|0.0|0.0|1.5|-33.06583333333333|-71.40333333333334|WGS84
Valparaíso|San Antonio|San Antonio|2011-2012|FUNDO MIRAMAR|2011-12-26|08:00|185.0|Sin alerta|No definido|Incendios intencionales|0.0|0.0|0.15|0.0|0.0|0.0|0.0|0.0|0.0|0.0|0.15|-33.58805555555556|-71.59138888888889|WGS84
Valparaíso|San Antonio|San Antonio|2011-2012|VISTA HERMOSA|2011-12-26|13:10|43.0|Sin alerta|No definido|Incendios intencionales|0.0|0.0|0.0|0.0|0.0|0.0|0.0|0.05|0.0|0.0|0.05|-33.56055555555555|-71.61222222222223|WGS84
Valparaíso|Marga Marga|Villa Alemana|2011-2012|FUNDO EL TRIANGULO|2011-12-26|15:00|47.0|Sin alerta|No definido|Tránsito de personasvehículos o aeronaves|0.0|0.0|0.0|0.0|0.0|0.0|0.1|1.1|0.0|0.0|1.2000000000000002|-33.071666666666665|-71.36888888888889|WGS84
Valparaíso|Quillota|Quillota|2011-2012|CALLEJON VASQUEZ|2011-12-26|13:25|208.0|Sin alerta|No definido|Tránsito de personasvehículos o aeronaves|0.0|0.0|0.0|0.0|0.0|0.0|0.2|0.8|0.0|0.0|1.0|-32.86361111111111|-71.24722222222222|WGS84
Valparaíso|Marga Marga|Olmué|2011-2012|EL SAUCE|2011-12-26|16:30|135.0|Sin alerta|No definido|Incendios intencionales|0.0|0.0|0.0|0.0|0.0|0.05|0.05|0.1|0.0|0.0|0.2|-32.97944444444445|-71.15722222222222|WGS84
Valparaíso|Valparaíso|Viña del Mar|2011-2012|VILLA RUCANT|2011-12-26|17:16|106.0|Sin alerta|No definido|Actividades recreativas|0.0|0.0|0.0|0.0|0.0|0.0|0.06|0.04|0.0|0.0|0.1|-33.00694444444444|-71.49027777777778|WGS84
Valparaíso|San Antonio|San Antonio|2011-2012|VIUDA VI|2011-12-26|19:00|35.0|Sin alerta|No definido|Actividades recreativas|0.0|0.0|0.0|0.0|0.0|0.0|0.0|0.09|0.0|0.0|0.09|-33.60583333333334|-71.60277777777777|WGS84
Valparaíso|San Antonio|San Antonio|2011-2012|FUNDO LLO LLEO|2011-12-26|19:10|48.0|Sin alerta|No definido|Incendios intencionales|0.0|0.0|0.0|0.0|0.0|0.0|0.0|0.24|0.0|0.0|0.24|-33.60611111111111|-71.59194444444445|WGS84
Valparaíso|San Antonio|San Antonio|2011-2012|AGUAS BUENAS|2011-12-27|07:50|174.0|Sin alerta|No definido|Incendios intencionales|0.0|0.0|0.0|0.2|0.0|0.0|0.2|0.12|0.0|0.0|0.52|-33.57083333333333|-71.5586111111111|WGS84
Valparaíso|Valparaíso|Viña del Mar|2011-2012|LAJARILLA|2011-12-27|11:50|150.0|Sin alerta|No definido|Incendios intencionales|0.0|0.0|0.0|0.0|0.0|0.0|1.5|0.5|0.0|0.0|2.0|-32.98861111111111|-71.47416666666666|WGS84
Valparaíso|San Antonio|San Antonio|2011-2012|AGUA SALADA|2011-12-27|12:00|100.0|Sin alerta|No definido|Actividades recreativas|0.0|0.0|0.0|0.4|0.0|0.0|0.0|0.8|0.0|0.0|1.2000000000000002|-33.56055555555555|-71.61222222222223|WGS84
Valparaíso|Valparaíso|Viña del Mar|2011-2012|7 HERMANAS|2011-12-27|13:41|58.0|Sin alerta|No definido|Tránsito de personasvehículos o aeronaves|0.0|0.0|0.0|0.0|0.0|0.0|0.01|0.01|0.0|0.0|0.02|-33.03138888888889|-71.5513888888889|WGS84
Valparaíso|Marga Marga|Quilpué|2011-2012|LAS VEGAS|2011-12-27|14:00|40.0|Sin alerta|No definido|Tránsito de personasvehículos o aeronaves|0.0|0.0|0.0|0.0|0.0|0.0|0.02|0.11|0.0|0.0|0.13|-33.033611111111114|-71.39166666666667|WGS84
Valparaíso|San Antonio|San Antonio|2011-2012|BALMACEDA|2011-12-27|15:05|52.0|Sin alerta|No definido|Incendios intencionales|0.0|0.0|0.0|0.0|0.0|0.0|0.0|0.05|0.0|0.0|0.05|-33.57|-71.60166666666667|WGS84
Valparaíso|Marga Marga|Olmué|2011-2012|LAS VERTIENTES|2011-12-27|16:05|150.0|Sin alerta|No definido|Tránsito de personasvehículos o aeronaves|0.0|0.0|0.0|0.0|0.0|0.0|0.23|0.0|0.0|0.0|0.23|-32.98138888888889|-71.15694444444445|WGS84
Valparaíso|Valparaíso|Viña del Mar|2011-2012|LAJARILLA  II|2011-12-27|16:15|123.0|Sin alerta|No definido|Incendios intencionales|0.0|0.0|0.0|0.0|0.0|0.0|0.07|0.03|0.0|0.0|0.1|-32.98888888888889|-71.4738888888889|WGS84
Valparaíso|Valparaíso|Viña del Mar|2011-2012|REÑACA ALTO|2011-12-27|18:35|52.0|Sin alerta|No definido|Tránsito de personasvehículos o aeronaves|0.0|0.0|0.0|0.2|0.0|0.0|0.0|0.04|0.0|0.0|0.24|-32.995|-71.49472222222222|WGS84
Valparaíso|Valparaíso|Viña del Mar|2011-2012|SECTOR EL TRANQUE QUINTA VERGARA|2011-12-28|13:12|79.0|Sin alerta|No definido|Incendios intencionales|0.0|0.0|0.0|0.0|0.0|0.03|0.0|0.0|0.0|0.0|0.03|-33.03194444444444|-71.53694444444444|WGS84
Valparaíso|Valparaíso|Viña del Mar|2011-2012|SECTOR EL TRANQUE QUINTA VERGARA II|2011-12-28|14:20|10.0|Sin alerta|No definido|Incendios intencionales|0.0|0.0|0.0|0.0|0.0|0.0|0.01|0.0|0.0|0.0|0.01|-33.031666666666666|-71.55277777777778|WGS84
Valparaíso|San Antonio|San Antonio|2011-2012|30 DE MARZO|2011-12-28|14:19|43.0|Sin alerta|No definido|Incendios intencionales|0.0|0.0|0.0|0.0|0.0|0.0|0.0|0.02|0.0|0.0|0.02|-33.596944444444446|-71.6025|WGS84
Valparaíso|Valparaíso|Valparaíso|2011-2012|2ª SECTOR PLAYA ANCHA|2011-12-28|14:40|62.0|Sin alerta|No definido|Actividades recreativas|0.0|0.0|0.0|0.0|0.0|0.0|0.01|0.02|0.0|0.0|0.03|-33.04416666666667|-71.65305555555555|WGS84
Valparaíso|San Antonio|San Antonio|2011-2012|CERRO LA VIRGEN|2011-12-29|11:50|144.0|Sin alerta|No definido|Incendios intencionales|0.5|0.0|0.0|0.0|0.0|0.0|0.0|4.2|0.0|0.0|4.7|-33.5725|-71.61416666666666|WGS84
Valparaíso|San Antonio|San Antonio|2011-2012|FUNDO MIRAMAR|2011-12-29|13:35|105.0|Sin alerta|No definido|Incendios intencionales|0.0|0.1|0.0|0.0|0.0|0.0|0.0|0.24|0.0|0.0|0.3399999999999999|-33.57888888888889|-71.60194444444444|WGS84
Valparaíso|San Antonio|San Antonio|2011-2012|PLANICIES DE BELLAVISTA|2011-12-29|15:10|36.0|Sin alerta|No definido|Actividades recreativas|0.0|0.0|0.0|0.0|0.0|0.0|0.0|0.22|0.0|0.0|0.22|-33.560833333333335|-71.60138888888889|WGS84
Valparaíso|Marga Marga|Villa Alemana|2011-2012|LOMAS DE BELLAVISTA|2011-12-29|18:35|50.0|Sin alerta|No definido|Tránsito de personasvehículos o aeronaves|0.0|0.0|0.0|0.0|0.0|0.0|0.04|0.06|0.0|0.0|0.1|-33.064166666666665|-71.39111111111112|WGS84
Valparaíso|San Antonio|San Antonio|2011-2012|AGUAS SALADA|2011-12-29|19:00|51.0|Sin alerta|No definido|Incendios intencionales|0.0|0.0|0.0|0.0|0.0|0.0|0.0|0.25|0.0|0.0|0.25|-33.560833333333335|-71.60138888888889|WGS84
Valparaíso|Los Andes|Los Andes|2011-2012|LOS QUILLALLES|2011-12-29|17:00|190.0|Sin alerta|No definido|Tránsito de personasvehículos o aeronaves|0.0|0.0|0.0|0.0|0.0|0.0|0.0|3.0|0.0|0.0|3.0|-32.83166666666666|-70.55083333333333|WGS84
Valparaíso|San Antonio|San Antonio|2011-2012|POTRERILLOS|2011-12-30|14:00|61.0|Sin alerta|No definido|Incendios intencionales|0.0|0.0|0.0|0.03|0.0|0.0|0.0|0.05|0.0|0.0|0.08|-33.56111111111111|-71.59055555555555|WGS84
Valparaíso|San Antonio|San Antonio|2011-2012|AGUA SALADA|2011-12-30|15:00|85.0|Sin alerta|No definido|Incendios intencionales|0.0|0.0|0.0|0.0|0.0|0.0|0.0|3.0|0.0|0.0|3.0|-33.560833333333335|-71.60138888888889|WGS84
Valparaíso|Quillota|Quillota|2011-2012|EL HUAPE|2011-12-30|16:05|99.0|Sin alerta|No definido|Incendios intencionales|0.0|0.0|0.0|0.0|0.0|0.0|0.4|0.2|0.0|0.0|0.6000000000000001|-32.91638888888889|-71.35111111111111|WGS84
Valparaíso|San Antonio|San Antonio|2011-2012|FUNDO MIRAMAR|2011-12-30|16:10|93.0|Sin alerta|No definido|Incendios intencionales|0.0|0.0|0.0|0.1|0.0|0.0|0.0|0.5|0.0|0.0|0.6|-33.58777777777778|-71.60222222222222|WGS84
Valparaíso|Petorca|La Ligua|2011-2012|LAS CHACARILLAS|2011-12-30|18:22|23.0|Sin alerta|No definido|Actividades recreativas|0.0|0.0|0.0|0.0|0.0|0.0|0.0|0.01|0.0|0.0|0.01|-32.45027777777778|-71.24416666666667|WGS84
Valparaíso|Valparaíso|Valparaíso|2011-2012|NUEVO PLACILLA|2011-12-30|17:03|73.0|Sin alerta|No definido|Tránsito de personasvehículos o aeronaves|0.0|0.0|0.0|0.0|0.0|0.01|0.0|0.02|0.0|0.0|0.03|-33.12166666666667|-71.55083333333333|WGS84
Valparaíso|Valparaíso|Viña del Mar|2011-2012|FORESTAL ALTO|2011-12-30|21:25|128.0|Sin alerta|No definido|Tránsito de personasvehículos o aeronaves|0.0|0.0|0.0|0.0|0.0|0.0|0.01|0.02|0.0|0.0|0.03|-33.05722222222222|-71.55|WGS84
Valparaíso|San Antonio|San Antonio|2011-2012|FUNDO MIRAMAR|2011-12-31|11:50|144.0|Sin alerta|No definido|Incendios intencionales|0.0|0.0|0.0|0.05|0.0|0.0|0.05|0.4|0.0|0.0|0.5|-33.58833333333333|-71.58083333333333|WGS84
Valparaíso|Marga Marga|Quilpué|2011-2012|VILLA ENAP|2011-12-31|15:50|36.0|Sin alerta|No definido|Tránsito de personasvehículos o aeronaves|0.0|0.0|0.0|0.0|0.0|0.0|0.0|0.02|0.0|0.0|0.02|-33.03055555555556|-71.47666666666667|WGS84
Valparaíso|San Antonio|San Antonio|2011-2012|COLINAS DE LLO LLEO|2011-12-31|16:10|42.0|Sin alerta|No definido|Actividades recreativas|0.0|0.0|0.0|0.0|0.0|0.0|0.0|0.01|0.0|0.0|0.01|-33.61527777777778|-71.59222222222222|WGS84
Valparaíso|San Antonio|San Antonio|2011-2012|PLANICIES DE BELLAVISTA|2011-12-31|17:25|63.0|Sin alerta|No definido|Incendios intencionales|0.0|0.0|0.0|0.0|0.0|0.0|0.0|0.11|0.0|0.0|0.11|-33.560833333333335|-71.60138888888889|WGS84
Valparaíso|San Antonio|San Antonio|2011-2012|BALMACEDA|2011-12-31|17:45|25.0|Sin alerta|No definido|Incendios intencionales|0.0|0.0|0.0|0.0|0.0|0.0|0.0|0.01|0.0|0.0|0.01|-33.57|-71.60166666666667|WGS84
Valparaíso|San Antonio|San Antonio|2011-2012|BALMACEDA II|2011-12-31|19:00|36.0|Sin alerta|No definido|Incendios intencionales|0.0|0.0|0.0|0.0|0.0|0.0|0.0|0.07|0.0|0.0|0.07|-33.57|-71.60166666666667|WGS84
Valparaíso|San Antonio|San Antonio|2011-2012|LOS AROMOS|2012-01-01|16:25|25.0|Sin alerta|No definido|Incendios intencionales|0.0|0.0|0.0|0.0|0.0|0.0|0.0|0.03|0.0|0.0|0.03|-33.60583333333334|-71.60277777777777|WGS84
Valparaíso|Petorca|La Ligua|2011-2012|JAURURO|2012-01-01|15:05|91.0|Sin alerta|No definido|Tránsito de personasvehículos o aeronaves|0.0|0.0|0.0|0.0|0.0|0.0|0.02|0.03|0.0|0.0|0.05|-32.45361111111111|-71.28888888888889|WGS84
Valparaíso|San Antonio|San Antonio|2011-2012|FUNDO LLO LLEO|2012-01-01|18:35|29.0|Sin alerta|No definido|Incendios intencionales|0.0|0.0|0.0|0.0|0.0|0.0|0.0|0.01|0.0|0.0|0.01|-33.60611111111111|-71.59194444444445|WGS84
Valparaíso|Valparaíso|Valparaíso|2011-2012|FUNDO LAS CENIZAS|2012-01-01|18:40|79.0|Sin alerta|No definido|Incendios intencionales|0.0|0.0|0.0|0.1|0.0|0.0|0.0|0.0|0.0|0.0|0.1|-33.114444444444445|-71.5411111111111|WGS84
Valparaíso|Valparaíso|Valparaíso|2011-2012|EL LLANO|2012-01-02|13:38|45.0|Sin alerta|No definido|Incendios intencionales|0.01|0.0|0.0|0.0|0.0|0.0|0.0|0.0|0.0|0.0|0.01|-33.123333333333335|-71.58166666666666|WGS84
Valparaíso|Marga Marga|Quilpué|2011-2012|FUNDO EL CARMEN|2012-01-02|14:40|87.0|Sin alerta|No definido|Incendios intencionales|0.0|0.0|0.0|0.0|0.0|0.0|0.25|0.15|0.0|0.0|0.4|-33.036944444444444|-71.44805555555556|WGS84
Valparaíso|Marga Marga|Villa Alemana|2011-2012|TRONCOS VIEJOS|2012-01-02|15:00|47.0|Sin alerta|No definido|Incendios intencionales|0.0|0.0|0.0|0.0|0.0|0.0|0.0|0.12|0.0|0.0|0.12|-33.06444444444445|-71.38805555555555|WGS84
Valparaíso|San Antonio|San Antonio|2011-2012|CANCHA GARCIA|2012-01-02|15:10|36.0|Sin alerta|No definido|Actividades recreativas|0.0|0.0|0.0|0.0|0.0|0.0|0.0|0.04|0.0|0.0|0.04|-33.62416666666667|-71.5925|WGS84
Valparaíso|Marga Marga|Villa Alemana|2011-2012|POBLACION SAN ENRIQUE|2012-01-02|15:35|75.0|Sin alerta|No definido|Tránsito de personasvehículos o aeronaves|0.0|0.0|0.0|0.0|0.0|0.0|0.09|0.1|0.0|0.0|0.19|-33.06305555555556|-71.37805555555556|WGS84
Valparaíso|Petorca|Cabildo|2011-2012|LA VIÑA|2012-01-02|14:40|134.0|Sin alerta|No definido|Faenas agrícolas y pecuarias|0.0|0.0|0.0|0.0|0.0|0.0|0.0|0.2|0.0|0.3|0.5|-32.439166666666665|-70.93888888888888|WGS84
Valparaíso|Petorca|Papudo|2011-2012|PARQUE PULLALLY|2012-01-02|15:49|68.0|Sin alerta|No definido|Tránsito de personasvehículos o aeronaves|0.0|0.0|0.0|0.02|0.0|0.0|0.0|0.01|0.0|0.0|0.03|-32.43638888888889|-71.32833333333333|WGS84
Valparaíso|San Antonio|San Antonio|2011-2012|PERLA DACAUD|2012-01-02|15:50|60.0|Sin alerta|No definido|Incendios intencionales|0.0|0.0|0.0|0.23|0.0|0.0|0.0|0.2|0.0|0.0|0.43|-33.56111111111111|-71.59055555555555|WGS84
Valparaíso|Marga Marga|Limache|2011-2012|FUNDO LOS MOLLES|2012-01-02|16:51|98.0|Sin alerta|No definido|Incendios intencionales|0.0|0.0|0.0|0.5|0.0|0.0|0.4|0.3|0.0|0.0|1.2|-33.047777777777775|-71.34416666666667|WGS84
Valparaíso|Marga Marga|Villa Alemana|2011-2012|EL ARRAYAN|2012-01-02|18:11|88.0|Sin alerta|No definido|Incendios intencionales|0.0|0.0|0.0|0.0|0.0|0.0|1.0|0.5|0.0|0.0|1.5|-33.06722222222222|-71.34444444444445|WGS84
Valparaíso|Valparaíso|Valparaíso|2011-2012|CERRO MARIPOSA|2012-01-02|18:50|40.0|Sin alerta|No definido|Incendios intencionales|0.0|0.0|0.0|0.0|0.0|0.0|0.0|0.03|0.0|0.0|0.03|-33.066944444444445|-71.62694444444445|WGS84
Valparaíso|San Antonio|San Antonio|2011-2012|FUNDO LLO LLEO|2012-01-02|18:25|43.0|Sin alerta|No definido|Incendios intencionales|0.0|0.0|0.0|0.0|0.0|0.0|0.0|0.03|0.0|0.0|0.03|-33.61527777777778|-71.58166666666666|WGS84
Valparaíso|Valparaíso|Viña del Mar|2011-2012|TOMAS DE FORESTAL|2012-01-03|01:00|47.0|Sin alerta|No definido|Tránsito de personasvehículos o aeronaves|0.0|0.0|0.0|0.0|0.0|0.0|0.03|0.0|0.0|0.0|0.03|-33.04888888888889|-71.54388888888889|WGS84
Valparaíso|Marga Marga|Villa Alemana|2011-2012|TRANQUE RUMIE|2012-01-03|17:15|118.0|Sin alerta|No definido|Tránsito de personasvehículos o aeronaves|0.0|0.0|0.0|0.0|0.0|0.0|0.8|1.0|0.0|0.0|1.8|-33.035833333333336|-71.38638888888889|WGS84
Valparaíso|San Antonio|San Antonio|2011-2012|ROCAS DE SAN ANTONIO|2012-01-03|18:00|71.0|Sin alerta|No definido|Actividades recreativas|0.0|0.0|0.0|0.0|0.0|0.0|0.07|0.3|0.0|0.0|0.37|-33.55138888888889|-71.62277777777778|WGS84
Valparaíso|San Antonio|San Antonio|2011-2012|LAS DUNAS|2012-01-04|12:00|35.0|Sin alerta|No definido|Actividades recreativas|0.0|0.0|0.0|0.0|0.0|0.0|0.0|0.02|0.0|0.0|0.02|-33.59722222222222|-71.59166666666667|WGS84
Valparaíso|San Antonio|San Antonio|2011-2012|FUNDO MIRAMAR|2012-01-04|13:03|42.0|Sin alerta|No definido|Actividades recreativas|0.0|0.0|0.01|0.0|0.0|0.0|0.0|0.0|0.0|0.0|0.01|-33.57944444444445|-71.58055555555555|WGS84
Valparaíso|San Antonio|San Antonio|2011-2012|SAN JUAN|2012-01-04|14:00|29.0|Sin alerta|No definido|Tránsito de personasvehículos o aeronaves|0.0|0.0|0.0|0.01|0.0|0.0|0.0|0.0|0.0|0.0|0.01|-33.634166666666665|-71.54972222222223|WGS84
Valparaíso|San Antonio|San Antonio|2011-2012|VIUDA 6|2012-01-04|14:30|35.0|Sin alerta|No definido|Incendios intencionales|0.0|0.0|0.0|0.0|0.0|0.0|0.0|0.04|0.0|0.0|0.04|-33.59722222222222|-71.59166666666667|WGS84
Valparaíso|San Antonio|San Antonio|2011-2012|PUERTO NUEVO|2012-01-04|14:55|36.0|Sin alerta|No definido|Incendios intencionales|0.0|0.0|0.0|0.0|0.0|0.0|0.0|0.03|0.0|0.0|0.03|-33.56055555555555|-71.61222222222223|WGS84
Valparaíso|Valparaíso|Puchuncavi|2011-2012|VENTANAS ALTO|2012-01-04|16:30|103.0|Sin alerta|No definido|Tránsito de personasvehículos o aeronaves|0.0|0.0|0.0|0.04|0.0|0.0|0.03|0.04|0.0|0.0|0.11|-32.73694444444445|-71.47194444444445|WGS84
Valparaíso|Valparaíso|Valparaíso|2011-2012|NUEVO PLACILLA|2012-01-04|22:40|24.0|Sin alerta|No definido|Tránsito de personasvehículos o aeronaves|0.0|0.0|0.0|0.0|0.0|0.0|0.0|0.01|0.0|0.0|0.01|-33.11972222222222|-71.54916666666666|WGS84
Valparaíso|Valparaíso|Viña del Mar|2011-2012|NUEVA AURORA|2012-01-04|23:09|56.0|Sin alerta|No definido|Tránsito de personasvehículos o aeronaves|0.0|0.0|0.0|0.0|0.0|0.0|0.0|0.01|0.0|0.0|0.01|-33.04944444444445|-71.56555555555556|WGS84
Valparaíso|Valparaíso|Valparaíso|2011-2012|LA BALLICA RNLP|2012-01-05|12:55|125.0|Sin alerta|No definido|Incendios intencionales|0.0|0.0|0.0|0.0|0.0|0.0|0.03|0.04|0.0|0.0|0.07|-33.13861111111111|-71.48083333333334|WGS84
Valparaíso|San Antonio|Cartagena|2011-2012|LO ZARATE|2012-01-05|13:50|150.0|Sin alerta|No definido|Tránsito de personasvehículos o aeronaves|0.0|0.0|0.0|0.01|0.0|0.0|0.49|1.0|0.0|0.0|1.5|-33.53111111111111|-71.5363888888889|WGS84
Valparaíso|Marga Marga|Quilpué|2011-2012|FINAL MENA|2012-01-05|13:36|76.0|Sin alerta|No definido|Tránsito de personasvehículos o aeronaves|0.0|0.0|0.0|0.0|0.0|0.0|0.1|0.3|0.0|0.0|0.4|-33.06777777777778|-71.4175|WGS84
Valparaíso|Marga Marga|Villa Alemana|2011-2012|POBLACION SAN JOSE|2012-01-05|15:40|85.0|Sin alerta|No definido|Tránsito de personasvehículos o aeronaves|0.0|0.0|0.0|0.0|0.0|0.0|0.04|0.07|0.0|0.0|0.11|-33.06777777777778|-71.37444444444445|WGS84
Valparaíso|San Antonio|San Antonio|2011-2012|POTRERILLOS|2012-01-05|15:05|124.0|Sin alerta|No definido|Incendios intencionales|0.0|0.0|0.0|0.3|0.0|0.0|0.0|0.5|0.0|0.0|0.8|-33.56111111111111|-71.59055555555555|WGS84
Valparaíso|San Antonio|San Antonio|2011-2012|FUNDO MIRAMAR|2012-01-05|15:42|145.0|Sin alerta|No definido|Actividades recreativas|0.0|0.0|0.0|0.0|0.0|0.0|0.0|18.0|0.0|0.0|18.0|-33.58805555555556|-71.59138888888889|WGS84
Valparaíso|San Antonio|San Antonio|2011-2012|CAMINO VIEJO CARTAGENA|2012-01-05|16:25|61.0|Sin alerta|No definido|Incendios intencionales|0.0|0.0|0.0|0.1|0.0|0.0|0.0|0.5|0.0|0.0|0.6|-33.56194444444444|-71.59305555555555|WGS84
Valparaíso|Valparaíso|Viña del Mar|2011-2012|QUINTA VERGARA|2012-01-05|16:53|88.0|Sin alerta|No definido|Incendios intencionales|0.0|0.0|0.0|0.02|0.0|0.0|0.01|0.0|0.0|0.0|0.03|-33.030833333333334|-71.55638888888889|WGS84
Valparaíso|Marga Marga|Villa Alemana|2011-2012|POBLACION PRAT|2012-01-05|17:50|53.0|Sin alerta|No definido|Tránsito de personasvehículos o aeronaves|0.0|0.0|0.0|0.0|0.0|0.0|0.04|0.1|0.0|0.0|0.14|-33.0675|-71.36305555555556|WGS84
Valparaíso|Marga Marga|Quilpué|2011-2012|TENIENTE SERRANO|2012-01-05|21:09|41.0|Sin alerta|No definido|Tránsito de personasvehículos o aeronaves|0.0|0.0|0.0|0.0|0.0|0.0|0.01|0.02|0.0|0.0|0.03|-33.065555555555555|-71.41972222222222|WGS84
Valparaíso|Valparaíso|Valparaíso|2011-2012|PLACILLA NUEVO|2012-01-05|22:25|25.0|Sin alerta|No definido|Incendios intencionales|0.0|0.0|0.0|0.0|0.0|0.0|0.0|0.01|0.0|0.0|0.01|-33.12|-71.54944444444445|WGS84
Valparaíso|Valparaíso|Valparaíso|2011-2012|NUEVO PLACILLA|2012-01-05|23:50|85.0|Sin alerta|No definido|Incendios intencionales|0.0|0.0|0.0|0.02|0.0|0.0|0.0|0.0|0.0|0.0|0.02|-33.12166666666667|-71.54861111111111|WGS84
Valparaíso|San Antonio|San Antonio|2011-2012|VISTA HERMOSA|2012-01-06|13:00|55.0|Sin alerta|No definido|Incendios intencionales|0.0|0.0|0.0|0.0|0.0|0.0|0.0|0.02|0.0|0.0|0.02|-33.56055555555555|-71.61222222222223|WGS84
Valparaíso|San Antonio|San Antonio|2011-2012|FUNDO MIRAMAR|2012-01-06|14:03|52.0|Sin alerta|No definido|Incendios intencionales|0.0|0.06|0.0|0.0|0.0|0.0|0.0|0.0|0.0|0.0|0.06|-33.57833333333333|-71.60055555555556|WGS84
Valparaíso|San Antonio|San Antonio|2011-2012|FUNDO MIRAMAR 2|2012-01-06|16:00|47.0|Sin alerta|No definido|Incendios intencionales|0.0|0.01|0.0|0.0|0.0|0.0|0.0|0.0|0.0|0.0|0.01|-33.57888888888889|-71.60194444444444|WGS84
Valparaíso|San Antonio|Cartagena|2011-2012|COLENGUADO|2012-01-06|16:55|57.0|Sin alerta|No definido|Incendios intencionales|0.0|0.0|0.0|0.0|0.0|0.0|0.0|0.04|0.0|0.0|0.04|-33.55027777777778|-71.56583333333333|WGS84
Valparaíso|San Antonio|San Antonio|2011-2012|PLANICIES DE BELLAVISTA|2012-01-06|18:20|35.0|Sin alerta|No definido|Actividades recreativas|0.0|0.0|0.0|0.0|0.0|0.0|0.0|0.05|0.0|0.0|0.05|-33.56194444444444|-71.59944444444444|WGS84
Valparaíso|Quillota|Hijuelas|2011-2012|OASIS LA CAMPANA|2012-01-06|20:05|125.0|Sin alerta|No definido|Incendios intencionales|0.0|0.0|0.0|0.0|0.0|0.0|0.0|0.04|0.0|0.0|0.04|-32.916111111111114|-71.05416666666666|WGS84
Valparaíso|Quillota|La Cruz|2011-2012|LA PALMILLA|2012-01-07|12:04|144.0|Sin alerta|No definido|Tránsito de personasvehículos o aeronaves|0.0|0.0|0.0|0.0|0.0|0.0|0.03|0.05|0.0|0.0|0.08|-32.806666666666665|-71.21166666666667|WGS84
Valparaíso|Valparaíso|Casablanca|2011-2012|LA ROTUNDA|2012-01-07|13:09|31.0|Sin alerta|No definido|Tránsito de personasvehículos o aeronaves|0.0|0.0|0.0|0.0|0.0|0.0|0.01|0.03|0.0|0.0|0.04|-33.278333333333336|-71.42833333333333|WGS84
Valparaíso|San Antonio|San Antonio|2011-2012|VIUDA 6|2012-01-07|14:30|58.0|Sin alerta|No definido|Incendios intencionales|0.0|0.0|0.0|0.0|0.0|0.0|0.0|0.04|0.0|0.0|0.04|-33.61|-71.59527777777778|WGS84
Valparaíso|Valparaíso|Puchuncavi|2011-2012|CHILICAUQUEN|2012-01-07|14:35|261.0|Sin alerta|No definido|Incendios intencionales|0.0|0.0|0.0|0.0|0.0|0.0|52.0|95.0|0.0|0.0|147.0|-32.76972222222222|-71.36833333333334|WGS84
Valparaíso|Petorca|La Ligua|2011-2012|QUEBRADILLA|2012-01-07|14:38|51.0|Sin alerta|No definido|Actividades recreativas|0.0|0.0|0.0|0.0|0.0|0.0|0.5|1.0|0.0|0.0|1.5|-32.46083333333333|-71.235|WGS84
Valparaíso|San Antonio|San Antonio|2011-2012|PIEDRA DEL INDIO|2012-01-07|15:48|42.0|Sin alerta|No definido|Incendios intencionales|0.0|0.0|0.0|0.0|0.0|0.0|0.0|0.5|0.0|0.0|0.5|-33.620555555555555|-71.59166666666667|WGS84
Valparaíso|Valparaíso|Valparaíso|2011-2012|NUEVO PLACILLA|2012-01-07|16:02|62.0|Sin alerta|No definido|Tránsito de personasvehículos o aeronaves|0.0|0.0|0.0|0.01|0.0|0.0|0.0|0.01|0.0|0.0|0.02|-33.12277777777778|-71.54861111111111|WGS84
Valparaíso|Marga Marga|Limache|2011-2012|LOS LAURELES|2012-01-07|16:30|298.0|Sin alerta|No definido|Tránsito de personasvehículos o aeronaves|0.0|0.0|0.0|1.0|0.0|3.0|6.0|20.0|0.0|0.0|30.0|-32.956944444444446|-71.35694444444445|WGS84
Valparaíso|Valparaíso|Concón|2011-2012|CEMENTERIO PARROQUIAL|2012-01-07|18:08|46.0|Sin alerta|No definido|Actividades recreativas|0.0|0.0|0.0|0.0|0.0|0.0|0.3|0.4|0.0|0.0|0.7|-32.93055555555556|-71.47694444444444|WGS84
Valparaíso|Marga Marga|Olmué|2011-2012|LO GUALAS|2012-01-07|18:56|118.0|Sin alerta|No definido|Tránsito de personasvehículos o aeronaves|0.0|0.0|0.0|0.0|0.0|0.03|0.05|0.0|0.0|0.0|0.08|-32.979166666666664|-71.1575|WGS84
Valparaíso|San Antonio|San Antonio|2011-2012|AGUA SALADA|2012-01-08|09:45|50.0|Sin alerta|No definido|Actividades recreativas|0.0|0.0|0.0|0.0|0.0|0.0|0.0|0.35|0.0|0.0|0.35|-33.56027777777778|-71.60666666666667|WGS84
Valparaíso|San Antonio|San Antonio|2011-2012|FUNDO MIRAMAR|2012-01-08|13:25|45.0|Sin alerta|No definido|Actividades recreativas|0.0|0.02|0.0|0.0|0.0|0.0|0.0|0.0|0.0|0.0|0.02|-33.58805555555556|-71.59138888888889|WGS84
Valparaíso|Petorca|La Ligua|2011-2012|PULLANCON|2012-01-08|12:00|495.0|Sin alerta|No definido|Tránsito de personasvehículos o aeronaves|0.0|0.0|0.0|0.0|0.0|0.0|20.0|10.0|0.0|0.0|30.0|-32.28305555555556|-71.17333333333333|WGS84
Valparaíso|San Antonio|San Antonio|2011-2012|PLANICIES DE BELLAVISTA|2012-01-08|15:40|49.0|Sin alerta|No definido|Actividades recreativas|0.0|0.0|0.0|0.0|0.0|0.0|0.0|0.5|0.0|0.0|0.5|-33.57|-71.60166666666667|WGS84
Valparaíso|San Antonio|San Antonio|2011-2012|BALMACEDA|2012-01-08|15:45|32.0|Sin alerta|No definido|Actividades recreativas|0.0|0.0|0.0|0.0|0.0|0.0|0.0|0.04|0.0|0.0|0.04|-33.565|-71.60055555555556|WGS84
Valparaíso|Valparaíso|Valparaíso|2011-2012|NUEVO PLACILLA|2012-01-08|16:13|49.0|Sin alerta|No definido|Incendios intencionales|0.0|0.0|0.0|0.0|0.0|0.0|0.03|0.04|0.0|0.0|0.07|-33.12111111111111|-71.55055555555556|WGS84
Valparaíso|Quillota|Quillota|2011-2012|RAUTEN|2012-01-08|16:38|105.0|Sin alerta|No definido|Tránsito de personasvehículos o aeronaves|0.0|0.0|0.0|0.0|0.0|0.0|0.06|1.04|0.0|0.0|1.1|-32.9125|-71.31333333333333|WGS84
Valparaíso|Quillota|La Cruz|2011-2012|LA PALMILLA|2012-01-09|13:08|249.0|Sin alerta|No definido|Tránsito de personasvehículos o aeronaves|0.0|0.0|0.0|0.0|0.0|0.0|1.0|2.0|0.0|0.0|3.0|-32.81111111111111|-71.2125|WGS84
Valparaíso|San Antonio|San Antonio|2011-2012|PLANICIES DE BELLAVISTA|2012-01-09|14:55|90.0|Sin alerta|No definido|Actividades recreativas|0.0|0.0|0.0|0.0|0.0|0.0|0.0|2.2|0.0|0.0|2.2|-33.56138888888889|-71.60111111111111|WGS84
Valparaíso|Valparaíso|Valparaíso|2011-2012|LO ANDORRA|2012-01-09|21:45|52.0|Sin alerta|No definido|Tránsito de personasvehículos o aeronaves|0.0|0.0|0.0|0.0|0.0|0.0|0.02|0.03|0.0|0.0|0.05|-33.07277777777778|-71.55944444444444|WGS84
Valparaíso|Valparaíso|Valparaíso|2011-2012|ALTO EL PUERTO|2012-01-09|21:55|102.0|Sin alerta|No definido|Tránsito de personasvehículos o aeronaves|0.0|0.0|0.0|0.0|0.0|0.0|0.02|0.08|0.0|0.0|0.1|-33.094166666666666|-71.58611111111111|WGS84
Valparaíso|Marga Marga|Quilpué|2011-2012|EL ALBA|2012-01-09|22:16|54.0|Sin alerta|No definido|Tránsito de personasvehículos o aeronaves|0.0|0.0|0.0|0.0|0.0|0.0|0.0|0.05|0.0|0.0|0.05|-33.06333333333333|-71.40694444444445|WGS84
Valparaíso|Valparaíso|Valparaíso|2011-2012|ALTO EL PUERTO 2|2012-01-09|23:00|37.0|Sin alerta|No definido|Incendios intencionales|0.0|0.0|0.0|0.0|0.0|0.0|0.0|0.01|0.0|0.0|0.01|-33.094166666666666|-71.58583333333333|WGS84
Valparaíso|Valparaíso|Valparaíso|2011-2012|ALTO EL PUERTO 3|2012-01-10|01:27|60.0|Sin alerta|No definido|Tránsito de personasvehículos o aeronaves|0.0|0.0|0.0|0.01|0.0|0.0|0.0|0.0|0.0|0.0|0.01|-33.09388888888889|-71.58555555555556|WGS84
Valparaíso|Marga Marga|Limache|2011-2012|LAS TORTOLAS|2012-01-10|12:07|95.0|Sin alerta|No definido|Tránsito de personasvehículos o aeronaves|0.0|0.0|0.0|0.0|0.0|0.0|0.01|0.09|0.0|0.0|0.0999999999999999|-32.97388888888889|-71.2825|WGS84
Valparaíso|Marga Marga|Olmué|2011-2012|LO GAMBOA|2012-01-10|13:54|276.0|Sin alerta|No definido|Tránsito de personasvehículos o aeronaves|0.0|0.0|0.0|0.0|0.0|0.0|0.7|1.3|0.0|0.0|2.0|-33.00277777777778|-71.21138888888889|WGS84
Valparaíso|Valparaíso|Viña del Mar|2011-2012|QUINTA VERGARA|2012-01-10|14:25|69.0|Sin alerta|No definido|Tránsito de personasvehículos o aeronaves|0.0|0.0|0.0|0.0|0.0|0.0|0.06|0.1|0.0|0.0|0.16|-33.032222222222224|-71.5525|WGS84
Valparaíso|Marga Marga|Villa Alemana|2011-2012|LOS PROFESORES|2012-01-10|15:14|198.0|Sin alerta|No definido|Incendios intencionales|0.0|0.0|0.0|0.0|0.0|0.0|1.5|2.5|0.0|0.0|4.0|-33.02972222222222|-71.3638888888889|WGS84
Valparaíso|Quillota|Nogales|2011-2012|LA PEÑA|2012-01-10|15:10|213.0|Sin alerta|No definido|Incendios intencionales|0.0|0.0|0.0|0.0|0.0|0.0|0.0|0.0|0.0|2.0|2.0|-32.72611111111111|-71.1925|WGS84
Valparaíso|San Felipe de Aconcagua|San Felipe|2011-2012|LO CAMPO|2012-01-10|15:05|280.0|Sin alerta|No definido|Incendios intencionales|0.0|0.0|0.0|0.0|0.0|0.0|3.0|5.0|0.0|0.0|8.0|-32.7825|-70.84444444444445|WGS84
Valparaíso|San Antonio|San Antonio|2011-2012|BELLAVISTA|2012-01-10|15:25|34.0|Sin alerta|No definido|Tránsito de personasvehículos o aeronaves|0.0|0.0|0.0|0.0|0.0|0.0|0.0|0.02|0.0|0.0|0.02|-33.56055555555555|-71.61222222222223|WGS84
Valparaíso|Marga Marga|Limache|2011-2012|EX CCU|2012-01-10|15:50|177.0|Sin alerta|No definido|Incendios intencionales|0.0|0.0|0.0|0.0|0.0|0.0|0.6|1.0|0.0|0.0|1.6|-32.990833333333335|-71.28027777777778|WGS84
Valparaíso|Petorca|La Ligua|2011-2012|PULLANCON|2012-01-10|14:30|1270.0|Sin alerta|No definido|Tránsito de personasvehículos o aeronaves|0.0|0.0|0.0|0.0|0.0|3.0|0.5|0.5|0.0|0.0|4.0|-32.291666666666664|-71.17666666666666|WGS84
Valparaíso|San Antonio|San Antonio|2011-2012|FUNDO LLOLLEO|2012-01-10|15:35|40.0|Sin alerta|No definido|Actividades recreativas|0.0|0.0|0.0|0.0|0.0|0.0|0.04|0.06|0.0|0.0|0.1|-33.61138888888889|-71.59361111111112|WGS84
Valparaíso|San Antonio|San Antonio|2011-2012|FUNDO LLOLLEO 2|2012-01-10|16:40|47.0|Sin alerta|No definido|Actividades recreativas|0.0|0.0|0.0|0.0|0.0|0.0|0.0|0.03|0.0|0.0|0.03|-33.61194444444445|-71.59361111111112|WGS84
Valparaíso|Marga Marga|Quilpué|2011-2012|EL CAMPITO|2012-01-10|16:40|113.0|Sin alerta|No definido|Tránsito de personasvehículos o aeronaves|0.0|0.0|0.0|0.0|0.0|0.0|0.5|1.0|0.0|0.0|1.5|-33.02388888888889|-71.41305555555556|WGS84
Valparaíso|San Antonio|San Antonio|2011-2012|FUNDO MIRAMAR|2012-01-11|09:00|90.0|Sin alerta|No definido|Actividades recreativas|0.0|0.0|0.0|0.0|0.0|0.0|0.0|0.3|0.0|0.0|0.3|-33.58805555555556|-71.59138888888889|WGS84
Valparaíso|Valparaíso|Concón|2011-2012|BOSQUES DE MONTEMAR|2012-01-11|11:00|58.0|Sin alerta|No definido|Incendios intencionales|0.02|0.0|0.0|0.0|0.0|0.0|0.0|0.0|0.0|0.0|0.02|-32.94361111111111|-71.53138888888888|WGS84
Valparaíso|Valparaíso|Viña del Mar|2011-2012|LAJARILLA|2012-01-11|11:40|159.0|Sin alerta|No definido|Tránsito de personasvehículos o aeronaves|0.06|0.0|0.0|0.0|0.0|0.0|0.0|0.7|0.0|0.0|0.76|-32.98222222222222|-71.48666666666666|WGS84
Valparaíso|Valparaíso|Viña del Mar|2011-2012|REÑACA BAJO|2012-01-11|12:25|35.0|Sin alerta|No definido|Tránsito de personasvehículos o aeronaves|0.0|0.0|0.0|0.0|0.0|0.0|0.02|0.03|0.0|0.0|0.05|-32.97416666666667|-71.52666666666667|WGS84
Valparaíso|San Antonio|San Antonio|2011-2012|AGUA SALADA|2012-01-11|13:00|73.0|Sin alerta|No definido|Actividades recreativas|0.0|0.0|0.0|0.01|0.0|0.0|0.0|0.34|0.0|0.0|0.35|-33.56055555555555|-71.61222222222223|WGS84
Valparaíso|San Antonio|San Antonio|2011-2012|SOR TERESA|2012-01-11|15:20|26.0|Sin alerta|No definido|Incendios intencionales|0.0|0.0|0.0|0.0|0.0|0.0|0.0|0.01|0.0|0.0|0.01|-33.596944444444446|-71.6025|WGS84
Valparaíso|Marga Marga|Villa Alemana|2011-2012|JERUSALEM|2012-01-11|15:40|53.0|Sin alerta|No definido|Tránsito de personasvehículos o aeronaves|0.0|0.0|0.0|0.0|0.0|0.0|0.03|0.08|0.0|0.0|0.11|-33.06|-71.35944444444445|WGS84
Valparaíso|San Antonio|San Antonio|2011-2012|PERLA DACAUD|2012-01-11|15:27|75.0|Sin alerta|No definido|Incendios intencionales|0.0|0.0|0.0|0.0|0.0|0.0|0.0|0.2|0.0|0.0|0.2|-33.56111111111111|-71.59055555555555|WGS84
Valparaíso|San Antonio|San Antonio|2011-2012|PLANICIES DE BELLAVISTA|2012-01-11|15:50|32.0|Sin alerta|No definido|Incendios intencionales|0.0|0.0|0.0|0.0|0.0|0.0|0.0|0.03|0.0|0.0|0.03|-33.56055555555555|-71.61222222222223|WGS84
Valparaíso|Valparaíso|Quintero|2011-2012|LAS  GAVIOTAS|2012-01-11|16:15|95.0|Sin alerta|No definido|Actividades recreativas|0.0|0.0|0.0|0.1|0.0|0.0|0.07|0.07|0.0|0.0|0.24|-32.909166666666664|-71.49305555555556|WGS84
Valparaíso|Marga Marga|Olmué|2011-2012|LAS VERTIENTES|2012-01-11|18:05|126.0|Sin alerta|No definido|Incendios intencionales|0.0|0.0|0.0|0.0|0.0|0.0|0.24|0.3|0.0|0.0|0.54|-32.980555555555554|-71.15861111111111|WGS84
Valparaíso|San Antonio|San Antonio|2011-2012|VISTA HERMOSA|2012-01-11|19:20|58.0|Sin alerta|No definido|Actividades recreativas|0.0|0.0|0.0|0.0|0.0|0.0|0.0|0.15|0.0|0.0|0.15|-33.55833333333333|-71.61083333333333|WGS84
Valparaíso|Valparaíso|Casablanca|2011-2012|FUNDO SANTA MATILDE|2012-01-12|11:10|560.0|Sin alerta|No definido|Incendios intencionales|0.0|0.0|0.0|20.0|0.0|0.0|20.1|7.0|0.0|0.0|47.1|-33.42666666666667|-71.44083333333333|WGS84
Valparaíso|Valparaíso|Quintero|2011-2012|LAS GAVIOTAS|2012-01-12|12:40|537.0|Sin alerta|No definido|Incendios intencionales|0.0|0.0|0.0|7.0|0.0|0.0|2.0|3.3|0.0|0.0|12.3|-32.90638888888889|-71.48361111111112|WGS84
Valparaíso|Valparaíso|Concón|2011-2012|LOMAS DE MONTEMAR|2012-01-12|14:02|138.0|Sin alerta|No definido|Incendios intencionales|0.22|0.0|0.0|0.0|0.0|0.0|0.0|0.22|0.0|0.0|0.44|-32.944722222222225|-71.525|WGS84
Valparaíso|Petorca|Papudo|2011-2012|PULLALLY|2012-01-12|13:26|59.0|Sin alerta|No definido|Incendios intencionales|0.0|0.0|0.0|0.0|0.0|0.0|0.01|0.03|0.0|0.0|0.04|-32.44361111111111|-71.32194444444444|WGS84
Valparaíso|San Antonio|San Antonio|2011-2012|VISTA HERMOSA|2012-01-12|15:00|78.0|Sin alerta|No definido|Incendios intencionales|0.0|0.0|0.0|0.0|0.0|0.0|0.0|0.05|0.0|0.0|0.05|-33.558055555555555|-71.61027777777778|WGS84
Valparaíso|Marga Marga|Quilpué|2011-2012|CHORRILLOS|2012-01-12|15:25|268.0|Sin alerta|No definido|Incendios intencionales|0.0|0.0|0.0|0.0|0.0|0.06|0.05|0.1|0.0|0.0|0.21|-33.16694444444445|-71.17166666666667|WGS84
Valparaíso|San Antonio|San Antonio|2011-2012|POTRERILLOS|2012-01-12|16:35|57.0|Sin alerta|No definido|Incendios intencionales|0.0|0.0|0.0|0.05|0.0|0.0|0.0|0.15|0.0|0.0|0.2|-33.56111111111111|-71.59055555555555|WGS84
