Región|Provincia|Comuna|Temporada|Nombre|Fecha|Hora inicio|Duración (minutos)|Alerta|Escenario|Causa|Superficie quemada: Pino A [ha]|Superficie quemada: Pino B [ha]|Superficie quemada: Pino C [ha]|Superficie quemada: Eucalípto [ha]|Superficie quemada: Otras plantas [ha]|Superficie quemada: Arbolado [ha]|Superficie quemada: Matorral [ha]|Superficie quemada: Pastizal [ha]|Superficie quemada: Agrícola [ha]|Superficie quemada: Desechos [ha]|Superficie quemada total [ha]|Latitud|Longitud|Datum
Atacama|Huasco|Vallenar|2016-2017|CALLEJÓN MARTINEZ|2016-07-22|17:30|150.0|Sin alerta|IFIUr-Fo|Incendios intencionales|0.0|0.0|0.0|0.0|0.0|0.0|0.2|0.0|0.0|0.0|0.2|-28.568888888888885|-70.76944444444445|WGS84
Atacama|Huasco|Vallenar|2016-2017|PERALES|2016-07-04|17:25|55.0|Sin alerta|IFor-Vn|Incendios intencionales|0.0|0.0|0.0|0.0|0.0|0.0|0.1|0.0|0.0|0.0|0.1|-28.5525|-70.81916666666666|WGS84
Atacama|Huasco|Vallenar|2016-2017|TORINO|2016-09-01|17:35|132.0|Sin alerta|IFor-Vn|Incendios intencionales|0.0|0.0|0.0|0.22|0.0|0.0|0.05|0.0|0.0|0.0|0.27|-28.58694444444445|-70.74138888888889|WGS84
Atacama|Huasco|Vallenar|2016-2017|LA VERBENA|2016-08-19|14:40|168.0|Sin alerta|IFIUr-Fo|Faenas agrícolas y pecuarias|0.0|0.0|0.0|0.0|0.0|0.0|0.0|0.18|0.0|0.0|0.18|-28.65472222222222|-70.68277777777777|WGS84
Atacama|Huasco|Huasco|2016-2017|PLAYA GRANDE HUASCO|2016-10-03|17:40|890.0|Sin alerta|IFIUr-Fo|Incendios de causa desconocida|0.0|0.0|0.0|0.0|0.0|0.0|4.35|0.0|0.0|0.0|4.35|-28.458888888888893|-71.20805555555556|WGS84
Atacama|Huasco|Vallenar|2016-2017|CHAMONATE-VALLENAR|2016-10-25|15:07|143.0|Sin alerta|IFIUr-Fo|Incendios intencionales|0.0|0.0|0.0|0.0|0.0|0.5|2.5|7.2|0.0|0.0|10.2|-28.566944444444445|-70.78361111111111|WGS84
Atacama|Huasco|Vallenar|2016-2017|BODEGUILLA|2016-09-17|18:20|820.0|Sin alerta|IFor-Vn|Incendios intencionales|0.0|0.0|0.0|0.0|0.1|0.13|14.07|0.0|0.0|0.0|14.3|-28.596666666666664|-70.73472222222222|WGS84
Atacama|Huasco|Vallenar|2016-2017|QUINTA VALLE|2016-11-25|00:00|960.0|Sin alerta|IFor-Vn|Incendios de causa desconocida|0.0|0.0|0.0|0.0|0.0|0.0|0.0|0.003|0.0|0.0|0.003|-28.58416666666667|-70.74944444444445|WGS84
Atacama|Huasco|Huasco|2016-2017|HUASCO BAJO|2016-12-03|20:00|1147.0|Sin alerta|IFor-Vn|Incendios de causa desconocida|0.0|0.0|0.0|0.0|0.0|0.0|0.0|0.0|0.3|0.0|0.3|-28.4625|-71.19|WGS84
Atacama|Huasco|Vallenar|2016-2017|SECTOR VIVERO|2016-12-15|16:00|297.0|Sin alerta|IFor-Vn|Incendios de causa desconocida|0.0|0.0|0.0|0.5|0.0|0.0|0.2|0.6|0.0|0.0|1.2999999999999998|-28.588611111111103|-70.73833333333333|WGS84
Atacama|Huasco|Alto del Carmen|2016-2017|EL MAITEN|2017-01-01|22:50|223.0|Sin alerta|IFor-Vn|Incendios de causa desconocida|0.0|0.0|0.0|0.0|0.0|0.0|0.01|0.02|0.0|0.0|0.03|-28.71444444444445|-70.53305555555555|WGS84
Atacama|Huasco|Vallenar|2016-2017|VIVERO MUNICIPAL|2017-03-12|15:00|166.0|Sin alerta|IFor-Vn|Incendios intencionales|0.0|0.0|0.0|0.0|0.0|0.0|0.0|0.0025|0.0|0.0|0.0025|-28.58888888888889|-70.73805555555556|WGS84
Atacama|Huasco|Vallenar|2016-2017|QUEBRADA VALPARAISO|2017-03-19|19:30|891.0|Sin alerta|IFIUr-Fo|Incendios de causa desconocida|0.0|0.0|0.0|0.21|0.0|0.0|1.59|0.0|0.0|0.0|1.8|-28.55472222222222|-70.78055555555555|WGS84
Atacama|Huasco|Freirina|2016-2017|HACIENDA NICOLASA|2017-04-03|15:00|1293.0|Sin alerta|IFor-Vn|Incendios de causa desconocida|0.0|0.0|0.0|6.4|0.0|0.9|0.0|1.9|0.0|0.0|9.2|-28.523888888888884|-71.03305555555555|WGS84
Coquimbo|Elqui|Paiguano|2016-2017|QUEBRADA DE PAIHUANO|2016-08-15|14:00|30.0|Sin alerta|IFor-Vn|Incendios de causa desconocida|0.0|0.0|0.0|3.0|0.0|10.0|10.0|5.7|1.3|0.0|30.0|-30.02777777777778|-70.50694444444444|WGS84
Coquimbo|Elqui|La Serena|2016-2017|CONSTRUCTORA MAP|2016-09-02|00:30|638.0|Sin alerta|IFIUr-Fo|Incendios de causa desconocida|0.0|0.0|0.0|0.0|0.0|0.0|1.3|0.2|0.0|0.0|1.5|-29.92111111111111|-71.26222222222222|WGS84
Coquimbo|Limarí|Ovalle|2016-2017|QUEBRADA EL INGENIO|2016-09-05|22:30|995.0|Sin alerta|IFor-Vn|Incendios de causa desconocida|0.0|0.0|0.0|0.0|0.0|0.0|13.0|1.0|0.0|0.0|14.0|-30.606944444444444|-71.22916666666667|WGS84
Coquimbo|Limarí|Ovalle|2016-2017|LA CHIMBA|2016-09-11|17:20|1270.0|Sin alerta|IFIUr-Fo|Quema de desechos|0.0|0.0|0.0|1.0|0.0|0.0|0.2|0.2|0.0|0.0|1.4|-30.61861111111111|-71.22888888888889|WGS84
Coquimbo|Limarí|Ovalle|2016-2017|BOSQUE LIMARÍ|2016-10-02|17:00|90.0|Sin alerta|IFor-Vn|Quema de desechos|0.0|0.0|0.0|7.0|0.0|4.0|5.0|1.0|1.0|0.0|18.0|-30.64472222222222|-71.30666666666667|WGS84
Coquimbo|Elqui|La Serena|2016-2017|PARQUE COLL|2016-10-05|14:00|180.0|Sin alerta|IFIUr-Fo|Incendios de causa desconocida|0.0|0.0|0.0|0.0|0.0|0.0|0.02|0.01|0.0|0.0|0.03|-29.909444444444446|-71.24083333333333|WGS84
Coquimbo|Elqui|La Serena|2016-2017|LAS CAMPANAS|2016-10-06|13:00|120.0|Sin alerta|IFIUr-Fo|Tránsito de personasvehículos o aeronaves|0.0|0.0|0.0|0.0|0.0|0.0|0.0|0.05|0.0|0.0|0.05|-29.909444444444446|-71.24166666666666|WGS84
Coquimbo|Elqui|La Serena|2016-2017|PARQUE COLL 2|2016-10-08|12:20|370.0|Sin alerta|IFIUr-Fo|Tránsito de personasvehículos o aeronaves|0.0|0.0|0.0|0.1|0.0|0.3|0.5|0.1|0.0|0.0|1.0|-29.91027777777778|-71.23944444444444|WGS84
Coquimbo|Limarí|Ovalle|2016-2017|QUEBRADA EL INGENIO|2016-10-21|13:30|230.0|Alerta amarilla|IFIUr-Fo|Actividades recreativas|0.0|0.0|0.0|1.0|0.0|5.0|78.0|3.0|0.0|0.0|87.0|-30.57194444444444|-71.19277777777778|WGS84
Coquimbo|Elqui|La Serena|2016-2017|PAMPA BAJA|2016-10-25|14:20|73.0|Sin alerta|IFIUr-Fo|Quema de desechos|0.0|0.0|0.0|0.0|0.0|0.0|0.0|0.01|0.0|0.0|0.01|-29.928888888888885|-71.25583333333333|WGS84
Coquimbo|Elqui|La Serena|2016-2017|ALTOVALSOL|2016-10-27|17:50|1105.0|Sin alerta|IFor-Vn|Incendios intencionales|0.0|0.0|0.0|2.0|0.0|0.0|0.0|0.0|0.0|0.0|2.0|-29.953611111111115|-71.10916666666667|WGS84
Coquimbo|Limarí|Ovalle|2016-2017|BARRAZA|2016-10-28|12:30|250.0|Sin alerta|IFor-Vn|Incendios de causa desconocida|0.0|0.0|0.0|0.5|0.0|0.0|0.5|0.0|0.0|0.0|1.0|-30.65083333333334|-71.47222222222223|WGS84
Coquimbo|Limarí|Ovalle|2016-2017|LOS PEÑONES|2016-11-01|15:32|1348.0|Sin alerta|IFor-Vn|Quema de desechos|0.0|0.0|0.0|0.0|0.0|0.5|0.5|4.0|0.0|0.0|5.0|-30.60277777777777|-71.17416666666666|WGS84
Coquimbo|Elqui|La Serena|2016-2017|ALTOVALSOL 2|2016-11-02|14:15|250.0|Sin alerta|IFor-PI|Incendios intencionales|0.0|0.0|0.0|0.01|0.0|0.0|0.0|0.0|0.0|0.0|0.01|-29.953611111111115|-71.10972222222222|WGS84
Coquimbo|Elqui|Paiguano|2016-2017|RIO CLARO|2016-11-03|14:00|170.0|Sin alerta|IFIUr-Fo|Faenas agrícolas y pecuarias|0.0|0.0|0.0|1.0|0.0|4.0|5.0|1.5|0.0|0.0|11.5|-30.01|-70.52555555555556|WGS84
Coquimbo|Elqui|La Serena|2016-2017|BRISA DE SAN JOAQUIN|2016-11-04|18:00|47.0|Sin alerta|IFIUr-Fo|Tránsito de personasvehículos o aeronaves|0.0|0.0|0.0|0.0|0.0|0.0|0.0|0.01|0.0|0.0|0.01|-29.926666666666662|-71.23611111111111|WGS84
Coquimbo|Limarí|Ovalle|2016-2017|HUALLILLINGA|2016-11-05|19:30|1170.0|Sin alerta|IFor-Vn|Faenas agrícolas y pecuarias|0.0|0.0|0.0|0.0|0.0|0.0|1.5|0.5|0.0|0.0|2.0|-30.648888888888887|-71.1275|WGS84
Coquimbo|Limarí|Ovalle|2016-2017|LLANOS DE LIMARI|2016-11-07|15:30|1364.0|Sin alerta|IFor-Vn|Tránsito de personasvehículos o aeronaves|0.0|0.0|0.0|2.0|0.0|0.0|2.8|2.0|0.0|0.0|6.8|-30.613888888888887|-71.26388888888889|WGS84
Coquimbo|Elqui|Paiguano|2016-2017|QUEBRADA DE PINTO|2016-11-09|17:50|1240.0|Sin alerta|IFor-Vn|Quema de desechos|0.0|0.0|0.0|0.0|0.0|2.0|7.0|1.5|0.0|0.0|10.5|-30.077777777777783|-70.49416666666667|WGS84
Coquimbo|Limarí|Ovalle|2016-2017|PUENTE LA CHIMBA|2016-11-13|14:00|194.0|Sin alerta|IFor-Vn|Tránsito de personasvehículos o aeronaves|0.0|0.0|0.0|0.2|0.0|0.0|0.0|0.1|0.0|0.0|0.3|-30.620555555555555|-71.2225|WGS84
Coquimbo|Limarí|Ovalle|2016-2017|EDÉN DE LA CHIMBA|2016-11-15|08:00|510.0|Sin alerta|IFor-Vn|Tránsito de personasvehículos o aeronaves|0.0|0.0|0.0|0.5|0.0|0.5|2.0|0.0|0.0|0.0|3.0|-30.63805555555556|-71.25583333333333|WGS84
Coquimbo|Limarí|Ovalle|2016-2017|PLANTA CAPEL|2016-11-15|14:00|290.0|Sin alerta|IFor-Vn|Tránsito de personasvehículos o aeronaves|0.0|0.0|0.0|2.0|0.0|0.0|0.5|0.5|0.0|0.0|3.0|-30.63861111111111|-71.12166666666667|WGS84
Coquimbo|Limarí|Ovalle|2016-2017|KATANKURA|2016-11-16|15:50|1380.0|Alerta roja|IFor-Vn|Tránsito de personasvehículos o aeronaves|0.0|0.0|0.0|0.0|0.0|4.0|10.0|2.0|0.0|0.0|16.0|-30.59666666666667|-71.16111111111111|WGS84
Coquimbo|Elqui|Vicuña|2016-2017|PUCLARO|2016-11-17|11:30|0.0|Sin alerta|IFor-Vn|Accidentes eléctricos|0.0|0.0|0.0|0.0|0.0|0.9|1.5|0.1|0.0|0.0|2.5|-29.994444444444447|-70.8711111111111|WGS84
Coquimbo|Limarí|Ovalle|2016-2017|LAS PERDICES|2016-11-21|14:40|310.0|Sin alerta|IFor-Vn|Tránsito de personasvehículos o aeronaves|0.0|0.0|0.0|1.0|0.0|0.0|0.0|0.2|0.0|0.0|1.2|-30.636388888888888|-71.315|WGS84
Coquimbo|Limarí|Ovalle|2016-2017|VILLORIO DE TALHUEN|2016-11-24|14:30|320.0|Sin alerta|IFor-Vn|Tránsito de personasvehículos o aeronaves|0.0|0.0|0.0|0.0|0.0|0.3|0.5|0.2|0.0|0.0|1.0|-30.561666666666667|-71.26944444444445|WGS84
Coquimbo|Limarí|Ovalle|2016-2017|CERRILLLOS POBRES|2016-11-26|15:30|98.0|Sin alerta|IFor-Vn|Tránsito de personasvehículos o aeronaves|0.0|0.0|0.0|0.0|0.0|0.0|0.0|4.0|0.0|0.0|4.0|-30.6|-71.49666666666667|WGS84
Coquimbo|Elqui|La Serena|2016-2017|VEGA SUR|2016-11-28|15:00|190.0|Sin alerta|IFor-Vn|Tránsito de personasvehículos o aeronaves|0.0|0.0|0.0|0.0|0.0|0.0|0.05|0.1|0.0|0.0|0.15|-29.906666666666663|-71.26861111111111|WGS84
Coquimbo|Elqui|La Serena|2016-2017|ESTANCIA SAN JOSE|2016-11-29|14:15|185.0|Sin alerta|IFor-PI|Tránsito de personasvehículos o aeronaves|0.0|0.0|0.0|4.8|0.0|0.0|0.0|0.2|0.0|0.0|5.0|-29.96472222222222|-71.06611111111111|WGS84
Coquimbo|Elqui|La Serena|2016-2017|LAS ROJAS|2016-12-01|12:50|177.0|Sin alerta|IFor-Vn|Tránsito de personasvehículos o aeronaves|0.0|0.0|0.0|0.0|0.0|0.0|0.0|0.1|0.0|0.0|0.1|-29.96638888888889|-71.06527777777778|WGS84
Coquimbo|Limarí|Ovalle|2016-2017|PARCELA 1 PEJERREYES|2016-12-02|15:40|190.0|Sin alerta|IFor-Vn|Tránsito de personasvehículos o aeronaves|0.0|0.0|0.0|0.0|0.0|0.0|0.0|0.01|0.0|0.0|0.01|-30.35527777777778|-71.2375|WGS84
Coquimbo|Limarí|Ovalle|2016-2017|VIÑITA|2016-12-03|19:50|1060.0|Sin alerta|IFor-Vn|Incendios de causa desconocida|0.0|0.0|0.0|0.0|0.0|0.5|1.0|0.0|0.0|0.0|1.5|-30.59638888888889|-71.14972222222222|WGS84
Coquimbo|Limarí|Ovalle|2016-2017|AGRICOLA DEL NORTE LTDA.|2016-12-06|18:00|1130.0|Sin alerta|IFor-Vn|Tránsito de personasvehículos o aeronaves|0.0|0.0|0.0|3.0|0.0|2.0|0.0|4.0|0.0|0.0|9.0|-30.59111111111111|-71.1536111111111|WGS84
Coquimbo|Elqui|La Serena|2016-2017|MAKI PALLY|2016-12-10|12:30|170.0|Sin alerta|IFor-Vn|Quema de desechos|0.0|0.0|0.0|0.0|0.0|0.0|0.02|0.01|0.0|0.0|0.03|-29.889444444444443|-71.26777777777778|WGS84
Coquimbo|Limarí|Ovalle|2016-2017|VIÑITAS|2016-12-10|15:29|1231.0|Sin alerta|IFor-Vn|Quema de desechos|0.0|0.0|0.0|2.0|0.0|2.5|2.0|0.0|0.0|0.0|6.5|-30.59527777777778|-71.15222222222222|WGS84
Coquimbo|Elqui|Vicuña|2016-2017|LAS DELICIAS|2016-12-11|13:45|284.0|Sin alerta|IFor-Vn|Tránsito de personasvehículos o aeronaves|0.0|0.0|0.0|0.0|0.0|0.0|0.3|0.9|0.0|0.0|1.2|-30.03583333333333|-70.73472222222222|WGS84
Coquimbo|Limarí|Ovalle|2016-2017|LAGUNILLAS|2016-12-11|14:00|130.0|Sin alerta|IFor-Vn|Incendios intencionales|0.0|0.0|0.0|0.0|0.0|0.5|0.0|0.0|0.0|0.0|0.5|-30.550555555555555|-71.16833333333334|WGS84
Coquimbo|Choapa|Los Vilos|2016-2017|LO MUÑOZ|2016-12-12|09:00|210.0|Sin alerta|IFor-Vn|Quema de desechos|0.0|0.0|0.0|0.0|0.0|0.2|0.3|0.5|0.0|0.0|1.0|-32.11472222222222|-71.3175|WGS84
Coquimbo|Limarí|Ovalle|2016-2017|PEÑABLANCA|2016-12-15|13:30|300.0|Sin alerta|IFor-Vn|Accidentes eléctricos|0.0|0.0|0.0|0.0|0.0|0.0|0.8|0.2|0.0|0.0|1.0|-30.895000000000003|-71.56833333333333|WGS84
Coquimbo|Limarí|Ovalle|2016-2017|BOSQUE LA CHIMBA|2016-12-17|16:00|150.0|Sin alerta|IFor-PI|Incendios de causa desconocida|0.0|0.0|0.0|0.5|0.0|0.0|0.0|0.0|0.0|0.0|0.5|-30.619166666666665|-71.22055555555555|WGS84
Coquimbo|Limarí|Ovalle|2016-2017|BOSQUE  LA CHIMBA 2|2016-12-18|18:00|100.0|Sin alerta|IFor-Vn|Quema de desechos|0.0|0.0|0.0|0.0|0.0|0.2|0.3|0.0|0.0|0.0|0.5|-30.625|-71.24111111111111|WGS84
Coquimbo|Limarí|Ovalle|2016-2017|POTRERILLOS BAJO|2016-12-19|15:30|1340.0|Sin alerta|IFor-PI|Incendios intencionales|0.0|0.0|0.0|4.0|0.0|2.0|1.5|0.5|0.0|0.0|8.0|-30.61861111111111|-71.2025|WGS84
Coquimbo|Limarí|Ovalle|2016-2017|GUAMALATA|2016-12-20|17:00|1058.0|Sin alerta|IFor-Vn|Accidentes eléctricos|0.0|0.0|0.0|0.0|0.0|0.1|0.0|0.1|0.0|0.0|0.2|-30.40972222222222|-71.16527777777777|WGS84
Coquimbo|Elqui|La Serena|2016-2017|QUEBRADA ISLON|2016-12-20|21:50|940.0|Sin alerta|IFor-Vn|Tránsito de personasvehículos o aeronaves|0.0|0.0|0.0|1.7|0.0|0.0|0.0|0.0|0.0|0.0|1.7|-29.89388888888889|-71.16888888888889|WGS84
Coquimbo|Choapa|Los Vilos|2016-2017|CASCABELES|2016-12-22|14:50|65.0|Sin alerta|IFor-Vn|Accidentes eléctricos|0.0|0.0|0.0|0.0|0.0|0.0|0.0|1.0|0.0|0.0|1.0|-31.97138888888889|-71.49083333333333|WGS84
Coquimbo|Limarí|Ovalle|2016-2017|LAGUNILLA 2|2016-12-23|02:00|680.0|Sin alerta|IFor-Vn|Accidentes eléctricos|0.0|0.0|0.0|0.0|0.0|0.5|1.0|0.5|0.0|0.0|2.0|-30.529444444444444|-71.155|WGS84
Coquimbo|Limarí|Ovalle|2016-2017|AGRICOLA POLPAICO|2016-12-23|14:40|170.0|Alerta amarilla|IFor-Vn|Accidentes eléctricos|0.0|0.0|0.0|0.0|0.0|32.0|9.0|6.0|0.0|0.0|47.0|-30.515833333333333|-71.15388888888889|WGS84
Coquimbo|Choapa|Illapel|2016-2017|AGRICOLA LAS CAÑAS|2016-12-23|15:50|230.0|Sin alerta|IFor-Vn|Quema de desechos|0.0|0.0|0.0|0.0|0.0|0.0|4.32|16.0|0.0|0.0|20.32|-31.72166666666667|-71.275|WGS84
Coquimbo|Limarí|Ovalle|2016-2017|LA SOSSAS|2016-12-26|16:00|50.0|Alerta amarilla|IFor-Vn|Tránsito de personasvehículos o aeronaves|0.0|0.0|0.0|0.0|0.0|12.0|4.0|4.0|0.0|0.0|20.0|-30.5975|-71.40777777777778|WGS84
Coquimbo|Choapa|Los Vilos|2016-2017|EL QUELON|2016-12-27|14:00|1410.0|Sin alerta|IFor-Vn|Quema de desechos|0.0|0.0|0.0|0.0|0.0|10.0|15.0|18.0|0.0|0.0|43.0|-32.130833333333335|-71.16638888888889|WGS84
Coquimbo|Limarí|Ovalle|2016-2017|PUENTE GUALLILLINGA|2016-12-30|15:40|150.0|Sin alerta|IFor-Vn|Tránsito de personasvehículos o aeronaves|0.0|0.0|0.0|0.0|0.0|0.0|0.5|0.0|0.0|0.0|0.5|-30.653888888888886|-71.10472222222222|WGS84
Coquimbo|Elqui|La Serena|2016-2017|PAPAYAS  YAÑEZ|2017-01-01|17:40|196.0|Sin alerta|IFor-PI|Tránsito de personasvehículos o aeronaves|0.0|0.0|0.0|0.15|0.0|0.0|0.15|0.0|0.0|0.0|0.3|-29.93638888888889|-71.14916666666667|WGS84
Coquimbo|Elqui|La Serena|2016-2017|QUILACAN|2017-01-02|19:35|1183.0|Alerta amarilla|IFor-PI|Tránsito de personasvehículos o aeronaves|0.0|0.0|0.0|1.5|0.0|0.0|0.0|0.0|0.0|0.0|1.5|-29.955|-71.13027777777778|WGS84
Coquimbo|Elqui|La Serena|2016-2017|QUILACAN 2|2017-01-04|11:00|255.0|Sin alerta|IFor-PI|Tránsito de personasvehículos o aeronaves|0.0|0.0|0.0|0.5|0.0|0.0|0.0|0.0|0.0|0.0|0.5|-29.954444444444444|-71.13083333333333|WGS84
Coquimbo|Limarí|Ovalle|2016-2017|INDEPENDENCIA|2017-01-04|16:25|245.0|Sin alerta|IFor-Vn|Incendios intencionales|0.0|0.0|0.0|0.0|0.0|0.0|0.3|0.0|0.0|0.0|0.3|-30.606944444444444|-71.20833333333333|WGS84
Coquimbo|Elqui|La Serena|2016-2017|SAN JOSE - 2|2017-01-05|13:30|139.0|Alerta amarilla|IFIUr-Fo|Incendios intencionales|0.0|0.0|0.0|16.0|0.0|0.0|5.0|0.0|0.0|0.0|21.0|-29.961666666666662|-71.0775|WGS84
Coquimbo|Elqui|La Serena|2016-2017|LAS ANIMAS|2017-01-06|09:40|156.0|Sin alerta|IFor-PI|Incendios intencionales|0.0|0.0|0.0|1.32|0.0|0.0|0.88|0.0|0.0|0.0|2.2|-29.96194444444444|-71.11944444444444|WGS84
Coquimbo|Elqui|La Serena|2016-2017|QUILACAN 3|2017-01-06|13:50|1324.0|Sin alerta|IFor-Vn|Incendios intencionales|0.0|0.0|0.0|5.5|0.0|0.0|0.2|0.5|0.0|0.0|6.2|-29.95111111111111|-71.1325|WGS84
Coquimbo|Elqui|La Serena|2016-2017|QUILACAN 4|2017-01-07|13:30|1418.0|Sin alerta|IFor-Vn|Incendios intencionales|0.0|0.0|0.0|0.8|0.0|0.0|0.2|0.0|0.0|0.0|1.0|-29.953333333333333|-71.12861111111111|WGS84
Coquimbo|Elqui|La Serena|2016-2017|MIRADOR DE QUILACAN|2017-01-08|14:20|1274.0|Sin alerta|IFor-Vn|Incendios intencionales|0.0|0.0|0.0|1.7|0.0|0.0|0.0|0.0|0.0|0.0|1.7|-29.96416666666667|-71.11972222222222|WGS84
Coquimbo|Elqui|La Serena|2016-2017|SAN JOSE 3|2017-01-09|16:40|115.0|Sin alerta|IFor-PI|Incendios de causa desconocida|0.0|0.0|0.0|0.2|0.0|0.0|0.1|0.0|0.0|0.0|0.3|-29.96333333333333|-71.07472222222222|WGS84
Coquimbo|Limarí|Ovalle|2016-2017|KATANKURA 2|2017-01-11|12:00|170.0|Sin alerta|IFor-Vn|Tránsito de personasvehículos o aeronaves|0.0|0.0|0.0|0.0|0.0|0.3|0.5|0.0|0.0|0.0|0.8|-30.594166666666663|-71.1625|WGS84
Coquimbo|Limarí|Ovalle|2016-2017|SIFON LAGUNILLAS|2017-01-13|17:00|70.0|Sin alerta|IFor-Vn|Tránsito de personasvehículos o aeronaves|0.0|0.0|0.0|0.0|0.0|0.0|0.01|0.0|0.0|0.0|0.01|-30.554722222222217|-71.18027777777777|WGS84
Coquimbo|Limarí|Ovalle|2016-2017|SAN JULIÁN|2017-01-15|16:00|165.0|Sin alerta|IFor-Vn|Faenas agrícolas y pecuarias|0.0|0.0|0.0|0.0|0.0|0.0|6.2|0.0|0.0|0.0|6.2|-30.641666666666666|-71.33722222222222|WGS84
Coquimbo|Limarí|Ovalle|2016-2017|EL TRAPICHE|2017-01-17|14:30|240.0|Sin alerta|IFor-Vn|Quema de desechos|0.0|0.0|0.0|0.0|0.0|0.0|1.0|0.0|0.0|0.0|1.0|-30.631666666666668|-71.32972222222222|WGS84
Coquimbo|Limarí|Ovalle|2016-2017|SAN JULIAN 2|2017-01-17|15:30|230.0|Sin alerta|IFor-Vn|Tránsito de personasvehículos o aeronaves|0.0|0.0|0.0|0.0|0.0|0.0|0.6|0.0|0.0|0.0|0.6|-30.638888888888893|-71.33722222222222|WGS84
Coquimbo|Limarí|Ovalle|2016-2017|SAN JULIAN 3|2017-01-18|15:00|170.0|Sin alerta|IFor-Vn|Incendios intencionales|0.0|0.0|0.0|0.0|0.0|0.0|4.0|0.0|0.0|0.0|4.0|-30.639722222222225|-71.33583333333333|WGS84
Coquimbo|Choapa|Canela|2016-2017|SANTUARIO PADRE HURTADO|2017-01-18|15:30|300.0|Sin alerta|IFor-Vn|Accidentes eléctricos|0.0|0.0|0.0|0.0|0.0|0.0|1.5|0.5|0.0|0.0|2.0|-31.48833333333333|-71.54|WGS84
Coquimbo|Limarí|Ovalle|2016-2017|SOTAQUI|2017-01-18|16:00|180.0|Sin alerta|IFor-Vn|Tránsito de personasvehículos o aeronaves|0.0|0.0|0.0|0.0|0.0|0.1|0.1|0.0|0.0|0.0|0.2|-30.60611111111111|-71.14527777777778|WGS84
Coquimbo|Choapa|Los Vilos|2016-2017|RADICANO|2017-01-21|13:40|336.0|Sin alerta|IFor-Vn|Tránsito de personasvehículos o aeronaves|0.0|0.0|0.0|4.5|0.0|0.0|2.0|3.0|0.0|0.0|9.5|-31.80527777777777|-71.3425|WGS84
Coquimbo|Limarí|Ovalle|2016-2017|SIFÓN DE LA PALOMA|2017-01-21|17:15|1126.0|Alerta amarilla|IFor-Vn|Tránsito de personasvehículos o aeronaves|0.0|0.0|0.0|0.0|0.0|1.0|1.2|0.0|0.0|0.0|2.2|-30.69166666666667|-71.0575|WGS84
Coquimbo|Limarí|Ovalle|2016-2017|SAN JULIAN 4|2017-01-23|14:00|150.0|Sin alerta|IFor-Vn|Incendios intencionales|0.0|0.0|0.0|0.0|0.0|0.0|0.01|0.0|0.0|0.0|0.01|-30.64305555555556|-71.33777777777777|WGS84
Coquimbo|Choapa|Los Vilos|2016-2017|AGUA AMARILLA|2017-01-24|15:50|178.0|Alerta roja|IFor-Vn|Accidentes eléctricos|0.0|0.0|0.0|0.0|0.0|900.0|2000.0|200.0|0.0|0.0|3100.0|-31.81972222222221|-71.48583333333333|WGS84
Coquimbo|Limarí|Ovalle|2016-2017|TALINAY|2017-01-31|12:30|330.0|Alerta roja|IFASP|Accidentes eléctricos|0.0|0.0|0.0|0.0|0.0|0.0|4.2|0.0|0.0|0.0|4.2|-30.844166666666663|-71.6175|WGS84
Coquimbo|Choapa|Los Vilos|2016-2017|QUILIMARI|2017-02-04|15:20|140.0|Sin alerta|IFIUr-Fo|Incendios intencionales|0.0|0.0|0.0|0.0|0.0|0.0|0.5|0.5|0.0|0.0|1.0|-32.12777777777778|-71.5025|WGS84
Coquimbo|Limarí|Ovalle|2016-2017|QUEBRADA LOS LEICES|2017-02-05|12:30|70.0|Sin alerta|IFIUr-Fo|Quema de desechos|0.0|0.0|0.0|0.0|0.0|0.0|0.0|0.01|0.0|0.0|0.01|-30.628333333333337|-71.21166666666667|WGS84
Coquimbo|Limarí|Ovalle|2016-2017|CUESTA LA PLACA|2017-02-06|15:13|287.0|Sin alerta|IFor-Vn|Tránsito de personasvehículos o aeronaves|0.0|0.0|0.0|0.0|0.0|2.0|4.0|1.0|0.0|0.0|7.0|-30.620555555555555|-71.35416666666667|WGS84
Coquimbo|Limarí|Ovalle|2016-2017|SECTOR TRAPICHE|2017-02-08|17:20|220.0|Sin alerta|IFor-Vn|Tránsito de personasvehículos o aeronaves|0.0|0.0|0.0|0.0|0.0|2.0|0.0|0.0|0.0|0.0|2.0|-30.631944444444443|-71.32083333333334|WGS84
Coquimbo|Elqui|La Serena|2016-2017|FUNDO COQUIMBITO|2017-02-15|13:30|145.0|Sin alerta|IFor-Vn|Tránsito de personasvehículos o aeronaves|0.0|0.0|0.0|0.0|0.0|0.0|0.0|0.01|0.0|0.0|0.01|-29.900277777777777|-71.17444444444445|WGS84
Coquimbo|Elqui|La Serena|2016-2017|LA ESTRELLA|2017-02-18|15:15|159.0|Sin alerta|IFor-Vn|Quema de desechos|0.0|0.0|0.0|0.0|0.0|0.0|0.1|0.1|0.0|0.0|0.2|-30.043888888888887|-71.10694444444445|WGS84
Coquimbo|Choapa|Los Vilos|2016-2017|CHIGUALOCO|2017-02-19|14:34|86.0|Sin alerta|IFor-Vn|Accidentes eléctricos|0.0|0.0|0.0|0.0|0.0|0.0|0.0|0.01|0.0|0.0|0.01|-31.72361111111111|-71.51916666666666|WGS84
Coquimbo|Limarí|Monte Patria|2016-2017|TAMELCURA|2017-02-20|19:00|1420.0|Sin alerta|IFor-Vn|Incendios de causa desconocida|0.0|0.0|0.0|3.5|0.0|0.0|0.0|0.0|0.0|0.0|3.5|-30.696666666666665|-71.03361111111111|WGS84
Coquimbo|Limarí|Ovalle|2016-2017|LA CHIMBA 4|2017-02-26|16:50|1100.0|Sin alerta|IFor-Vn|Quema de desechos|0.0|0.0|0.0|0.0|0.0|0.5|1.5|0.0|0.0|0.0|2.0|-30.64611111111111|-71.23777777777778|WGS84
Coquimbo|Limarí|Ovalle|2016-2017|TRAPICHE 2|2017-02-27|18:00|140.0|Sin alerta|IFor-Vn|Tránsito de personasvehículos o aeronaves|0.0|0.0|0.0|0.0|0.0|0.7|0.3|0.0|0.0|0.0|1.0|-30.63055555555556|-71.32333333333334|WGS84
Coquimbo|Elqui|La Serena|2016-2017|ALGARROBITO|2017-03-02|12:10|340.0|Sin alerta|IFor-PI|Tránsito de personasvehículos o aeronaves|0.0|0.0|0.0|1.0|0.0|0.0|0.0|0.2|0.0|0.0|1.2|-29.948888888888888|-71.13388888888889|WGS84
Coquimbo|Choapa|Los Vilos|2016-2017|CARACAS|2017-03-03|14:30|100.0|Sin alerta|IFor-Vn|Tránsito de personasvehículos o aeronaves|0.0|0.0|0.0|0.0|0.0|0.0|0.25|0.25|0.0|0.0|0.5|-31.92861111111111|-71.485|WGS84
Coquimbo|Limarí|Ovalle|2016-2017|BOSQUE LA CHIMBA 3|2017-03-05|15:15|345.0|Alerta amarilla|IFor-Vn|Quema de desechos|0.0|0.0|0.0|0.0|0.0|0.5|2.0|0.5|0.0|0.0|3.0|-30.625|-71.235|WGS84
Coquimbo|Choapa|Los Vilos|2016-2017|CASCABELES 1|2017-03-06|14:30|90.0|Sin alerta|IFor-Vn|Tránsito de personasvehículos o aeronaves|0.0|0.0|0.0|0.0|0.0|0.0|0.0|0.5|0.0|0.0|0.5|-31.97583333333333|-71.49305555555556|WGS84
Coquimbo|Limarí|Ovalle|2016-2017|CARACHILLAS|2017-03-06|18:00|1184.0|Alerta amarilla|IFor-Vn|Tránsito de personasvehículos o aeronaves|0.0|0.0|0.0|0.0|0.0|3.0|1.5|0.5|0.0|0.0|5.0|-30.679722222222225|-71.06666666666666|WGS84
Coquimbo|Elqui|La Serena|2016-2017|ALGARROBITO 2|2017-03-10|12:10|295.0|Sin alerta|IFor-PI|Tránsito de personasvehículos o aeronaves|0.0|0.0|0.0|0.4|0.0|0.0|0.0|0.0|0.0|0.0|0.4|-29.949166666666667|-71.1325|WGS84
Coquimbo|Elqui|La Serena|2016-2017|LA CANTERA|2017-03-21|18:00|70.0|Sin alerta|IFor-PI|Incendios intencionales|0.0|0.0|0.0|0.02|0.0|0.0|0.0|0.0|0.0|0.0|0.02|-29.97083333333334|-71.28666666666666|WGS84
Coquimbo|Choapa|Los Vilos|2016-2017|CARACAS 2|2017-03-22|12:15|135.0|Sin alerta|IFor-Vn|Accidentes eléctricos|0.0|0.0|0.0|0.0|0.0|0.0|0.5|0.5|0.0|0.0|1.0|-31.945833333333333|-71.47694444444444|WGS84
Coquimbo|Limarí|Ovalle|2016-2017|PANORAMICO|2017-03-27|10:00|480.0|Alerta roja|IFor-Vn|Incendios de causa desconocida|0.0|0.0|0.0|1.0|0.0|2.0|4.2|1.0|0.0|0.0|8.2|-30.654722222222222|-71.25361111111111|WGS84
Coquimbo|Limarí|Ovalle|2016-2017|FUNDO SAN JOSE. OVALLE|2017-04-05|12:45|84.0|Sin alerta|IFor-Vn|Tránsito de personasvehículos o aeronaves|0.0|0.0|0.0|0.0|0.0|0.0|0.01|0.0|0.0|0.0|0.01|-30.613055555555555|-71.12944444444445|WGS84
Coquimbo|Limarí|Ovalle|2016-2017|FUNDO LAS CAÑAS|2017-04-06|11:50|112.0|Sin alerta|IFor-Vn|Faenas agrícolas y pecuarias|0.0|0.0|0.0|0.0|0.0|0.0|0.0|0.0|0.0|0.01|0.01|-30.614444444444445|-71.13277777777778|WGS84
Coquimbo|Elqui|La Serena|2016-2017|ISLON|2017-04-06|18:50|70.0|Sin alerta|IFor-Vn|Quema de desechos|0.0|0.0|0.0|0.0|0.0|0.01|0.0|0.0|0.0|0.0|0.01|-29.89305555555556|-71.17527777777778|WGS84
Coquimbo|Elqui|La Serena|2016-2017|QUILACAN 5|2017-04-10|15:10|95.0|Sin alerta|IFor-PI|Quema de desechos|0.0|0.0|0.0|0.01|0.0|0.0|0.0|0.0|0.0|0.0|0.01|-29.949166666666667|-71.13361111111111|WGS84
Coquimbo|Choapa|Salamanca|2016-2017|LLAMUCO|2017-04-19|14:00|100.0|Sin alerta|IFor-Vn|Incendios de causa desconocida|0.0|0.0|0.0|0.0|0.0|10.0|10.0|20.0|0.0|0.0|40.0|-31.65305555555556|-70.75583333333333|WGS84
Coquimbo|Choapa|Los Vilos|2016-2017|PICHIDANGUI|2017-04-21|17:30|123.0|Sin alerta|IFor-Vn|Tránsito de personasvehículos o aeronaves|0.0|0.0|0.0|0.0|0.0|0.0|0.5|0.5|0.0|0.0|1.0|-32.17138888888889|-71.51916666666666|WGS84
Coquimbo|Choapa|Salamanca|2016-2017|CERRO MALLACUN|2017-04-27|10:20|170.0|Sin alerta|IFor-Vn|Otras actividades|0.0|0.0|0.0|0.0|0.0|0.0|0.5|1.5|0.0|0.0|2.0|-31.80027777777778|-70.84361111111112|WGS84
Coquimbo|Choapa|Salamanca|2016-2017|EL QUEÑE|2017-04-30|10:30|223.0|Alerta amarilla|IFor-Vn|Faenas agrícolas y pecuarias|0.0|0.0|0.0|0.0|0.0|0.25|0.25|0.5|0.0|0.0|1.0|-31.79166666666667|-70.96444444444444|WGS84
Valparaíso|Quillota|Quillota|2016-2017|PARQUE ACONCAGUA|2016-08-09|12:55|140.0|Sin alerta|IFIUr-Fo|Tránsito de personasvehículos o aeronaves|0.0|0.0|0.0|0.0|0.0|0.0|0.0|0.03|0.0|0.0|0.03|-32.87388888888889|-71.25888888888889|WGS84
Valparaíso|Marga Marga|Olmué|2016-2017|LA RAMAYANA|2016-08-13|11:45|290.0|Sin alerta|IFor-Vn|Tránsito de personasvehículos o aeronaves|0.0|0.0|0.0|0.0|0.0|0.59|5.59|2.27|0.0|0.0|8.45|-33.07416666666666|-71.0425|WGS84
Valparaíso|Valparaíso|Valparaíso|2016-2017|LAS CENIZAS PUERTA 5|2016-08-18|00:30|105.0|Sin alerta|IFor-PI|Tránsito de personasvehículos o aeronaves|0.0|0.0|0.0|0.05|0.0|0.0|0.0|0.05|0.0|0.0|0.1|-33.1075|-71.555|WGS84
Valparaíso|Valparaíso|Valparaíso|2016-2017|BORDE DE LAGUNA CURAUMA|2016-08-18|23:55|93.0|Sin alerta|IFIUr-Fo|Tránsito de personasvehículos o aeronaves|0.0|0.0|0.0|0.0|0.0|0.0|0.0|0.07|0.0|0.03|0.1|-33.144444444444446|-71.57472222222222|WGS84
Valparaíso|San Antonio|El Tabo|2016-2017|PANGUE ALTO CHEPICA|2016-08-22|13:25|106.0|Sin alerta|IFor-PI|Tránsito de personasvehículos o aeronaves|0.0|0.0|0.0|0.0|0.0|0.0|0.0|0.08|0.0|0.02|0.1|-33.445277777777775|-71.64166666666667|WGS84
Valparaíso|Los Andes|Calle Larga|2016-2017|SECTOR LOS ROSALES|2016-08-22|14:35|1315.0|Sin alerta|IFor-Vn|Tránsito de personasvehículos o aeronaves|0.0|0.0|0.0|0.0|0.0|0.0|0.8|1.2|0.0|0.0|2.0|-32.88777777777778|-70.56916666666666|WGS84
Valparaíso|Valparaíso|Valparaíso|2016-2017|EKONO CURAUMA|2016-08-29|20:27|103.0|Sin alerta|IFor-PI|Tránsito de personasvehículos o aeronaves|0.0|0.03|0.0|0.0|0.0|0.0|0.0|0.0|0.0|0.02|0.05|-33.12638888888889|-71.58166666666666|WGS84
Valparaíso|Valparaíso|Viña del Mar|2016-2017|SHELL REÑACA ALTO|2016-08-30|22:08|92.0|Sin alerta|IFIUr-Fo|Tránsito de personasvehículos o aeronaves|0.0|0.0|0.0|0.0|0.0|0.0|0.0|0.05|0.0|0.03|0.08|-32.994166666666665|-71.49972222222222|WGS84
Valparaíso|Marga Marga|Quilpué|2016-2017|ESTERO MARGARITA|2016-08-31|16:30|1190.0|Sin alerta|IFor-Vn|Tránsito de personasvehículos o aeronaves|0.0|0.0|0.0|0.0|0.0|0.0|0.38|0.1|0.0|0.0|0.48|-33.08416666666667|-71.42388888888888|WGS84
Valparaíso|Valparaíso|Viña del Mar|2016-2017|LOMAS DEL BOSQUE|2016-09-02|10:53|52.0|Sin alerta|IFIUr-Fo|Tránsito de personasvehículos o aeronaves|0.0|0.0|0.0|0.0|0.0|0.0|0.0|0.03|0.0|0.0|0.03|-32.99|-71.49972222222222|WGS84
Valparaíso|San Antonio|Santo Domingo|2016-2017|MEDIA LUNA SAN ENRIQUE|2016-09-04|15:00|165.0|Sin alerta|IFor-Vn|Tránsito de personasvehículos o aeronaves|0.0|0.0|0.0|0.0|0.0|0.0|0.0|0.5|0.0|0.0|0.5|-33.91|-71.72888888888889|WGS84
Valparaíso|San Antonio|El Quisco|2016-2017|FUNDO EL TOTORAL|2016-09-06|14:46|94.0|Sin alerta|IFor-Vn|Tránsito de personasvehículos o aeronaves|0.0|0.0|0.0|0.0|0.0|0.0|0.0|0.06|0.0|0.03|0.09|-33.41638888888889|-71.62527777777778|WGS84
Valparaíso|San Felipe de Aconcagua|Catemu|2016-2017|SANTA MARGARITA|2016-09-07|11:20|260.0|Sin alerta|IFor-PI|Tránsito de personasvehículos o aeronaves|0.0|0.0|0.0|1.9|0.0|0.0|0.0|0.1|0.0|0.0|2.0|-32.79666666666667|-70.94972222222222|WGS84
Valparaíso|Valparaíso|Viña del Mar|2016-2017|MIRADOR  GABRIELA  MARTINEZ|2016-09-09|18:25|172.0|Sin alerta|IFor-Vn|Tránsito de personasvehículos o aeronaves|0.0|0.0|0.0|0.0|0.0|1.2|0.7|0.1|0.0|0.0|2.0|-32.996944444444445|-71.5261111111111|WGS84
Valparaíso|Marga Marga|Villa Alemana|2016-2017|CLUB DE CAMPO SANTA ANA|2016-09-17|17:10|1170.0|Sin alerta|IFIUr-Fo|Faenas forestales|0.0|0.0|0.0|0.22|0.0|0.0|0.08|0.0|0.0|0.07|0.37|-33.09111111111111|-71.35861111111112|WGS84
Valparaíso|Valparaíso|Valparaíso|2016-2017|ESCALA BARI|2016-09-18|13:55|58.0|Sin alerta|IFIUr-Fo|Tránsito de personasvehículos o aeronaves|0.0|0.0|0.0|0.0|0.0|0.0|0.0|0.03|0.0|0.0|0.03|-33.03388888888889|-71.59361111111112|WGS84
Valparaíso|Valparaíso|Valparaíso|2016-2017|OBISPO VALDES  EKONO|2016-09-18|15:26|149.0|Sin alerta|IFor-PI|Tránsito de personasvehículos o aeronaves|0.0|0.1|0.0|0.0|0.0|0.0|0.0|0.02|0.0|0.01|0.13|-33.13194444444444|-71.58222222222223|WGS84
Valparaíso|Quillota|La Cruz|2016-2017|CALLEJON COBARRUBIAS|2016-09-18|16:06|52.0|Sin alerta|IFor-Vn|Tránsito de personasvehículos o aeronaves|0.0|0.0|0.0|0.0|0.0|0.0|0.0|0.06|0.0|0.0|0.06|-32.85444444444445|-71.23777777777778|WGS84
Valparaíso|Valparaíso|Valparaíso|2016-2017|OBISPO VALDES|2016-09-19|13:14|176.0|Sin alerta|IFor-PI|Tránsito de personasvehículos o aeronaves|0.0|0.0|0.0|0.0|0.0|0.0|0.0|0.0|0.0|0.13|0.13|-33.12833333333333|-71.57416666666667|WGS84
Valparaíso|Valparaíso|Viña del Mar|2016-2017|FUNDO 7 HERMANAS ALTAR PAPAL|2016-09-19|17:00|57.0|Sin alerta|IFor-PI|Incendios intencionales|0.0|0.0|0.0|0.0|0.0|0.0|0.0|0.01|0.0|0.0|0.01|-33.06055555555555|-71.55611111111111|WGS84
Valparaíso|Valparaíso|Valparaíso|2016-2017|FUNDO EL LLANO SECTOR LA MARIPOSA|2016-09-19|19:26|1234.0|Alerta roja|IFor-PI|Tránsito de personasvehículos o aeronaves|4.1|0.0|0.0|0.0|0.0|0.0|7.5|3.33|0.0|6.67|21.6|-33.14888888888889|-71.5838888888889|WGS84
Valparaíso|San Felipe de Aconcagua|San Felipe|2016-2017|ENCON CAMPING ANDACOLLO|2016-09-23|13:00|184.0|Sin alerta|IFIUr-Fo|Faenas forestales|0.0|0.0|0.0|0.0|0.0|0.0|0.02|0.07|0.0|0.06|0.15|-32.73361111111111|-70.7425|WGS84
Valparaíso|Valparaíso|Valparaíso|2016-2017|FUNDO EL LLANO SECTOR LA FORESTA|2016-09-23|13:55|70.0|Sin alerta|IFor-PI|Tránsito de personasvehículos o aeronaves|0.0|0.0|0.0|0.0|0.0|0.0|0.0|0.02|0.0|0.04|0.06|-33.134166666666665|-71.57527777777777|WGS84
Valparaíso|San Antonio|Santo Domingo|2016-2017|RINCONADA SAN ENRIQUE|2016-09-23|15:26|150.0|Sin alerta|IFIUr-Fo|Tránsito de personasvehículos o aeronaves|0.0|0.0|0.0|0.0|0.0|0.0|1.7|2.0|0.0|0.0|3.7|-33.93361111111111|-71.74916666666667|WGS84
Valparaíso|Valparaíso|Valparaíso|2016-2017|BOSQUES DE CURAUMA|2016-09-24|13:25|201.0|Sin alerta|IFor-PI|Tránsito de personasvehículos o aeronaves|0.0|0.0|0.0|0.0|0.0|0.0|0.2|0.0|0.0|0.15|0.35|-33.132777777777775|-71.57944444444445|WGS84
Valparaíso|Marga Marga|Olmué|2016-2017|LA CARACHA  CUESTA LA DORMIDA|2016-09-25|13:35|79.0|Sin alerta|IFor-Vn|Tránsito de personasvehículos o aeronaves|0.0|0.0|0.0|0.0|0.0|0.02|0.0|0.04|0.0|0.0|0.06|-33.11277777777778|-71.02194444444444|WGS84
Valparaíso|Marga Marga|Quilpué|2016-2017|LA FRONTERA  EL RETIRO|2016-09-25|15:14|38.0|Sin alerta|IFor-Vn|Tránsito de personasvehículos o aeronaves|0.0|0.0|0.0|0.0|0.0|0.0|0.03|0.03|0.0|0.0|0.06|-33.02777777777778|-71.45361111111112|WGS84
Valparaíso|San Antonio|San Antonio|2016-2017|FUNDO MIRAMAR PUENTE ARÉVALO|2016-09-29|13:44|1333.0|Sin alerta|IFor-PI|Tránsito de personasvehículos o aeronaves|0.0|0.0|0.0|0.4|0.0|0.0|0.0|0.1|0.0|0.1|0.6|-33.576388888888886|-71.60111111111111|WGS84
Valparaíso|Marga Marga|Limache|2016-2017|PARCELA LA LIBERTAD|2016-10-02|12:57|93.0|Sin alerta|IFIUr-Fo|Accidentes eléctricos|0.0|0.0|0.0|0.0|0.0|0.0|0.0|0.07|0.0|0.0|0.07|-32.92527777777778|-71.38805555555555|WGS84
Valparaíso|San Antonio|Santo Domingo|2016-2017|LA PRINCESA 2|2016-10-02|13:05|22.0|Sin alerta|IFIUr-Fo|Tránsito de personasvehículos o aeronaves|0.0|0.0|0.0|0.0|0.0|0.0|0.0|0.0|0.0|0.01|0.01|-33.68527777777778|-71.59055555555555|WGS84
Valparaíso|Valparaíso|Valparaíso|2016-2017|TRANQUE LA LUZ|2016-10-04|00:47|156.0|Sin alerta|IFor-Vn|Tránsito de personasvehículos o aeronaves|0.01|0.0|0.0|0.01|0.0|0.0|0.04|0.0|0.0|0.0|0.06|-33.14388888888889|-71.57333333333334|WGS84
Valparaíso|Valparaíso|Valparaíso|2016-2017|TRANQUE LA LUZ 2|2016-10-04|08:40|559.0|Sin alerta|IFIUr-Fo|Incendios intencionales|0.1|0.0|0.0|0.1|0.0|0.0|0.06|0.15|0.0|0.09|0.5|-33.14416666666666|-71.5736111111111|WGS84
Valparaíso|San Antonio|Santo Domingo|2016-2017|FUNDO ATALAYA|2016-10-04|13:07|107.0|Sin alerta|IFor-Vn|Accidentes eléctricos|0.0|0.0|0.0|0.0|0.0|0.0|0.0|0.1|0.0|0.0|0.1|-33.742777777777775|-71.61777777777777|WGS84
Valparaíso|Valparaíso|Valparaíso|2016-2017|TIERRAS ROJAS|2016-10-04|14:34|56.0|Sin alerta|IFIUr-Fo|Tránsito de personasvehículos o aeronaves|0.0|0.0|0.0|0.0|0.0|0.0|0.0|0.12|0.0|0.0|0.12|-33.05583333333333|-71.58083333333333|WGS84
Valparaíso|Valparaíso|Valparaíso|2016-2017|TIERRAS ROJAS 2|2016-10-04|14:37|64.0|Sin alerta|IFIUr-Fo|Tránsito de personasvehículos o aeronaves|0.0|0.0|0.0|0.0|0.0|0.0|0.02|0.02|0.0|0.0|0.04|-33.056111111111115|-71.5825|WGS84
Valparaíso|Quillota|Quillota|2016-2017|FUNDO EL QUINTIL|2016-10-05|05:55|375.0|Sin alerta|IFIUr-Fo|Tránsito de personasvehículos o aeronaves|0.0|0.0|0.0|0.0|0.0|0.0|0.04|0.1|0.0|0.0|0.14|-32.88583333333333|-71.20527777777778|WGS84
Valparaíso|San Antonio|San Antonio|2016-2017|FUNDO MIRAMAR-PORTONES ROJOS|2016-10-05|16:07|1409.0|Sin alerta|IFIUr-Fo|Incendios intencionales|0.0|0.6|0.0|0.0|0.0|0.0|0.0|1.5|0.0|0.0|2.1|-33.57666666666667|-71.60027777777778|WGS84
Valparaíso|Valparaíso|Valparaíso|2016-2017|FUNDO LA MARIPOSA|2016-10-05|18:35|216.0|Alerta roja|IFor-PI|Tránsito de personasvehículos o aeronaves|0.0|0.0|10.14|48.86|0.0|4.51|6.09|6.0|0.0|0.0|75.6|-33.14666666666667|-71.58361111111111|WGS84
Valparaíso|Quillota|Nogales|2016-2017|NOGALES RUTA F-20|2016-10-06|12:00|658.0|Alerta roja|IFor-Vn|Tránsito de personasvehículos o aeronaves|0.0|0.0|0.0|0.0|0.0|0.0|5.2|10.0|0.0|0.0|15.2|-32.73222222222222|-71.22444444444444|WGS84
Valparaíso|Valparaíso|Puchuncavi|2016-2017|VILLA LOS PATOS-LA GREDA|2016-10-06|13:58|25.0|Sin alerta|IFIUr-Fo|Tránsito de personasvehículos o aeronaves|0.0|0.0|0.0|0.0|0.0|0.0|0.0|0.03|0.0|0.0|0.03|-32.74527777777778|-71.47916666666667|WGS84
Valparaíso|Valparaíso|Casablanca|2016-2017|PURO CABALLO|2016-10-06|15:30|75.0|Sin alerta|IFIUr-Fo|Tránsito de personasvehículos o aeronaves|0.0|0.0|0.0|0.0|0.0|0.0|0.0|0.05|0.0|0.0|0.05|-33.43833333333333|-71.44527777777778|WGS84
Valparaíso|Marga Marga|Quilpué|2016-2017|VILLA PORVENIR|2016-10-07|14:20|97.0|Sin alerta|IFIUr-Fo|Tránsito de personasvehículos o aeronaves|0.0|0.0|0.0|0.0|0.0|0.0|0.1|0.2|0.0|0.0|0.3|-33.06638888888889|-71.415|WGS84
Valparaíso|Quillota|Nogales|2016-2017|HUASO FUNDIDO|2016-10-07|14:50|70.0|Sin alerta|IFIUr-Fo|Tránsito de personasvehículos o aeronaves|0.0|0.0|0.0|0.0|0.0|0.0|0.1|0.4|0.0|0.0|0.5|-32.73305555555555|-71.2225|WGS84
Valparaíso|Valparaíso|Concón|2016-2017|GRANJA EDUCATIVA|2016-10-07|19:58|940.0|Sin alerta|IFIUr-Fo|Tránsito de personasvehículos o aeronaves|0.0|0.0|0.0|0.0|0.0|0.0|0.05|0.05|0.0|0.0|0.1|-32.91916666666667|-71.47083333333333|WGS84
Valparaíso|Valparaíso|Viña del Mar|2016-2017|ESTERO REÑACA ALTO|2016-10-08|15:08|147.0|Sin alerta|IFor-Vn|Tránsito de personasvehículos o aeronaves|0.0|0.0|0.0|0.0|0.0|0.0|0.08|0.6|0.0|0.0|0.6799999999999999|-32.986666666666665|-71.49138888888889|WGS84
Valparaíso|Marga Marga|Quilpué|2016-2017|TENIENTE SERRANO|2016-10-10|15:53|104.0|Sin alerta|IFor-Vn|Incendios intencionales|0.0|0.0|0.0|0.0|0.0|0.0|0.02|0.03|0.0|0.0|0.05|-33.07111111111111|-71.4075|WGS84
Valparaíso|Marga Marga|Quilpué|2016-2017|POBLACION TEXTIL|2016-10-10|16:04|81.0|Sin alerta|IFIUr-Fo|Incendios intencionales|0.0|0.0|0.0|0.2|0.0|0.0|0.3|0.8|0.0|0.0|1.3|-33.06333333333333|-71.42083333333333|WGS84
Valparaíso|Marga Marga|Villa Alemana|2016-2017|FUNDO SANTA ANA|2016-10-10|16:05|158.0|Sin alerta|IFor-Vn|Incendios intencionales|0.0|0.0|0.0|0.2|0.0|0.0|0.2|0.3|0.0|0.0|0.7|-33.08222222222222|-71.37055555555555|WGS84
Valparaíso|Marga Marga|Quilpué|2016-2017|LAGO LANALHUE|2016-10-10|17:09|69.0|Sin alerta|IFor-Vn|Incendios intencionales|0.0|0.0|0.0|0.0|0.0|0.0|0.12|0.4|0.0|0.0|0.52|-33.06333333333333|-71.4161111111111|WGS84
Valparaíso|Los Andes|Calle Larga|2016-2017|EL PATAGUAL|2016-10-11|13:53|307.0|Sin alerta|IFIUr-Fo|Tránsito de personasvehículos o aeronaves|0.0|0.0|0.0|0.0|0.0|0.0|1.0|3.0|0.0|0.0|4.0|-32.861666666666665|-70.61472222222223|WGS84
Valparaíso|Valparaíso|Casablanca|2016-2017|TAPIHUE|2016-10-11|14:33|237.0|Alerta roja|IFor-Vn|Quema de desechos|0.0|0.0|0.0|0.0|0.0|2.4|4.1|7.1|0.0|0.0|13.6|-33.32388888888889|-71.31111111111112|WGS84
Valparaíso|Quillota|Quillota|2016-2017|EX REGIMIENTO DE CABALLERIA|2016-10-11|14:55|50.0|Sin alerta|IFIUr-Fo|Tránsito de personasvehículos o aeronaves|0.0|0.0|0.0|0.0|0.0|0.0|0.02|0.03|0.0|0.0|0.05|-32.88611111111111|-71.2575|WGS84
Valparaíso|San Antonio|San Antonio|2016-2017|FUNDO MIRAMAR-MINA DE CAL|2016-10-11|16:40|170.0|Sin alerta|IFor-Vn|Tránsito de personasvehículos o aeronaves|0.0|0.0|0.0|0.0|0.0|0.0|0.5|1.0|0.0|0.0|1.5|-33.57222222222222|-71.59388888888888|WGS84
Valparaíso|Valparaíso|Quintero|2016-2017|HUMEDAL DE MANTAGUA|2016-10-18|10:48|528.0|Sin alerta|IFor-Vn|Accidentes eléctricos|0.0|0.1|0.0|0.0|0.0|0.0|0.05|0.1|0.0|0.0|0.25|-32.88027777777778|-71.50166666666667|WGS84
Valparaíso|Marga Marga|Villa Alemana|2016-2017|SAN JOSE DE LA PALMILLA|2016-10-18|15:24|76.0|Sin alerta|IFor-Vn|Tránsito de personasvehículos o aeronaves|0.0|0.0|0.0|0.07|0.0|0.0|0.6|1.0|0.0|0.0|1.67|-33.06916666666667|-71.37527777777778|WGS84
Valparaíso|Marga Marga|Quilpué|2016-2017|COLINAS DE ORO|2016-10-18|17:40|107.0|Sin alerta|IFor-Vn|Actividades recreativas|0.0|0.0|0.0|0.0|0.0|0.0|0.24|0.3|0.0|0.0|0.54|-33.056111111111115|-71.43972222222222|WGS84
Valparaíso|Valparaíso|Quintero|2016-2017|HUMEDAL DE MANTAGUA 2|2016-10-19|19:55|1205.0|Sin alerta|IFor-Vn|Incendios intencionales|0.5|0.0|0.0|0.0|0.0|0.0|0.3|0.0|0.0|0.0|0.8|-32.879444444444445|-71.5025|WGS84
Valparaíso|Quillota|Nogales|2016-2017|CERRO LA VIRGEN|2016-10-20|13:07|108.0|Sin alerta|IFor-Vn|Incendios intencionales|0.0|0.0|0.0|0.0|0.0|0.1|0.4|0.5|0.0|0.0|1.0|-32.73722222222222|-71.21083333333333|WGS84
Valparaíso|Quillota|Quillota|2016-2017|VILLA PARAÍSO|2016-10-20|13:40|80.0|Sin alerta|IFIUr-Fo|Tránsito de personasvehículos o aeronaves|0.0|0.0|0.0|0.0|0.0|0.0|0.1|0.2|0.0|0.0|0.3|-32.88111111111111|-71.23638888888888|WGS84
Valparaíso|Quillota|Nogales|2016-2017|EL POLIGONO|2016-10-20|16:14|182.0|Sin alerta|IFor-Vn|Incendios intencionales|0.0|0.0|0.0|0.0|0.0|0.0|2.0|5.0|0.0|0.0|7.0|-32.7375|-71.2286111111111|WGS84
Valparaíso|Valparaíso|Puchuncavi|2016-2017|CAMPICHE|2016-10-20|17:45|128.0|Sin alerta|IFor-Vn|Incendios intencionales|0.0|0.0|0.0|0.04|0.0|0.0|0.0|0.06|0.0|0.0|0.1|-32.72694444444444|-71.44083333333333|WGS84
Valparaíso|Quillota|Quillota|2016-2017|LOS PARRONES|2016-10-21|13:30|225.0|Sin alerta|IFIUr-Fo|Tránsito de personasvehículos o aeronaves|0.0|0.0|0.0|0.0|0.0|0.0|0.8|0.6|0.0|0.0|1.4|-32.86694444444444|-71.24583333333334|WGS84
Valparaíso|Isla de Pascua|Isla de Pascua|2016-2017|VAI TATA KOKOMA|2016-10-21|14:10|120.0|Sin alerta|IFIns|Tránsito de personasvehículos o aeronaves|0.0|0.0|0.0|0.0|0.0|0.0|0.0|1.0|0.0|0.0|1.0|-27.11555555555556|-109.37194444444444|WGS84
Valparaíso|Marga Marga|Villa Alemana|2016-2017|FUNDO EL TRIANGULO|2016-10-21|14:16|80.0|Sin alerta|IFor-Vn|Tránsito de personasvehículos o aeronaves|0.0|0.0|0.0|0.0|0.0|0.0|0.4|0.9|0.0|0.0|1.3|-33.07138888888889|-71.36944444444444|WGS84
Valparaíso|Marga Marga|Villa Alemana|2016-2017|FUNDO EL TRIANGULO 2|2016-10-21|17:14|43.0|Sin alerta|IFor-Vn|Incendios intencionales|0.0|0.0|0.0|0.0|0.0|0.0|0.3|0.7|0.0|0.0|1.0|-33.073055555555555|-71.36694444444444|WGS84
Valparaíso|San Felipe de Aconcagua|Llay-Llay|2016-2017|FUNDO LA ESTRELLA|2016-10-22|11:35|385.0|Alerta roja|IFor-Vn|Tránsito de personasvehículos o aeronaves|0.0|0.0|0.0|0.0|0.0|18.05|22.05|66.9|0.0|0.0|107.0|-32.91444444444444|-70.80444444444444|WGS84
Valparaíso|Valparaíso|Puchuncavi|2016-2017|LOS MAITENES|2016-10-22|20:50|90.0|Sin alerta|IFIUr-Fo|Tránsito de personasvehículos o aeronaves|0.0|0.0|0.0|0.0|0.0|0.0|0.01|0.03|0.0|0.0|0.04|-32.76138888888889|-71.42333333333333|WGS84
Valparaíso|Marga Marga|Limache|2016-2017|FINAL CALLE CARRERA|2016-10-23|12:30|84.0|Sin alerta|IFor-Vn|Incendios intencionales|0.0|0.0|0.0|0.0|0.0|0.0|0.3|0.1|0.0|0.0|0.4|-32.994166666666665|-71.27111111111111|WGS84
Valparaíso|Marga Marga|Villa Alemana|2016-2017|FINAL EL ROCIO|2016-10-23|14:42|118.0|Sin alerta|IFIUr-Fo|Tránsito de personasvehículos o aeronaves|0.0|0.0|0.0|0.0|0.0|0.0|0.4|0.8|0.0|0.0|1.2000000000000002|-33.070277777777775|-71.39222222222222|WGS84
Valparaíso|San Felipe de Aconcagua|Catemu|2016-2017|HACIENDA SANTA ISABEL|2016-10-23|16:00|1282.0|Sin alerta|IFor-Vn|Incendios intencionales|0.0|0.0|0.0|0.0|0.0|0.2|1.3|0.5|0.0|0.0|2.0|-32.765277777777776|-70.85944444444445|WGS84
Valparaíso|Valparaíso|Valparaíso|2016-2017|CURAUMILLA-LAGUNA VERDE|2016-10-24|15:57|121.0|Sin alerta|IFor-PI|Quema de desechos|0.0|0.0|0.01|0.04|0.0|0.0|0.0|0.0|0.0|0.0|0.05|-33.129444444444445|-71.67972222222222|WGS84
Valparaíso|Marga Marga|Villa Alemana|2016-2017|FUNDO EL BOSQUE|2016-10-24|16:04|271.0|Sin alerta|IFor-Vn|Incendios intencionales|0.0|0.0|0.0|0.0|0.0|0.0|0.3|0.5|0.0|0.0|0.8|-33.02722222222222|-71.38777777777777|WGS84
Valparaíso|Quillota|Quillota|2016-2017|LOS PARRONES|2016-10-24|16:26|94.0|Sin alerta|IFor-Vn|Tránsito de personasvehículos o aeronaves|0.0|0.0|0.0|0.0|0.0|0.0|0.02|0.03|0.0|0.0|0.05|-32.86277777777778|-71.24333333333334|WGS84
Valparaíso|Quillota|La Cruz|2016-2017|LA PALMILLA|2016-10-24|16:35|118.0|Sin alerta|IFIUr-Fo|Tránsito de personasvehículos o aeronaves|0.0|0.0|0.0|0.0|0.0|0.0|0.1|0.14|0.0|0.0|0.24|-32.805277777777775|-71.20805555555556|WGS84
Valparaíso|Marga Marga|Quilpué|2016-2017|CRUCE LOS MOLLES|2016-10-24|19:12|47.0|Sin alerta|IFIUr-Fo|Tránsito de personasvehículos o aeronaves|0.0|0.0|0.0|0.0|0.0|0.0|0.12|0.08|0.0|0.0|0.2|-33.09555555555556|-71.37361111111112|WGS84
Valparaíso|Marga Marga|Villa Alemana|2016-2017|FUNDO EL CARMEN|2016-10-24|19:46|67.0|Sin alerta|IFIUr-Fo|Tránsito de personasvehículos o aeronaves|0.0|0.0|0.0|0.0|0.0|0.0|0.11|0.19|0.0|0.0|0.3|-33.04361111111111|-71.32833333333333|WGS84
Valparaíso|Valparaíso|Valparaíso|2016-2017|LA PLANCHADA|2016-10-25|01:10|47.0|Sin alerta|IFIUr-Fo|Tránsito de personasvehículos o aeronaves|0.0|0.0|0.0|0.01|0.0|0.0|0.0|0.03|0.0|0.0|0.04|-33.05583333333333|-71.58361111111111|WGS84
Valparaíso|Valparaíso|Valparaíso|2016-2017|FUNDO CURAUMILLA LAGUNA SECA|2016-10-25|09:08|102.0|Sin alerta|IFor-PI|Tránsito de personasvehículos o aeronaves|0.0|0.0|0.0|0.0|0.0|0.0|0.01|0.01|0.0|0.0|0.02|-33.12972222222222|-71.68027777777777|WGS84
Valparaíso|Petorca|La Ligua|2016-2017|REVISION TECNICA QUEBRADILLA|2016-10-25|11:29|121.0|Sin alerta|IFor-Vn|Tránsito de personasvehículos o aeronaves|0.0|0.0|0.0|0.0|0.0|0.0|0.2|0.8|0.0|0.0|1.0|-32.46083333333333|-71.25694444444444|WGS84
Valparaíso|Marga Marga|Quilpué|2016-2017|FINAL CALLE JOSE URIBE|2016-10-25|14:12|93.0|Sin alerta|IFor-Vn|Actividades recreativas|0.0|0.0|0.0|0.0|0.0|0.0|0.43|0.9|0.0|0.0|1.33|-33.032222222222224|-71.41055555555556|WGS84
Valparaíso|Marga Marga|Villa Alemana|2016-2017|EL CARACOL|2016-10-25|15:10|100.0|Sin alerta|IFIUr-Fo|Tránsito de personasvehículos o aeronaves|0.0|0.0|0.0|0.0|0.0|0.0|0.17|0.3|0.0|0.0|0.47|-33.03388888888889|-71.39|WGS84
Valparaíso|Quillota|Quillota|2016-2017|LOS PARRONES|2016-10-25|15:50|145.0|Sin alerta|IFIUr-Fo|Tránsito de personasvehículos o aeronaves|0.0|0.0|0.0|0.0|0.0|0.0|1.09|2.8|0.0|0.0|3.89|-32.86472222222222|-71.24416666666667|WGS84
Valparaíso|Valparaíso|Concón|2016-2017|INDEPENDENCIA DE LOS PINOS|2016-10-25|16:26|76.0|Sin alerta|IFor-Vn|Quema de desechos|0.0|0.0|0.0|0.0|0.0|0.0|0.0|0.52|0.0|0.0|0.52|-32.93194444444445|-71.45694444444445|WGS84
Valparaíso|Valparaíso|Valparaíso|2016-2017|FUNDO LAS CENIZAS  PUERTA 8|2016-10-25|16:45|1091.0|Sin alerta|IFor-Vn|Incendios intencionales|0.0|0.1|0.0|0.15|0.0|0.05|0.0|0.0|0.0|0.0|0.3|-33.09555555555556|-71.54555555555555|WGS84
Valparaíso|Marga Marga|Villa Alemana|2016-2017|HIPODROMO|2016-10-25|18:16|186.0|Sin alerta|IFIUr-Fo|Tránsito de personasvehículos o aeronaves|0.0|0.0|0.0|0.28|0.0|0.0|0.0|0.9|0.0|0.0|1.1800000000000002|-33.05138888888889|-71.3561111111111|WGS84
Valparaíso|Quillota|Quillota|2016-2017|LOS PARRONES|2016-10-26|11:28|57.0|Sin alerta|IFor-Vn|Incendios intencionales|0.0|0.0|0.0|0.0|0.0|0.0|0.1|0.15|0.0|0.0|0.25|-32.86333333333333|-71.24194444444444|WGS84
Valparaíso|Valparaíso|Viña del Mar|2016-2017|GLORIAS NAVALES|2016-10-26|12:00|60.0|Sin alerta|IFIUr-Fo|Tránsito de personasvehículos o aeronaves|0.0|0.0|0.0|0.0|0.0|0.0|0.0|0.1|0.0|0.0|0.1|-32.9975|-71.50222222222222|WGS84
Valparaíso|Quillota|Nogales|2016-2017|ESTERO LOS LITRES|2016-10-26|12:24|123.0|Sin alerta|IFor-PI|Incendios intencionales|0.0|0.0|0.0|0.0|0.0|0.0|0.04|0.06|0.0|0.0|0.1|-32.74305555555556|-71.20166666666667|WGS84
Valparaíso|Marga Marga|Villa Alemana|2016-2017|LOS ARRAYANES|2016-10-26|14:00|151.0|Sin alerta|IFor-Vn|Incendios intencionales|0.0|0.0|0.0|0.0|0.0|0.0|1.0|3.9|0.0|0.0|4.9|-33.06027777777778|-71.3425|WGS84
Valparaíso|Quillota|Quillota|2016-2017|LOS PARRONES 2|2016-10-26|14:23|59.0|Sin alerta|IFIUr-Fo|Incendios intencionales|0.0|0.0|0.0|0.0|0.0|0.0|0.05|0.1|0.0|0.0|0.15|-32.8625|-71.24305555555556|WGS84
Valparaíso|San Felipe de Aconcagua|Catemu|2016-2017|EL SECO ALTO|2016-10-26|15:10|156.0|Sin alerta|IFor-Vn|Tránsito de personasvehículos o aeronaves|0.0|0.0|0.0|0.0|0.0|0.0|0.0|0.04|0.0|0.0|0.04|-32.74611111111111|-70.96694444444445|WGS84
Valparaíso|San Antonio|El Quisco|2016-2017|EL MEMBRILLO|2016-10-26|15:59|1286.0|Sin alerta|IFor-Vn|Accidentes eléctricos|0.0|0.0|0.01|0.0|0.0|0.0|0.6|0.89|0.0|0.0|1.5|-33.426944444444445|-71.62916666666666|WGS84
Valparaíso|Marga Marga|Villa Alemana|2016-2017|VIÑAS DEL BOSQUE|2016-10-26|17:37|51.0|Sin alerta|IFor-Vn|Tránsito de personasvehículos o aeronaves|0.0|0.0|0.0|0.0|0.0|0.0|0.05|0.05|0.0|0.0|0.1|-33.01833333333333|-71.39|WGS84
Valparaíso|Marga Marga|Villa Alemana|2016-2017|LOS ARRAYANES 2|2016-10-26|18:00|265.0|Sin alerta|IFIUr-Fo|Incendios intencionales|0.0|0.0|0.0|0.0|0.0|0.0|0.1|0.2|0.0|0.0|0.3|-33.06138888888889|-71.34194444444445|WGS84
Valparaíso|Los Andes|Los Andes|2016-2017|HACIENDA RINCONADA|2016-10-30|15:52|233.0|Sin alerta|IFIUr-Fo|Tránsito de personasvehículos o aeronaves|0.0|0.0|0.0|0.0|0.0|0.0|5.0|7.8|0.0|0.0|12.8|-32.81666666666667|-70.7225|WGS84
Valparaíso|Valparaíso|Valparaíso|2016-2017|TRANQUE LA LUZ|2016-10-30|17:46|1196.0|Sin alerta|IFor-Vn|Incendios intencionales|0.0|0.05|0.0|0.07|0.0|0.0|0.05|0.0|0.0|0.0|0.17|-33.132777777777775|-71.59166666666667|WGS84
Valparaíso|Valparaíso|Valparaíso|2016-2017|POBLACION MANUEL RODRIGUEZ|2016-10-31|16:08|70.0|Sin alerta|IFIUr-Fo|Tránsito de personasvehículos o aeronaves|0.0|0.0|0.0|0.03|0.0|0.0|0.0|0.0|0.0|0.0|0.03|-33.05138888888889|-71.58611111111111|WGS84
Valparaíso|Valparaíso|Puchuncavi|2016-2017|CAMINO VIEJO-HORCON|2016-11-01|13:10|493.0|Alerta roja|IFIUr-Fo|Tránsito de personasvehículos o aeronaves|0.0|0.0|0.0|5.0|0.0|0.0|1.0|0.25|0.0|0.0|6.25|-32.72388888888889|-71.4786111111111|WGS84
Valparaíso|Marga Marga|Villa Alemana|2016-2017|VIÑA EL BOSQUE|2016-11-01|13:36|177.0|Sin alerta|IFIUr-Fo|Tránsito de personasvehículos o aeronaves|0.0|0.0|0.0|0.0|0.0|0.0|0.0|0.01|0.0|0.0|0.01|-33.032222222222224|-71.38944444444445|WGS84
Valparaíso|Quillota|Nogales|2016-2017|MINA EL SOLDADO|2016-11-01|14:05|289.0|Sin alerta|IFor-Vn|Faenas agrícolas y pecuarias|0.0|0.0|0.0|0.0|0.0|11.0|13.0|13.0|0.0|0.0|37.0|-32.67527777777778|-71.13583333333334|WGS84
Valparaíso|Valparaíso|Valparaíso|2016-2017|CAMINO LA POLVORA-SEAL|2016-11-01|15:12|63.0|Sin alerta|IFIUr-Fo|Actividades recreativas|0.0|0.0|0.0|0.0|0.0|0.0|0.0|0.03|0.0|0.0|0.03|-33.06916666666667|-71.63138888888889|WGS84
Valparaíso|Valparaíso|Valparaíso|2016-2017|SAN ROQUE  POBLACION MANUEL RODRIGUEZ|2016-11-01|16:00|43.0|Sin alerta|IFIUr-Fo|Tránsito de personasvehículos o aeronaves|0.0|0.0|0.0|0.0|0.0|0.0|0.01|0.01|0.0|0.0|0.02|-33.07194444444445|-71.58166666666666|WGS84
Valparaíso|Quillota|Quillota|2016-2017|LOS MAITENES|2016-11-01|16:02|319.0|Sin alerta|IFIUr-Fo|Tránsito de personasvehículos o aeronaves|0.0|0.0|0.0|4.0|0.0|0.0|1.3|0.4|0.0|0.0|5.7|-32.91861111111111|-71.29888888888888|WGS84
Valparaíso|Marga Marga|Villa Alemana|2016-2017|FUNDO MARISTAS|2016-11-01|16:33|91.0|Sin alerta|IFIUr-Fo|Incendios intencionales|0.0|0.0|0.0|0.0|0.0|0.5|1.0|1.0|0.0|0.0|2.5|-33.030277777777776|-71.365|WGS84
Valparaíso|Marga Marga|Olmué|2016-2017|QUEBRADA ALVARADO - SECTOR EL CLAVEL|2016-11-01|18:15|100.0|Sin alerta|IFor-Vn|Tránsito de personasvehículos o aeronaves|0.0|0.0|0.0|0.0|0.0|0.05|0.05|0.1|0.0|0.0|0.2|-33.04972222222222|-71.07861111111112|WGS84
Valparaíso|Marga Marga|Villa Alemana|2016-2017|FUNDO OLIVARI|2016-11-01|19:13|57.0|Sin alerta|IFIUr-Fo|Tránsito de personasvehículos o aeronaves|0.0|0.0|0.0|0.0|0.0|0.0|0.2|0.3|0.0|0.0|0.5|-33.065555555555555|-71.38027777777778|WGS84
Valparaíso|Valparaíso|Valparaíso|2016-2017|NUEVO PLACILLA|2016-11-01|23:05|59.0|Sin alerta|IFIUr-Fo|Tránsito de personasvehículos o aeronaves|0.0|0.0|0.0|0.01|0.0|0.0|0.0|0.01|0.0|0.0|0.02|-33.115833333333335|-71.54944444444445|WGS84
Valparaíso|Valparaíso|Concón|2016-2017|CEMENTERIO PARRROQUIAL|2016-11-02|10:55|140.0|Sin alerta|IFIUr-Fo|Quema de desechos|0.0|0.0|0.0|0.0|0.0|0.0|0.51|0.4|0.0|0.0|0.91|-32.93805555555556|-71.47277777777778|WGS84
Valparaíso|Valparaíso|Viña del Mar|2016-2017|UNIVERSIDAD SANTA MARIA|2016-11-02|11:00|64.0|Sin alerta|IFIUr-Fo|Tránsito de personasvehículos o aeronaves|0.0|0.0|0.0|0.0|0.0|0.0|0.0|0.03|0.0|0.0|0.03|-33.03527777777778|-71.4888888888889|WGS84
Valparaíso|Marga Marga|Villa Alemana|2016-2017|EL ROCIO|2016-11-02|11:13|50.0|Sin alerta|IFIUr-Fo|Tránsito de personasvehículos o aeronaves|0.0|0.0|0.0|0.0|0.0|0.0|0.09|0.1|0.0|0.0|0.19|-33.07472222222222|-71.38888888888889|WGS84
Valparaíso|Valparaíso|Valparaíso|2016-2017|TRANQUE LA LUZ|2016-11-02|12:30|426.0|Alerta roja|IFor-Vn|Tránsito de personasvehículos o aeronaves|0.0|0.0|5.5|0.0|0.0|0.0|2.5|0.0|0.0|2.0|10.0|-33.13305555555556|-71.58111111111111|WGS84
Valparaíso|Valparaíso|Valparaíso|2016-2017|FUNDO LA LAGUNA|2016-11-02|12:41|415.0|Alerta roja|IFIUr-Fo|Tránsito de personasvehículos o aeronaves|0.0|0.0|0.0|0.0|0.0|2.0|3.0|2.8|0.0|0.0|7.8|-33.10194444444444|-71.6588888888889|WGS84
Valparaíso|Marga Marga|Villa Alemana|2016-2017|CAJON DE LEBU|2016-11-02|13:35|120.0|Sin alerta|IFor-Vn|Tránsito de personasvehículos o aeronaves|0.0|0.0|0.0|0.0|0.0|0.0|0.2|0.4|0.0|0.0|0.6000000000000001|-33.039722222222224|-71.34388888888888|WGS84
Valparaíso|Marga Marga|Villa Alemana|2016-2017|MONTE CARMELO|2016-11-02|13:36|54.0|Sin alerta|IFIUr-Fo|Tránsito de personasvehículos o aeronaves|0.0|0.0|0.0|0.0|0.0|0.0|0.06|0.04|0.0|0.0|0.1|-33.034166666666664|-71.36194444444445|WGS84
Valparaíso|San Antonio|San Antonio|2016-2017|FUNDO MIRAMAR|2016-11-02|14:18|67.0|Sin alerta|IFIUr-Fo|Tránsito de personasvehículos o aeronaves|0.0|0.0|0.0|0.1|0.0|0.0|0.0|0.3|0.0|0.0|0.4|-33.590833333333336|-71.58833333333334|WGS84
Valparaíso|Quillota|Quillota|2016-2017|CERRO MAYACA|2016-11-02|16:00|40.0|Sin alerta|IFIUr-Fo|Tránsito de personasvehículos o aeronaves|0.0|0.0|0.0|0.0|0.0|0.0|0.05|0.15|0.0|0.0|0.2|-32.87611111111111|-71.25055555555555|WGS84
Valparaíso|Quillota|Quillota|2016-2017|LO VENECIA|2016-11-02|16:20|133.0|Sin alerta|IFor-Vn|Tránsito de personasvehículos o aeronaves|0.0|0.0|0.0|0.0|0.0|0.0|0.3|0.4|0.0|0.0|0.7|-32.93833333333333|-71.34083333333334|WGS84
Valparaíso|Valparaíso|Valparaíso|2016-2017|FDO. LA PLANTACION|2016-11-02|16:33|107.0|Sin alerta|IFor-Vn|Tránsito de personasvehículos o aeronaves|0.01|0.0|0.0|0.01|0.0|0.0|0.04|0.02|0.0|0.0|0.08|-33.07972222222222|-71.59472222222222|WGS84
Valparaíso|Marga Marga|Villa Alemana|2016-2017|VALLE EL DORADO|2016-11-02|16:51|208.0|Sin alerta|IFIUr-Fo|Quema de desechos|0.0|0.0|0.0|0.0|0.0|0.0|1.3|0.3|0.0|0.0|1.6|-33.03277777777778|-71.37361111111112|WGS84
Valparaíso|Valparaíso|Valparaíso|2016-2017|RODELILLO POBLACIÓN BÁSICA|2016-11-02|17:42|84.0|Alerta roja|IFor-Vn|Actividades recreativas|0.0|0.0|0.0|0.0|0.0|0.0|0.08|0.02|0.0|0.0|0.1|-33.05972222222222|-71.56833333333333|WGS84
Valparaíso|Valparaíso|Valparaíso|2016-2017|FDO. LA VENTOLERA|2016-11-02|19:32|81.0|Sin alerta|IFor-Vn|Incendios intencionales|0.0|0.0|0.0|0.0|0.0|0.0|0.08|0.02|0.0|0.0|0.1|-33.08166666666666|-71.58027777777778|WGS84
Valparaíso|Valparaíso|Concón|2016-2017|ENTRADA FUERTE AGUAYO|2016-11-03|11:41|463.0|Alerta roja|IFor-Vn|Tránsito de personasvehículos o aeronaves|0.0|0.0|0.0|33.0|0.0|0.0|6.0|12.0|0.0|0.0|51.0|-32.935|-71.4486111111111|WGS84
Valparaíso|Valparaíso|Valparaíso|2016-2017|CURVA EL PARQUE|2016-11-03|12:50|386.0|Alerta amarilla|IFor-Vn|Tránsito de personasvehículos o aeronaves|0.0|0.0|18.0|12.0|0.0|0.0|0.0|0.0|0.0|8.3|38.3|-33.10527777777778|-71.55972222222222|WGS84
Valparaíso|Marga Marga|Limache|2016-2017|QUERONQUE|2016-11-03|12:55|395.0|Alerta amarilla|IFor-Vn|Incendios intencionales|0.0|0.0|0.0|22.01|0.0|13.17|92.46|206.74|3.62|0.0|338.0|-32.98444444444444|-71.31944444444444|WGS84
Valparaíso|Marga Marga|Olmué|2016-2017|PELUMPEN|2016-11-03|13:00|344.0|Sin alerta|IFIUr-Fo|Tránsito de personasvehículos o aeronaves|0.0|0.0|0.0|0.0|0.0|0.0|21.3|15.0|0.0|0.0|36.3|-33.02722222222222|-71.14611111111111|WGS84
Valparaíso|Petorca|Zapallar|2016-2017|MADRE DEL AGUA|2016-11-03|13:05|381.0|Alerta roja|IFor-Vn|Tránsito de personasvehículos o aeronaves|0.0|0.0|0.0|0.0|0.0|281.3|201.03|37.67|0.0|0.0|520.0|-32.647777777777776|-71.31777777777778|WGS84
Valparaíso|Valparaíso|Valparaíso|2016-2017|EKONO-PLACILLA|2016-11-03|13:22|323.0|Sin alerta|IFIUr-Fo|Tránsito de personasvehículos o aeronaves|0.0|0.0|0.0|0.0|0.0|0.0|0.05|0.04|0.0|0.01|0.0999999999999999|-33.126666666666665|-71.56833333333333|WGS84
Valparaíso|Valparaíso|Casablanca|2016-2017|VIÑA CASAS DEL BOSQUE|2016-11-03|13:55|88.0|Sin alerta|IFor-Vn|Tránsito de personasvehículos o aeronaves|0.0|0.0|0.0|0.0|0.0|0.0|0.01|0.02|0.0|0.0|0.03|-33.31583333333333|-71.43861111111111|WGS84
Valparaíso|San Antonio|San Antonio|2016-2017|TRANQUE SAN JUAN|2016-11-03|14:00|116.0|Sin alerta|IFIUr-Fo|Accidentes eléctricos|0.0|0.0|0.0|0.02|0.0|0.0|0.0|0.03|0.0|0.0|0.05|-33.632222222222225|-71.51638888888888|WGS84
Valparaíso|Valparaíso|Valparaíso|2016-2017|FUNDO LAS CENIZAS PUERTA 2|2016-11-03|14:37|103.0|Sin alerta|IFor-Vn|Tránsito de personasvehículos o aeronaves|0.0|0.0|0.0|0.0|0.0|0.0|0.03|0.02|0.0|0.0|0.05|-33.11055555555556|-71.55166666666666|WGS84
Valparaíso|Valparaíso|Puchuncavi|2016-2017|CAMINO PUCHUNCAVÍ-NOGALES|2016-11-03|16:24|303.0|Sin alerta|IFIUr-Fo|Tránsito de personasvehículos o aeronaves|0.0|0.0|0.0|0.3|0.0|0.0|0.0|0.9|0.0|0.0|1.2|-32.73277777777778|-71.41638888888889|WGS84
Valparaíso|Valparaíso|Viña del Mar|2016-2017|LAGO ZENTENO|2016-11-03|16:25|58.0|Sin alerta|IFIUr-Fo|Tránsito de personasvehículos o aeronaves|0.0|0.0|0.0|0.0|0.0|0.0|0.0|0.3|0.0|0.0|0.3|-32.99166666666667|-71.49944444444445|WGS84
Valparaíso|San Antonio|Santo Domingo|2016-2017|ALTO DEL YALI|2016-11-03|16:33|181.0|Alerta roja|IFor-Vn|Otras actividades|0.0|0.0|0.0|0.0|0.0|0.9|7.1|15.0|0.0|0.0|23.0|-33.8075|-71.61833333333334|WGS84
Valparaíso|Quillota|Nogales|2016-2017|CERRO LA GLORIA|2016-11-03|16:40|126.0|Sin alerta|IFor-Vn|Tránsito de personasvehículos o aeronaves|0.0|0.0|0.0|0.0|0.0|0.0|0.8|0.7|0.0|0.0|1.5|-32.73972222222222|-71.16472222222222|WGS84
Valparaíso|Petorca|La Ligua|2016-2017|CORDON LAS PATAGUAS|2016-11-03|19:45|1425.0|Alerta roja|IFor-Vn|Tránsito de personasvehículos o aeronaves|0.0|0.0|0.0|0.0|0.0|80.0|50.0|70.0|0.0|0.0|200.0|-32.59638888888889|-71.10388888888889|WGS84
Valparaíso|Los Andes|Los Andes|2016-2017|LOS QUILLAYES|2016-11-04|09:35|150.0|Sin alerta|IFor-Vn|Tránsito de personasvehículos o aeronaves|0.0|0.0|0.0|0.0|0.0|0.0|0.7|1.8|0.0|0.0|2.5|-32.85722222222222|-70.52277777777778|WGS84
Valparaíso|Valparaíso|Concón|2016-2017|FUERTE AGUAYO|2016-11-04|13:35|156.0|Sin alerta|IFIUr-Fo|Incendios intencionales|0.0|0.0|0.0|0.0|0.0|0.0|0.1|0.7|0.0|0.0|0.7999999999999999|-32.93472222222222|-71.45583333333333|WGS84
Valparaíso|Valparaíso|Valparaíso|2016-2017|FUNDO EL SAUCE|2016-11-04|14:08|307.0|Alerta amarilla|IFIUr-Fo|Tránsito de personasvehículos o aeronaves|0.0|0.0|0.0|5.0|0.0|0.0|3.0|4.0|0.0|0.0|12.0|-33.10472222222222|-71.65916666666666|WGS84
Valparaíso|Marga Marga|Limache|2016-2017|FUNDO LA ENTIERRA|2016-11-04|14:18|268.0|Sin alerta|IFor-Vn|Tránsito de personasvehículos o aeronaves|0.0|0.0|0.0|0.0|0.0|0.0|1.3|2.5|0.0|0.0|3.8|-32.986111111111114|-71.34972222222223|WGS84
Valparaíso|Quillota|Quillota|2016-2017|PARADERO 12 SAN PEDRO|2016-11-04|14:22|265.0|Sin alerta|IFIUr-Fo|Tránsito de personasvehículos o aeronaves|0.0|0.0|0.0|0.2|0.0|0.0|0.2|0.1|0.0|0.0|0.5|-32.91972222222222|-71.30083333333333|WGS84
Valparaíso|Marga Marga|Villa Alemana|2016-2017|CERRO LA VIRGEN 2|2016-11-04|16:05|80.0|Sin alerta|IFor-Vn|Tránsito de personasvehículos o aeronaves|0.0|0.0|0.0|0.0|0.0|0.0|0.5|1.0|0.0|0.0|1.5|-33.03611111111111|-71.36055555555555|WGS84
Valparaíso|San Antonio|San Antonio|2016-2017|VISTA HERMOSA|2016-11-04|18:10|175.0|Sin alerta|IFIUr-Fo|Tránsito de personasvehículos o aeronaves|0.0|0.0|0.0|0.5|0.0|0.0|0.5|2.0|0.0|0.0|3.0|-33.56472222222222|-71.61055555555555|WGS84
Valparaíso|Valparaíso|Casablanca|2016-2017|LA FLECHA|2016-11-04|18:24|1312.0|Sin alerta|IFASP|Tránsito de personasvehículos o aeronaves|0.0|0.0|0.0|0.01|0.0|0.0|0.0|0.03|0.0|0.0|0.04|-33.20472222222222|-71.4975|WGS84
Valparaíso|Marga Marga|Villa Alemana|2016-2017|FINAL CALLE EL ROCIO|2016-11-05|11:48|82.0|Sin alerta|IFor-Vn|Tránsito de personasvehículos o aeronaves|0.0|0.0|0.0|0.0|0.0|0.0|0.1|0.1|0.0|0.2|0.4|-33.06861111111111|-71.39027777777778|WGS84
Valparaíso|Marga Marga|Villa Alemana|2016-2017|LOS TORREONES|2016-11-05|13:14|76.0|Sin alerta|IFor-Vn|Tránsito de personasvehículos o aeronaves|0.0|0.0|0.0|0.0|0.0|0.0|0.08|0.12|0.0|0.0|0.2|-33.048611111111114|-71.31833333333333|WGS84
Valparaíso|San Antonio|El Quisco|2016-2017|EL TOTORAL|2016-11-06|13:52|122.0|Sin alerta|IFIUr-Fo|Incendios intencionales|0.0|0.0|0.1|0.18|0.0|0.0|0.0|0.0|0.0|0.0|0.28|-33.429722222222225|-71.63555555555556|WGS84
Valparaíso|Marga Marga|Limache|2016-2017|QUERONQUE 2|2016-11-06|15:40|259.0|Sin alerta|IFor-Vn|Tránsito de personasvehículos o aeronaves|0.0|0.0|0.0|0.0|0.0|0.0|17.56|26.34|0.0|0.0|43.9|-32.986111111111114|-71.3425|WGS84
Valparaíso|Petorca|Papudo|2016-2017|EL BOLDO|2016-11-06|16:04|86.0|Sin alerta|IFor-Vn|Tránsito de personasvehículos o aeronaves|0.0|0.0|0.0|0.0|0.0|0.0|0.03|0.05|0.0|0.0|0.08|-32.48388888888889|-71.37861111111111|WGS84
Valparaíso|Valparaíso|Valparaíso|2016-2017|R.N.L.P - ENTRADA PRINCIPAL|2016-11-06|18:18|29.0|Sin alerta|IFASP|Accidentes eléctricos|0.0|0.0|0.0|0.0|0.0|0.0|0.0|0.01|0.0|0.0|0.01|-33.19083333333333|-71.49694444444444|WGS84
Valparaíso|Marga Marga|Quilpué|2016-2017|LOS QUILLAYES|2016-11-06|18:25|105.0|Sin alerta|IFIUr-Fo|Tránsito de personasvehículos o aeronaves|0.0|0.0|0.0|0.0|0.0|0.0|0.1|0.3|0.0|0.0|0.4|-33.161944444444444|-71.32083333333334|WGS84
Valparaíso|Valparaíso|Valparaíso|2016-2017|NUEVO PLACILLA|2016-11-06|18:50|88.0|Sin alerta|IFor-Vn|Tránsito de personasvehículos o aeronaves|0.0|0.03|0.0|0.04|0.0|0.0|0.0|0.0|0.0|0.0|0.07|-33.1125|-71.54027777777777|WGS84
Valparaíso|Quillota|Hijuelas|2016-2017|GUALCAPO|2016-11-07|12:59|76.0|Sin alerta|IFor-Vn|Tránsito de personasvehículos o aeronaves|0.0|0.1|0.0|0.0|0.0|0.0|0.0|0.0|0.0|0.0|0.1|-32.90805555555556|-71.09694444444445|WGS84
Valparaíso|Petorca|Zapallar|2016-2017|LAS REPRESAS|2016-11-07|13:43|179.0|Sin alerta|IFor-Vn|Accidentes eléctricos|0.0|0.0|0.0|0.0|0.0|0.0|0.0|25.6|0.0|0.0|25.6|-32.594166666666666|-71.33583333333333|WGS84
Valparaíso|Quillota|La Cruz|2016-2017|POBLACION 28 DE MARZO|2016-11-07|15:20|116.0|Sin alerta|IFIUr-Fo|Tránsito de personasvehículos o aeronaves|0.0|0.0|0.0|0.0|0.0|0.0|0.3|0.3|0.0|0.0|0.6|-32.82416666666667|-71.22305555555556|WGS84
Valparaíso|Valparaíso|Valparaíso|2016-2017|FINAL AV ESPAÑA - PLACILLA|2016-11-07|17:51|79.0|Sin alerta|IFIUr-Fo|Tránsito de personasvehículos o aeronaves|0.0|0.0|0.0|0.0|0.0|0.0|0.05|0.05|0.0|0.0|0.1|-33.1125|-71.55055555555556|WGS84
Valparaíso|Marga Marga|Villa Alemana|2016-2017|FINAL CALLE QUINTA|2016-11-07|18:01|125.0|Sin alerta|IFor-Vn|Tránsito de personasvehículos o aeronaves|0.0|0.0|0.0|0.0|0.0|0.0|0.8|2.5|0.0|0.0|3.3|-33.03305555555556|-71.36222222222223|WGS84
Valparaíso|Marga Marga|Quilpué|2016-2017|FINAL LINCOYAN|2016-11-07|22:35|65.0|Sin alerta|IFor-Vn|Tránsito de personasvehículos o aeronaves|0.0|0.0|0.0|0.0|0.0|0.0|0.1|0.2|0.0|0.0|0.3|-33.02638888888889|-71.40166666666667|WGS84
Valparaíso|Valparaíso|Valparaíso|2016-2017|R.N.L.P - CRUCE QUINTAY|2016-11-08|12:28|65.0|Sin alerta|IFor-Vn|Tránsito de personasvehículos o aeronaves|0.0|0.0|0.0|0.0|0.0|0.0|0.0|0.0|0.0|0.01|0.01|-33.16138888888889|-71.53888888888889|WGS84
Valparaíso|Valparaíso|Valparaíso|2016-2017|EX DIPRECA|2016-11-08|13:45|68.0|Sin alerta|IFor-Vn|Tránsito de personasvehículos o aeronaves|0.0|0.0|0.0|0.0|0.0|0.0|0.02|0.03|0.0|0.0|0.05|-33.07944444444445|-71.64888888888889|WGS84
Valparaíso|Valparaíso|Valparaíso|2016-2017|SITRANS-PLACILLA|2016-11-08|14:43|61.0|Sin alerta|IFIUr-Fo|Quema de desechos|0.0|0.0|0.0|0.0|0.0|0.0|0.0|0.02|0.0|0.0|0.02|-33.13666666666666|-71.54861111111111|WGS84
Valparaíso|Valparaíso|Valparaíso|2016-2017|POBLACIÓN BÁSICA FINAL PASAJE 8|2016-11-08|15:08|108.0|Sin alerta|IFIUr-Fo|Actividades recreativas|0.0|0.0|0.0|0.05|0.0|0.0|0.1|0.15|0.0|0.0|0.3|-33.06|-71.56833333333333|WGS84
Valparaíso|Marga Marga|Quilpué|2016-2017|TENIENTE SERRANO|2016-11-08|15:30|196.0|Sin alerta|IFIUr-Fo|Tránsito de personasvehículos o aeronaves|0.0|0.0|0.0|0.2|0.0|0.0|0.5|0.5|0.0|0.0|1.2|-33.07083333333333|-71.40694444444445|WGS84
Valparaíso|Marga Marga|Quilpué|2016-2017|TENIENTE SERRANO 2|2016-11-08|15:35|151.0|Sin alerta|IFIUr-Fo|Tránsito de personasvehículos o aeronaves|0.0|0.0|0.0|0.0|0.0|0.0|0.74|1.0|0.0|0.0|1.74|-33.07|-71.40805555555555|WGS84
Valparaíso|Marga Marga|Villa Alemana|2016-2017|FUNDO RECREO|2016-11-08|16:11|100.0|Sin alerta|IFor-Vn|Tránsito de personasvehículos o aeronaves|0.0|0.0|0.0|0.0|0.0|0.18|0.1|0.2|0.0|0.0|0.48|-33.08|-71.37083333333334|WGS84
Valparaíso|San Antonio|San Antonio|2016-2017|CEMENTERIO PARROQUIAL|2016-11-08|16:27|118.0|Sin alerta|IFIUr-Fo|Quema de desechos|0.0|0.0|0.0|0.0|0.0|0.0|0.0|2.7|0.0|0.0|2.7|-33.573055555555555|-71.62166666666667|WGS84
Valparaíso|Marga Marga|Villa Alemana|2016-2017|AGUAS DE LA FORESTA|2016-11-08|17:39|93.0|Sin alerta|IFIUr-Fo|Incendios intencionales|0.0|0.0|0.0|0.0|0.0|0.0|0.38|0.8|0.0|0.0|1.1800000000000002|-33.06777777777778|-71.39777777777778|WGS84
Valparaíso|San Antonio|San Antonio|2016-2017|LEYDA  SECTOR 18|2016-11-09|12:04|64.0|Sin alerta|IFor-Vn|Tránsito de personasvehículos o aeronaves|0.0|0.0|0.0|0.0|0.0|0.06|0.0|0.48|0.0|0.0|0.54|-33.63194444444444|-71.42833333333333|WGS84
Valparaíso|San Antonio|El Quisco|2016-2017|PARCELA 12 - EL TOTORAL|2016-11-09|13:13|389.0|Alerta roja|IFor-Vn|Tránsito de personasvehículos o aeronaves|0.0|0.0|0.0|1.1|0.0|0.0|1.0|1.5|0.0|0.0|3.6|-33.413333333333334|-71.62861111111111|WGS84
Valparaíso|Petorca|Papudo|2016-2017|SECTOR EL BOLDO|2016-11-09|15:44|99.0|Sin alerta|IFor-Vn|Tránsito de personasvehículos o aeronaves|0.0|0.0|0.0|0.0|0.0|0.03|0.08|0.04|0.0|0.0|0.15|-32.51138888888889|-71.455|WGS84
Valparaíso|Quillota|Quillota|2016-2017|POBLACION ANTUMAPU|2016-11-09|16:01|194.0|Sin alerta|IFIUr-Fo|Actividades recreativas|0.0|0.0|0.0|0.0|0.0|0.0|3.0|4.9|0.0|0.0|7.9|-32.88611111111111|-71.27027777777778|WGS84
Valparaíso|San Felipe de Aconcagua|San Felipe|2016-2017|SECTOR DE TRES CANCHAS|2016-11-09|16:54|179.0|Sin alerta|IFIUr-Fo|Tránsito de personasvehículos o aeronaves|0.0|0.0|0.0|0.0|0.0|0.0|1.0|1.0|0.0|0.0|2.0|-32.74611111111111|-70.74388888888889|WGS84
Valparaíso|San Antonio|El Quisco|2016-2017|PARCELA 8 - EL TOTORAL|2016-11-09|22:25|1289.0|Sin alerta|IFor-Vn|Tránsito de personasvehículos o aeronaves|0.0|0.0|0.0|0.25|0.0|0.0|0.35|0.4|0.0|0.0|1.0|-33.414722222222224|-71.63472222222222|WGS84
Valparaíso|Valparaíso|Valparaíso|2016-2017|AV ESPAÑA ALT. NUDO BARÓN|2016-11-09|23:19|72.0|Sin alerta|IFIUr-Fo|Tránsito de personasvehículos o aeronaves|0.0|0.0|0.0|0.0|0.0|0.0|0.05|0.15|0.0|0.0|0.2|-33.03944444444444|-71.60305555555556|WGS84
Valparaíso|San Antonio|San Antonio|2016-2017|TRANQUE  LEYDA|2016-11-10|13:16|39.0|Alerta amarilla|IFor-Vn|Tránsito de personasvehículos o aeronaves|0.0|0.0|0.0|10.0|0.0|12.0|3.0|35.0|0.0|0.0|60.0|-33.62444444444444|-71.50166666666667|WGS84
Valparaíso|Valparaíso|Valparaíso|2016-2017|POTRERO LAS VACAS|2016-11-10|16:12|1265.0|Sin alerta|IFor-Vn|Tránsito de personasvehículos o aeronaves|0.0|0.0|0.0|0.0|0.0|0.0|0.3|0.1|0.0|0.0|0.4|-33.15638888888889|-71.57|WGS84
Valparaíso|Valparaíso|Viña del Mar|2016-2017|CALLE EVANS MIRAFLORES|2016-11-10|18:02|178.0|Alerta roja|IFor-Vn|Tránsito de personasvehículos o aeronaves|0.0|0.0|0.0|0.2|0.0|0.0|0.08|0.12|0.0|0.0|0.4|-33.030277777777776|-71.52333333333333|WGS84
Valparaíso|San Antonio|El Quisco|2016-2017|TOTORAL PARCELA 8|2016-11-11|12:59|189.0|Sin alerta|IFor-Vn|Tránsito de personasvehículos o aeronaves|0.0|0.08|0.0|0.12|0.0|0.0|0.0|0.1|0.0|0.0|0.3|-33.41138888888889|-71.62694444444445|WGS84
Valparaíso|Valparaíso|Valparaíso|2016-2017|FUNDO CURAUMILLA|2016-11-11|13:04|123.0|Sin alerta|IFor-Vn|Tránsito de personasvehículos o aeronaves|0.0|0.0|0.05|0.0|0.0|0.0|0.0|0.0|0.0|0.0|0.05|-33.1125|-71.70111111111112|WGS84
Valparaíso|Valparaíso|Quintero|2016-2017|LOS ALAMOS|2016-11-11|14:00|75.0|Sin alerta|IFor-Vn|Tránsito de personasvehículos o aeronaves|0.0|0.0|0.0|0.0|0.0|0.0|0.0|0.02|0.0|0.0|0.02|-32.79555555555555|-71.51472222222222|WGS84
Valparaíso|Marga Marga|Quilpué|2016-2017|CAMPING LOS SAUCES|2016-11-11|14:58|192.0|Sin alerta|IFor-Vn|Tránsito de personasvehículos o aeronaves|0.0|0.0|0.0|0.7|0.0|0.5|0.4|1.0|0.0|0.0|2.6|-33.159444444444446|-71.30944444444444|WGS84
Valparaíso|Quillota|La Cruz|2016-2017|LA PALMILLA|2016-11-11|15:17|217.0|Sin alerta|IFIUr-Fo|Tránsito de personasvehículos o aeronaves|0.0|0.0|0.0|0.0|0.0|0.0|0.1|0.9|0.0|0.0|1.0|-32.797222222222224|-71.21833333333333|WGS84
Valparaíso|Marga Marga|Villa Alemana|2016-2017|POBLACIÓN OJOS DE AGUA|2016-11-11|17:02|90.0|Sin alerta|IFIUr-Fo|Tránsito de personasvehículos o aeronaves|0.0|0.0|0.0|0.0|0.0|0.0|0.2|0.9|0.0|0.0|1.1|-33.06666666666667|-71.39138888888888|WGS84
Valparaíso|Valparaíso|Viña del Mar|2016-2017|SANTA JULIA - CEMENTERIO PARROQUIAL|2016-11-11|17:18|72.0|Sin alerta|IFor-Vn|Tránsito de personasvehículos o aeronaves|0.0|0.0|0.0|0.0|0.0|0.0|0.05|0.01|0.0|0.0|0.06|-33.00972222222222|-71.48972222222223|WGS84
Valparaíso|Valparaíso|Viña del Mar|2016-2017|LO ANDORRA|2016-11-11|17:26|75.0|Sin alerta|IFIUr-Fo|Tránsito de personasvehículos o aeronaves|0.0|0.0|0.0|0.03|0.0|0.0|0.07|0.0|0.0|0.0|0.1|-33.0625|-71.55583333333334|WGS84
Valparaíso|Marga Marga|Quilpué|2016-2017|LOS COLONOS|2016-11-12|11:43|37.0|Sin alerta|IFIUr-Fo|Tránsito de personasvehículos o aeronaves|0.0|0.0|0.0|0.0|0.0|0.0|0.0|0.01|0.0|0.0|0.01|-33.02583333333333|-71.41361111111111|WGS84
Valparaíso|Marga Marga|Quilpué|2016-2017|EL RETIRO|2016-11-12|12:15|175.0|Sin alerta|IFIUr-Fo|Tránsito de personasvehículos o aeronaves|0.0|0.0|0.0|0.0|0.0|0.0|0.25|1.0|0.0|0.0|1.25|-33.02472222222222|-71.45777777777778|WGS84
Valparaíso|San Felipe de Aconcagua|San Felipe|2016-2017|CERRO LA VIRGEN|2016-11-12|12:38|1112.0|Sin alerta|IFor-Vn|Tránsito de personasvehículos o aeronaves|0.0|0.0|0.0|0.0|0.0|0.0|0.2|0.8|0.0|0.0|1.0|-32.730555555555554|-70.72583333333333|WGS84
Valparaíso|Valparaíso|Casablanca|2016-2017|LA PALMILLA|2016-11-12|15:07|73.0|Sin alerta|IFor-Vn|Tránsito de personasvehículos o aeronaves|0.0|0.0|0.0|0.0|0.0|0.0|0.04|0.17|0.0|0.0|0.21|-33.456944444444446|-71.45944444444444|WGS84
Valparaíso|Valparaíso|Valparaíso|2016-2017|TRANQUE LA LUZ|2016-11-12|16:58|182.0|Sin alerta|IFIUr-Fo|Tránsito de personasvehículos o aeronaves|0.0|0.0|0.0|0.05|0.0|0.0|0.0|0.2|0.0|0.0|0.25|-33.1325|-71.59166666666667|WGS84
Valparaíso|Valparaíso|Valparaíso|2016-2017|POTRERO LAS VACAS|2016-11-12|19:24|110.0|Sin alerta|IFor-Vn|Tránsito de personasvehículos o aeronaves|0.03|0.0|0.0|0.0|0.0|0.0|0.0|0.0|0.0|0.04|0.07|-33.153333333333336|-71.56472222222222|WGS84
Valparaíso|San Antonio|Cartagena|2016-2017|VISTA HERMOSA|2016-11-13|18:15|61.0|Sin alerta|IFIUr-Fo|Tránsito de personasvehículos o aeronaves|0.0|0.0|0.0|0.0|0.0|0.0|0.0|0.5|0.0|0.0|0.5|-33.5575|-71.6125|WGS84
Valparaíso|Marga Marga|Villa Alemana|2016-2017|LAS CABRAS|2016-11-13|18:28|94.0|Sin alerta|IFIUr-Fo|Incendios intencionales|0.0|0.0|0.0|0.0|0.0|0.0|0.41|1.0|0.0|0.0|1.41|-33.03055555555556|-71.39|WGS84
Valparaíso|Valparaíso|Viña del Mar|2016-2017|FUNDO 7 HERMANAS ALTAR PAPAL|2016-11-14|12:22|185.0|Sin alerta|IFor-Vn|Incendios intencionales|0.0|0.0|0.0|0.0|0.0|0.0|0.2|0.1|0.0|0.0|0.3|-33.06666666666667|-71.55472222222222|WGS84
Valparaíso|Valparaíso|Valparaíso|2016-2017|4TO SECTOR - PLAYA ANCHA|2016-11-14|13:51|67.0|Sin alerta|IFIUr-Fo|Tránsito de personasvehículos o aeronaves|0.0|0.0|0.0|0.0|0.0|0.0|0.0|0.04|0.0|0.0|0.04|-33.04666666666667|-71.65083333333334|WGS84
Valparaíso|Valparaíso|Valparaíso|2016-2017|VALLE LONGITUDINAL - MONTEDONICO|2016-11-14|15:30|105.0|Sin alerta|IFIUr-Fo|Actividades recreativas|0.0|0.0|0.0|0.0|0.0|0.0|0.17|0.2|0.0|0.0|0.37|-33.05583333333333|-71.64305555555555|WGS84
Valparaíso|San Antonio|San Antonio|2016-2017|TRANQUE LEYDA|2016-11-14|15:37|233.0|Sin alerta|IFor-Vn|Tránsito de personasvehículos o aeronaves|0.0|0.0|0.0|3.0|0.0|0.0|1.9|2.0|0.0|0.0|6.9|-33.63|-71.50277777777778|WGS84
Valparaíso|San Antonio|San Antonio|2016-2017|VISTA HERMOSA|2016-11-14|16:11|223.0|Sin alerta|IFIUr-Fo|Tránsito de personasvehículos o aeronaves|0.0|0.0|0.0|1.2|0.0|0.0|4.0|6.0|0.0|0.0|11.2|-33.55861111111111|-71.6138888888889|WGS84
Valparaíso|Petorca|La Ligua|2016-2017|VALLE HERMOSO|2016-11-14|18:07|148.0|Sin alerta|IFIUr-Fo|Tránsito de personasvehículos o aeronaves|0.0|0.0|0.0|0.0|0.05|0.0|1.0|2.95|0.0|0.0|4.0|-32.42666666666667|-71.22555555555556|WGS84
Valparaíso|Marga Marga|Villa Alemana|2016-2017|CERRO LA VIRGEN|2016-11-14|18:23|1057.0|Sin alerta|IFor-Vn|Tránsito de personasvehículos o aeronaves|0.0|0.0|0.0|1.0|0.0|0.0|3.0|4.0|0.0|0.8|8.8|-33.032222222222224|-71.35638888888889|WGS84
Valparaíso|San Antonio|El Quisco|2016-2017|CAMINO TOTORAL|2016-11-14|18:45|126.0|Sin alerta|IFor-Vn|Tránsito de personasvehículos o aeronaves|0.0|0.0|0.0|0.0|0.0|0.0|0.0|0.05|0.0|0.0|0.05|-33.43083333333333|-71.64722222222223|WGS84
Valparaíso|Valparaíso|Valparaíso|2016-2017|FINAL CALLE O´HIGGINS - PLACILLA|2016-11-14|21:51|729.0|Sin alerta|IFIUr-Fo|Tránsito de personasvehículos o aeronaves|0.0|0.0|0.0|0.01|0.0|0.0|0.0|0.02|0.0|0.02|0.05|-33.121944444444445|-71.54916666666666|WGS84
Valparaíso|Petorca|Zapallar|2016-2017|LA ENCIERRA-CATAPILCO|2016-11-15|11:35|49.0|Sin alerta|IFIUr-Fo|Tránsito de personasvehículos o aeronaves|0.0|0.0|0.0|0.0|0.0|0.0|0.0|0.05|0.0|0.0|0.05|-32.58083333333333|-71.29805555555555|WGS84
Valparaíso|Marga Marga|Quilpué|2016-2017|ESVAL  NORTE BELLOTO|2016-11-15|11:54|79.0|Sin alerta|IFIUr-Fo|Faenas agrícolas y pecuarias|0.0|0.0|0.0|0.0|0.0|0.0|0.02|0.04|0.0|0.0|0.06|-33.01861111111111|-71.40777777777778|WGS84
Valparaíso|San Antonio|San Antonio|2016-2017|PELANCURA|2016-11-15|13:10|270.0|Sin alerta|IFor-Vn|Tránsito de personasvehículos o aeronaves|0.0|0.0|3.5|0.0|0.0|0.0|0.0|2.4|0.0|0.0|5.9|-33.568888888888885|-71.61805555555556|WGS84
Valparaíso|Valparaíso|Valparaíso|2016-2017|PUNTA CURAUMILLA - LAGUNA VERDE|2016-11-15|16:31|174.0|Sin alerta|IFIUr-Fo|Tránsito de personasvehículos o aeronaves|0.0|0.03|0.0|0.0|0.0|0.0|0.07|0.1|0.0|0.0|0.2|-33.105555555555554|-71.69444444444444|WGS84
Valparaíso|San Antonio|San Antonio|2016-2017|SECTOR BELLAVISTA|2016-11-15|16:34|31.0|Sin alerta|IFIUr-Fo|Tránsito de personasvehículos o aeronaves|0.0|0.0|0.0|0.0|0.0|0.0|0.0|0.1|0.0|0.0|0.1|-33.56777777777778|-71.60416666666667|WGS84
Valparaíso|San Felipe de Aconcagua|Putaendo|2016-2017|EL TARTARO|2016-11-15|16:55|45.0|Sin alerta|IFor-Vn|Tránsito de personasvehículos o aeronaves|0.0|0.0|0.0|0.0|0.0|0.0|0.0|0.05|0.0|0.0|0.05|-32.558055555555555|-70.69777777777777|WGS84
Valparaíso|San Antonio|San Antonio|2016-2017|PELANCURA 2|2016-11-15|18:31|87.0|Sin alerta|IFor-Vn|Tránsito de personasvehículos o aeronaves|0.0|0.0|0.0|0.0|0.0|0.0|0.0|0.4|0.0|0.4|0.8|-33.56777777777778|-71.61722222222222|WGS84
Valparaíso|Quillota|Quillota|2016-2017|ARIDOS EL BOCO|2016-11-16|14:28|134.0|Sin alerta|IFIUr-Fo|Tránsito de personasvehículos o aeronaves|0.0|0.0|0.0|0.0|0.0|0.0|1.31|3.0|0.0|0.0|4.3100000000000005|-32.89083333333333|-71.27194444444444|WGS84
Valparaíso|Marga Marga|Quilpué|2016-2017|COPA EL SOL|2016-11-16|14:40|40.0|Sin alerta|IFIUr-Fo|Tránsito de personasvehículos o aeronaves|0.0|0.0|0.0|0.0|0.0|0.0|0.0|0.05|0.0|0.0|0.05|-33.035|-71.42805555555556|WGS84
Valparaíso|Quillota|Nogales|2016-2017|LA PEÑA|2016-11-16|15:25|105.0|Sin alerta|IFIUr-Fo|Tránsito de personasvehículos o aeronaves|0.0|0.0|0.0|0.0|0.0|0.0|0.03|0.07|0.0|0.0|0.1|-32.75055555555556|-71.16388888888889|WGS84
Valparaíso|Marga Marga|Quilpué|2016-2017|FINAL LAS BARRANCAS|2016-11-16|18:10|170.0|Alerta roja|IFor-Vn|Actividades recreativas|0.0|0.0|0.0|0.1|0.0|0.0|1.0|1.5|0.0|0.0|2.6|-33.07694444444444|-71.42472222222223|WGS84
Valparaíso|Marga Marga|Villa Alemana|2016-2017|FINAL CALLE PROGRESO|2016-11-16|19:05|89.0|Sin alerta|IFor-Vn|Tránsito de personasvehículos o aeronaves|0.0|0.0|0.0|0.0|0.0|0.0|0.17|0.2|0.0|0.0|0.37|-33.030277777777776|-71.36972222222222|WGS84
Valparaíso|Marga Marga|Quilpué|2016-2017|LAGO LANALHUE|2016-11-17|09:38|92.0|Sin alerta|IFIUr-Fo|Tránsito de personasvehículos o aeronaves|0.0|0.0|0.0|0.0|0.0|0.0|0.05|0.1|0.0|0.0|0.15|-33.06472222222222|-71.41416666666667|WGS84
Valparaíso|Marga Marga|Quilpué|2016-2017|LOS MOLLES|2016-11-17|12:10|484.0|Sin alerta|IFor-Vn|Accidentes eléctricos|1.0|0.0|0.0|0.4|0.0|0.0|1.6|3.0|0.0|0.0|6.0|-33.10611111111111|-71.37027777777777|WGS84
Valparaíso|Marga Marga|Villa Alemana|2016-2017|LO MOSCOSO|2016-11-17|12:20|425.0|Alerta roja|IFor-Vn|Tránsito de personasvehículos o aeronaves|0.0|0.0|0.0|17.35|0.0|205.0|781.0|130.45|36.2|0.0|1170.0|-33.10111111111111|-71.34805555555556|WGS84
Valparaíso|San Antonio|Cartagena|2016-2017|LO ABARCA|2016-11-17|12:36|398.0|Alerta roja|IFor-Vn|Tránsito de personasvehículos o aeronaves|0.0|0.0|0.0|20.5|0.0|0.0|19.7|0.0|0.0|10.8|51.0|-33.50666666666667|-71.55944444444444|WGS84
Valparaíso|Quillota|Nogales|2016-2017|SAN CARLOS|2016-11-17|13:00|110.0|Sin alerta|IFIUr-Fo|Tránsito de personasvehículos o aeronaves|0.0|0.0|0.0|0.0|0.0|0.0|0.1|0.3|0.0|0.0|0.4|-32.739444444444445|-71.20277777777778|WGS84
Valparaíso|Valparaíso|Valparaíso|2016-2017|POTRERO LAS VACAS|2016-11-17|14:25|1193.0|Alerta roja|IFIUr-Fo|Tránsito de personasvehículos o aeronaves|0.0|0.0|0.0|2.5|0.0|0.0|0.5|1.5|0.0|0.0|4.5|-33.15277777777778|-71.56472222222222|WGS84
Valparaíso|Los Andes|San Esteban|2016-2017|LAS BANDURRIAS|2016-11-17|14:31|280.0|Alerta roja|IFor-Vn|Tránsito de personasvehículos o aeronaves|0.0|0.0|0.0|0.0|0.0|0.0|50.0|250.0|0.0|0.0|300.0|-32.723333333333336|-70.58666666666667|WGS84
Valparaíso|Los Andes|Los Andes|2016-2017|PUERTO TERRESTRE|2016-11-17|14:59|235.0|Sin alerta|IFIUr-Fo|Tránsito de personasvehículos o aeronaves|0.0|0.0|0.0|0.0|0.0|0.0|6.0|8.0|0.0|0.0|14.0|-32.859722222222224|-70.52305555555556|WGS84
Valparaíso|Valparaíso|Casablanca|2016-2017|CAMINO LAS DICHAS|2016-11-17|15:43|1106.0|Alerta roja|IFIUr-Fo|Tránsito de personasvehículos o aeronaves|0.0|0.0|0.0|0.0|0.0|0.0|0.0|4.0|0.0|0.0|4.0|-33.30916666666667|-71.44666666666667|WGS84
Valparaíso|Valparaíso|Valparaíso|2016-2017|POBLACION LA ISLA|2016-11-17|15:58|79.0|Sin alerta|IFIUr-Fo|Actividades recreativas|0.0|0.0|0.0|0.0|0.0|0.0|0.01|0.01|0.0|0.0|0.02|-33.08111111111111|-71.58|WGS84
Valparaíso|San Antonio|Algarrobo|2016-2017|EL LITRE|2016-11-17|16:24|242.0|Sin alerta|IFor-Vn|Tránsito de personasvehículos o aeronaves|0.0|1.4|0.0|1.6|0.0|0.0|1.2|2.4|0.0|0.0|6.6|-33.38472222222222|-71.67222222222222|WGS84
Valparaíso|Valparaíso|Valparaíso|2016-2017|TRANQUE LAS CENIZAS PUERTA 2|2016-11-17|16:52|252.0|Sin alerta|IFor-Vn|Tránsito de personasvehículos o aeronaves|0.0|0.0|0.0|0.2|0.0|0.0|0.0|0.5|0.0|0.2|0.8999999999999999|-33.119166666666665|-71.53694444444444|WGS84
Valparaíso|Valparaíso|Valparaíso|2016-2017|TRANQUE LA LUZ|2016-11-17|17:40|90.0|Sin alerta|IFIUr-Fo|Incendios intencionales|0.0|0.0|0.0|0.0|0.0|0.0|0.02|0.05|0.0|0.0|0.07|-33.12694444444445|-71.58277777777778|WGS84
Valparaíso|Marga Marga|Quilpué|2016-2017|FUNDO LOS LUNES|2016-11-17|18:38|190.0|Sin alerta|IFIUr-Fo|Tránsito de personasvehículos o aeronaves|0.0|0.0|0.0|0.0|0.0|0.0|0.05|0.15|0.0|0.0|0.2|-33.056666666666665|-71.4811111111111|WGS84
Valparaíso|Valparaíso|Valparaíso|2016-2017|CAMINO REAL|2016-11-17|18:53|65.0|Sin alerta|IFIUr-Fo|Tránsito de personasvehículos o aeronaves|0.0|0.0|0.0|0.0|0.0|0.0|0.0|0.02|0.0|0.0|0.02|-33.074444444444445|-71.5886111111111|WGS84
Valparaíso|San Antonio|Santo Domingo|2016-2017|SAN ENRIQUE|2016-11-17|20:30|157.0|Sin alerta|IFIUr-Fo|Tránsito de personasvehículos o aeronaves|0.0|0.0|0.0|0.0|0.0|0.0|0.7|1.3|0.0|0.0|2.0|-33.87277777777778|-71.69833333333334|WGS84
Valparaíso|Valparaíso|Valparaíso|2016-2017|FUNDO LA MARIPOSA|2016-11-18|10:50|460.0|Sin alerta|IFIUr-Fo|Tránsito de personasvehículos o aeronaves|1.0|0.0|0.0|0.8|0.0|0.0|0.0|0.0|0.0|0.0|1.8|-33.155277777777776|-71.56583333333333|WGS84
Valparaíso|Quillota|Nogales|2016-2017|EL POLIGONO|2016-11-18|12:01|507.0|Sin alerta|IFor-Vn|Tránsito de personasvehículos o aeronaves|0.0|0.0|0.0|0.0|0.0|0.0|3.3|4.05|0.0|0.0|7.35|-32.74638888888889|-71.21333333333334|WGS84
Valparaíso|Valparaíso|Casablanca|2016-2017|TAPIHUE|2016-11-18|12:50|459.0|Sin alerta|IFor-Vn|Tránsito de personasvehículos o aeronaves|0.0|0.0|0.0|0.0|0.0|0.1|0.2|0.2|0.0|0.0|0.5|-33.329166666666666|-71.385|WGS84
Valparaíso|San Antonio|San Antonio|2016-2017|FUNDO LLO LLEO|2016-11-18|14:00|311.0|Alerta roja|IFor-Vn|Tránsito de personasvehículos o aeronaves|0.0|0.0|0.0|0.0|0.0|0.0|30.5|51.6|0.0|0.0|82.1|-33.62083333333333|-71.57916666666667|WGS84
Valparaíso|San Antonio|Algarrobo|2016-2017|SAN JOSE DE BOCHINCHE|2016-11-18|16:20|80.0|Sin alerta|IFor-Vn|Tránsito de personasvehículos o aeronaves|0.0|0.0|0.0|0.0|0.0|0.0|0.02|0.06|0.0|0.0|0.08|-33.32861111111111|-71.58555555555556|WGS84
Valparaíso|San Antonio|Cartagena|2016-2017|PASO NIVEL SAN SEBASTIAN -SAN ANTONIO|2016-11-18|16:35|124.0|Sin alerta|IFor-Vn|Tránsito de personasvehículos o aeronaves|0.0|0.0|0.0|0.0|0.0|0.0|0.0|0.1|0.0|0.0|0.1|-33.526666666666664|-71.55777777777777|WGS84
Valparaíso|Marga Marga|Villa Alemana|2016-2017|FUNDO SAN ISIDRO|2016-11-18|16:40|126.0|Sin alerta|IFor-Vn|Tránsito de personasvehículos o aeronaves|0.0|0.0|0.0|0.0|0.0|0.0|0.0|0.0|0.0|0.05|0.05|-33.03666666666667|-71.34|WGS84
Valparaíso|San Antonio|El Tabo|2016-2017|PASAJE 6 - TABO|2016-11-18|17:44|87.0|Sin alerta|IFor-Vn|Tránsito de personasvehículos o aeronaves|0.7|0.0|0.0|0.3|0.0|0.0|0.0|0.0|0.0|0.0|1.0|-33.44638888888889|-71.6686111111111|WGS84
Valparaíso|San Antonio|San Antonio|2016-2017|BELLAVISTA/HOLANDA|2016-11-19|09:58|132.0|Sin alerta|IFIUr-Fo|Tránsito de personasvehículos o aeronaves|0.0|0.0|0.0|0.05|0.0|0.0|0.0|0.15|0.0|0.0|0.2|-33.566944444444445|-71.61|WGS84
Valparaíso|Valparaíso|Viña del Mar|2016-2017|SPORTING|2016-11-19|11:58|1336.0|Sin alerta|IFor-Vn|Tránsito de personasvehículos o aeronaves|0.0|0.0|0.0|0.3|0.0|0.0|0.1|0.1|0.0|0.0|0.5|-33.02055555555555|-71.53472222222223|WGS84
Valparaíso|San Antonio|El Tabo|2016-2017|PASAJE 6 - EL TABO|2016-11-19|12:15|75.0|Sin alerta|IFIUr-Fo|Tránsito de personasvehículos o aeronaves|0.0|0.0|0.0|0.01|0.0|0.0|0.0|0.0|0.0|0.0|0.01|-33.446666666666665|-71.66805555555555|WGS84
Valparaíso|Valparaíso|Valparaíso|2016-2017|POTRERO LAS VACAS 2|2016-11-19|13:34|367.0|Alerta roja|IFIUr-Fo|Tránsito de personasvehículos o aeronaves|0.2|0.0|0.0|0.4|0.0|0.0|0.0|0.15|0.0|0.0|0.7500000000000001|-33.15111111111111|-71.56388888888888|WGS84
Valparaíso|San Antonio|San Antonio|2016-2017|FUNDO MIRAMAR 2|2016-11-19|14:39|133.0|Sin alerta|IFor-Vn|Tránsito de personasvehículos o aeronaves|0.0|0.0|0.0|0.0|0.0|0.0|0.0|0.5|0.0|0.0|0.5|-33.586666666666666|-71.58555555555556|WGS84
Valparaíso|Petorca|La Ligua|2016-2017|HUAQUEN|2016-11-19|16:23|1070.0|Sin alerta|IFor-Vn|Faenas forestales|0.0|0.0|0.0|0.0|0.0|0.0|4.0|14.0|0.0|0.0|18.0|-32.34527777777778|-71.39444444444445|WGS84
Valparaíso|Valparaíso|Valparaíso|2016-2017|TRANQUE EL PERAL|2016-11-19|16:39|84.0|Sin alerta|IFor-Vn|Tránsito de personasvehículos o aeronaves|0.0|0.0|0.0|0.01|0.0|0.01|0.03|0.04|0.0|0.01|0.0999999999999999|-33.119166666666665|-71.54194444444444|WGS84
Valparaíso|Marga Marga|Quilpué|2016-2017|TRANQUE RECREO|2016-11-19|16:47|1044.0|Sin alerta|IFor-Vn|Tránsito de personasvehículos o aeronaves|0.0|0.0|0.0|0.0|0.0|0.0|0.62|1.0|0.0|0.0|1.62|-33.085|-71.38555555555556|WGS84
Valparaíso|Marga Marga|Villa Alemana|2016-2017|PATAGUAL|2016-11-19|17:30|1120.0|Sin alerta|IFor-Vn|Tránsito de personasvehículos o aeronaves|0.0|0.0|0.0|0.0|0.0|0.0|1.0|3.17|0.0|0.0|4.17|-33.03388888888889|-71.31027777777778|WGS84
Valparaíso|Marga Marga|Villa Alemana|2016-2017|LOS ALMENDROS|2016-11-19|19:20|40.0|Sin alerta|IFor-Vn|Tránsito de personasvehículos o aeronaves|0.0|0.0|0.0|0.0|0.0|0.0|0.03|0.04|0.0|0.0|0.07|-33.06916666666667|-71.36222222222223|WGS84
Valparaíso|Petorca|La Ligua|2016-2017|HUAQUEN|2016-11-20|11:10|681.0|Sin alerta|IFor-Vn|Tránsito de personasvehículos o aeronaves|0.0|0.0|0.3|0.3|0.0|0.0|2.9|0.0|0.0|3.6|7.1|-32.348333333333336|-71.39972222222222|WGS84
Valparaíso|Petorca|La Ligua|2016-2017|EL GUINDO - LONGOTOMA|2016-11-20|11:12|162.0|Sin alerta|IFor-Vn|Tránsito de personasvehículos o aeronaves|0.0|0.0|0.0|0.0|0.0|0.0|0.0|11.1|0.0|0.0|11.1|-32.36805555555556|-71.35777777777778|WGS84
Valparaíso|Valparaíso|Viña del Mar|2016-2017|LAJARILLA|2016-11-20|14:31|166.0|Sin alerta|IFor-Vn|Actividades recreativas|0.0|0.0|0.0|0.0|0.0|0.0|0.3|0.5|0.0|0.4|1.2000000000000002|-32.98083333333334|-71.4875|WGS84
Valparaíso|Quillota|Calera|2016-2017|PACHACAMITA|2016-11-20|14:58|62.0|Sin alerta|IFor-Vn|Tránsito de personasvehículos o aeronaves|0.0|0.0|0.0|0.0|0.0|0.0|0.03|0.05|0.0|0.0|0.08|-32.819722222222225|-71.16527777777777|WGS84
Valparaíso|Marga Marga|Quilpué|2016-2017|FINAL AV. GOMEZ CARREÑO|2016-11-20|16:47|203.0|Sin alerta|IFor-Vn|Tránsito de personasvehículos o aeronaves|0.0|0.0|0.0|0.0|0.0|0.0|1.2|3.4|0.0|0.0|4.6|-33.02333333333333|-71.40527777777778|WGS84
Valparaíso|Marga Marga|Villa Alemana|2016-2017|FINAL CALLE ROSENQUIST|2016-11-20|17:50|90.0|Sin alerta|IFIUr-Fo|Incendios intencionales|0.0|0.0|0.0|0.08|0.0|0.0|0.3|0.5|0.0|0.0|0.88|-33.07|-71.37694444444445|WGS84
Valparaíso|Marga Marga|Villa Alemana|2016-2017|CEMENTERIO VILLA ALEMANA|2016-11-20|17:53|77.0|Sin alerta|IFor-Vn|Incendios intencionales|0.0|0.0|0.0|0.0|0.0|0.0|0.05|0.15|0.0|0.0|0.2|-33.07055555555556|-71.37527777777778|WGS84
Valparaíso|Marga Marga|Olmué|2016-2017|QUEBRADA LOS CONDORES|2016-11-21|12:48|235.0|Sin alerta|IFor-Vn|Faenas forestales|0.0|0.0|0.0|0.1|0.0|0.0|0.29|0.48|0.0|0.0|0.87|-33.07694444444444|-71.12388888888889|WGS84
Valparaíso|Marga Marga|Villa Alemana|2016-2017|VALLE DORADO|2016-11-21|14:19|51.0|Sin alerta|IFor-Vn|Actividades recreativas|0.0|0.0|0.0|0.0|0.0|0.0|0.0|0.0|0.0|0.2|0.2|-33.034166666666664|-71.375|WGS84
Valparaíso|San Antonio|Cartagena|2016-2017|CAPELLANIA|2016-11-22|09:36|32.0|Sin alerta|IFIUr-Fo|Tránsito de personasvehículos o aeronaves|0.0|0.0|0.0|0.0|0.0|0.0|0.0|0.03|0.0|0.0|0.03|-33.550555555555555|-71.57861111111112|WGS84
Valparaíso|San Antonio|Cartagena|2016-2017|CAPELLANIA 2|2016-11-22|14:00|100.0|Sin alerta|IFIUr-Fo|Tránsito de personasvehículos o aeronaves|0.0|0.0|0.0|0.1|0.0|0.0|0.0|0.2|0.0|0.0|0.3|-33.550555555555555|-71.57833333333333|WGS84
Valparaíso|Marga Marga|Villa Alemana|2016-2017|SANTA SARA|2016-11-22|17:31|177.0|Sin alerta|IFIUr-Fo|Tránsito de personasvehículos o aeronaves|0.0|0.0|0.0|0.0|0.0|0.0|0.0|0.1|0.0|0.0|0.1|-33.06722222222222|-71.37611111111111|WGS84
Valparaíso|San Antonio|San Antonio|2016-2017|FUNDO MIRAMAR-SITRANS|2016-11-22|20:10|80.0|Sin alerta|IFIUr-Fo|Tránsito de personasvehículos o aeronaves|0.0|0.0|0.0|0.02|0.0|0.0|0.0|0.03|0.0|0.0|0.05|-33.58777777777778|-71.58694444444444|WGS84
Valparaíso|Marga Marga|Limache|2016-2017|LLIU LLIU|2016-11-23|13:50|98.0|Sin alerta|IFor-Vn|Faenas forestales|0.0|0.0|0.0|0.0|0.0|0.0|0.15|0.5|0.0|0.0|0.65|-33.07222222222222|-71.20861111111111|WGS84
Valparaíso|Valparaíso|Viña del Mar|2016-2017|PARQUE LA FAMILIA|2016-11-24|12:30|48.0|Sin alerta|IFIUr-Fo|Incendios intencionales|0.0|0.0|0.0|0.0|0.0|0.0|0.01|0.01|0.0|0.01|0.03|-33.06527777777778|-71.55555555555556|WGS84
Valparaíso|San Antonio|Cartagena|2016-2017|LO ZARATE|2016-11-24|14:35|62.0|Sin alerta|IFIUr-Fo|Tránsito de personasvehículos o aeronaves|0.0|0.0|0.0|0.0|0.0|0.0|0.0|0.2|0.0|0.0|0.2|-33.53777777777778|-71.52944444444445|WGS84
Valparaíso|Marga Marga|Villa Alemana|2016-2017|FUNDO MARISTAS|2016-11-24|14:52|63.0|Sin alerta|IFIUr-Fo|Tránsito de personasvehículos o aeronaves|0.0|0.0|0.0|0.0|0.0|0.0|0.03|0.2|0.0|0.0|0.23|-33.035833333333336|-71.36583333333333|WGS84
Valparaíso|San Antonio|San Antonio|2016-2017|CAMINO VIEJO A CARTAGENA|2016-11-24|20:40|69.0|Sin alerta|IFIUr-Fo|Tránsito de personasvehículos o aeronaves|0.0|0.0|0.0|0.01|0.0|0.0|0.01|0.01|0.0|0.0|0.03|-33.56|-71.6036111111111|WGS84
Valparaíso|San Antonio|San Antonio|2016-2017|VISTA HERMOSA|2016-11-25|08:35|119.0|Sin alerta|IFIUr-Fo|Tránsito de personasvehículos o aeronaves|0.0|0.0|0.0|0.3|0.0|0.0|0.0|2.3|0.0|0.0|2.6|-33.56361111111111|-71.61027777777778|WGS84
Valparaíso|San Antonio|El Tabo|2016-2017|QUEBRADA CORDOVA|2016-11-25|16:50|57.0|Sin alerta|IFIUr-Fo|Tránsito de personasvehículos o aeronaves|0.0|0.01|0.0|0.0|0.0|0.0|0.0|0.0|0.0|0.0|0.01|-33.44611111111111|-71.66972222222222|WGS84
Valparaíso|Valparaíso|Quintero|2016-2017|RUTA F30 E ALT. CABAÑAS SOL Y MAR|2016-11-25|19:49|41.0|Sin alerta|IFor-Vn|Tránsito de personasvehículos o aeronaves|0.0|0.0|0.0|0.3|0.0|0.5|0.06|0.9|0.0|0.0|1.7600000000000002|-32.88583333333333|-71.4975|WGS84
Valparaíso|Petorca|La Ligua|2016-2017|MESETAS DEL CHIVATO|2016-11-26|12:15|515.0|Sin alerta|IFor-Vn|Faenas agrícolas y pecuarias|0.0|0.0|0.0|0.0|0.0|0.0|9.1|12.04|0.0|0.0|21.14|-32.21944444444444|-71.50194444444445|WGS84
Valparaíso|San Felipe de Aconcagua|San Felipe|2016-2017|PARRACIA|2016-11-26|12:35|332.0|Sin alerta|IFIUr-Fo|Tránsito de personasvehículos o aeronaves|0.0|0.0|0.0|0.0|0.0|0.0|0.02|0.08|0.0|0.0|0.1|-32.74722222222222|-70.74305555555556|WGS84
Valparaíso|San Antonio|San Antonio|2016-2017|FUNDO MIRAMAR|2016-11-26|12:54|274.0|Sin alerta|IFIUr-Fo|Incendios intencionales|0.0|0.0|0.0|0.0|0.0|0.0|0.0|50.1|0.0|0.0|50.1|-33.58138888888889|-71.59416666666667|WGS84
Valparaíso|San Antonio|El Tabo|2016-2017|FUNDO SANTA MARGARITA|2016-11-26|13:00|67.0|Sin alerta|IFor-Vn|Tránsito de personasvehículos o aeronaves|0.0|0.0|0.0|0.0|0.0|0.0|0.08|0.1|0.0|0.0|0.18|-33.465833333333336|-71.63694444444444|WGS84
Valparaíso|Marga Marga|Villa Alemana|2016-2017|POBLACION SAN JOSE|2016-11-26|14:02|157.0|Sin alerta|IFIUr-Fo|Quema de desechos|0.0|0.0|0.0|0.3|0.0|0.0|0.6|1.0|0.0|0.0|1.9|-33.062777777777775|-71.37416666666667|WGS84
Valparaíso|Marga Marga|Limache|2016-2017|LIMACHITO|2016-11-26|15:04|110.0|Sin alerta|IFIUr-Fo|Actividades recreativas|0.0|0.0|0.0|0.0|0.0|0.0|0.4|3.0|0.0|0.0|3.4|-33.007777777777775|-71.27305555555556|WGS84
Valparaíso|Valparaíso|Viña del Mar|2016-2017|EL OLIVAR - CALLE CHUNGARA|2016-11-26|15:50|43.0|Sin alerta|IFIUr-Fo|Actividades recreativas|0.0|0.0|0.0|0.0|0.0|0.0|0.0|0.07|0.0|0.0|0.07|-33.028055555555554|-71.49361111111111|WGS84
Valparaíso|San Felipe de Aconcagua|Llay-Llay|2016-2017|FUNDO LA ESTRELLA|2016-11-26|17:37|113.0|Sin alerta|IFIUr-Fo|Tránsito de personasvehículos o aeronaves|0.0|0.0|0.0|0.0|0.0|7.8|95.0|133.5|0.0|0.0|236.3|-32.89805555555556|-70.7975|WGS84
Valparaíso|Valparaíso|Casablanca|2016-2017|CALLEJÓN LO SALAS|2016-11-26|17:48|147.0|Sin alerta|IFor-Vn|Tránsito de personasvehículos o aeronaves|0.0|0.0|0.0|0.8|0.0|0.3|0.0|2.7|0.0|0.0|3.8|-33.34444444444444|-71.34527777777778|WGS84
Valparaíso|Marga Marga|Villa Alemana|2016-2017|MONTE CARMELO|2016-11-26|17:55|125.0|Sin alerta|IFor-Vn|Incendios intencionales|0.0|0.0|0.0|0.0|0.0|0.0|1.8|3.0|0.0|0.0|4.8|-33.03277777777778|-71.365|WGS84
Valparaíso|Marga Marga|Villa Alemana|2016-2017|NORTE LAS VEGAS|2016-11-27|12:13|437.0|Alerta roja|IFIUr-Fo|Incendios intencionales|0.0|0.0|0.0|0.7|0.0|0.0|21.2|15.8|0.0|0.0|37.7|-33.03138888888889|-71.39694444444444|WGS84
Valparaíso|Petorca|Zapallar|2016-2017|SECTOR LAS REPRESAS|2016-11-27|13:40|270.0|Sin alerta|IFor-Vn|Tránsito de personasvehículos o aeronaves|0.0|0.0|0.0|0.0|0.0|39.8|66.7|41.5|0.0|0.0|148.0|-32.62694444444445|-71.32944444444445|WGS84
Valparaíso|Marga Marga|Quilpué|2016-2017|LA CASCADA - CAMINO COLLIGUAY|2016-11-27|14:22|147.0|Sin alerta|IFor-Vn|Tránsito de personasvehículos o aeronaves|0.0|0.0|0.0|0.2|0.0|0.0|0.0|0.6|0.0|0.0|0.8|-33.163333333333334|-71.31972222222223|WGS84
Valparaíso|San Antonio|San Antonio|2016-2017|VIUDA 6|2016-11-27|16:20|73.0|Sin alerta|IFIUr-Fo|Tránsito de personasvehículos o aeronaves|0.0|0.0|0.0|0.0|0.0|0.0|0.0|1.0|0.0|0.0|1.0|-33.61083333333333|-71.59416666666667|WGS84
Valparaíso|Valparaíso|Viña del Mar|2016-2017|EL SOL DE GRANADILLA|2016-11-27|16:45|35.0|Sin alerta|IFIUr-Fo|Tránsito de personasvehículos o aeronaves|0.0|0.0|0.0|0.0|0.0|0.0|0.02|0.02|0.0|0.0|0.04|-33.01916666666666|-71.51027777777777|WGS84
Valparaíso|Quillota|Quillota|2016-2017|ARIDOS EL BOCO|2016-11-27|16:47|133.0|Sin alerta|IFIUr-Fo|Tránsito de personasvehículos o aeronaves|0.0|0.0|0.0|0.0|0.0|0.0|0.3|0.4|0.0|0.0|0.7|-32.886944444444445|-71.26861111111111|WGS84
Valparaíso|Valparaíso|Concón|2016-2017|LA CUCA|2016-11-27|18:22|1149.0|Sin alerta|IFor-Vn|Tránsito de personasvehículos o aeronaves|0.0|0.03|0.0|0.0|0.0|0.3|0.4|1.0|0.0|0.0|1.73|-32.969166666666666|-71.49388888888889|WGS84
Valparaíso|Marga Marga|Quilpué|2016-2017|FINAL CALLE PARINACOTA|2016-11-27|18:58|76.0|Sin alerta|IFIUr-Fo|Tránsito de personasvehículos o aeronaves|0.0|0.0|0.0|0.0|0.0|0.0|0.02|0.08|0.0|0.0|0.1|-33.062222222222225|-71.41777777777777|WGS84
Valparaíso|Marga Marga|Quilpué|2016-2017|FUNDO LA PIEDRA CAMINO COLLIGUAY|2016-11-28|12:25|198.0|Sin alerta|IFor-Vn|Accidentes eléctricos|0.0|0.0|0.0|0.0|0.0|0.0|0.5|1.0|0.0|0.0|1.5|-33.18527777777778|-71.29805555555555|WGS84
Valparaíso|Quillota|Nogales|2016-2017|MEDIA LUNA EL POLIGONO|2016-11-28|14:18|118.0|Sin alerta|IFor-Vn|Tránsito de personasvehículos o aeronaves|0.0|0.0|0.0|0.0|0.0|0.0|1.0|2.0|0.0|0.0|3.0|-32.73722222222222|-71.20972222222223|WGS84
Valparaíso|Valparaíso|Quintero|2016-2017|RUTA F30-E ALT. CABAÑAS SOL Y MAR|2016-11-28|14:30|330.0|Sin alerta|IFor-Vn|Tránsito de personasvehículos o aeronaves|0.0|0.0|0.0|0.11|0.0|0.0|0.15|0.15|0.0|0.0|0.41|-32.88611111111111|-71.49722222222222|WGS84
Valparaíso|Quillota|Quillota|2016-2017|FINAL CALLE 18 DE SEPTIEMBRE|2016-11-28|14:37|60.0|Sin alerta|IFIUr-Fo|Quema de desechos|0.0|0.0|0.0|0.0|0.0|0.0|0.02|0.03|0.0|0.0|0.05|-32.87166666666667|-71.25166666666667|WGS84
Valparaíso|Marga Marga|Villa Alemana|2016-2017|POBLACION LOS PROFESORES|2016-11-28|15:25|195.0|Sin alerta|IFor-Vn|Incendios intencionales|0.0|0.0|0.3|0.3|0.0|0.0|4.7|2.5|0.0|0.0|7.8|-33.029444444444444|-71.36527777777778|WGS84
Valparaíso|Petorca|Zapallar|2016-2017|HACIENDA CATAPILCO|2016-11-28|15:40|30.0|Sin alerta|IFIUr-Fo|Tránsito de personasvehículos o aeronaves|0.0|0.0|0.0|1.0|0.0|5.0|6.0|12.0|0.0|0.0|24.0|-32.58722222222222|-71.3025|WGS84
Valparaíso|San Antonio|San Antonio|2016-2017|BELLAVISTA HOLANDA|2016-11-28|19:45|39.0|Sin alerta|IFIUr-Fo|Incendios intencionales|0.0|0.0|0.0|0.0|0.0|0.0|0.0|0.1|0.0|0.0|0.1|-33.566944444444445|-71.6036111111111|WGS84
Valparaíso|San Antonio|El Tabo|2016-2017|LOS MOLLES|2016-11-28|20:28|211.0|Sin alerta|IFIUr-Fo|Tránsito de personasvehículos o aeronaves|0.0|0.0|0.0|0.0|0.0|0.0|0.02|0.04|0.0|0.02|0.08|-33.49194444444444|-71.59916666666666|WGS84
Valparaíso|San Antonio|El Quisco|2016-2017|LAS BALANDRAS|2016-11-28|20:50|60.0|Sin alerta|IFIUr-Fo|Tránsito de personasvehículos o aeronaves|0.0|0.0|0.0|0.0|0.0|0.0|0.02|0.0|0.0|0.0|0.02|-33.38583333333333|-71.67444444444445|WGS84
Valparaíso|San Antonio|El Quisco|2016-2017|LAS BALANDRAS|2016-11-29|11:50|247.0|Sin alerta|IFor-Vn|Tránsito de personasvehículos o aeronaves|0.0|0.2|0.0|0.0|0.0|0.0|0.7|1.0|0.0|0.0|1.9|-33.385555555555555|-71.67055555555555|WGS84
Valparaíso|Marga Marga|Villa Alemana|2016-2017|VALLE DORADO|2016-11-29|11:59|144.0|Sin alerta|IFIUr-Fo|Tránsito de personasvehículos o aeronaves|0.0|0.0|0.0|0.2|0.0|0.0|0.0|0.3|0.0|0.0|0.5|-33.034444444444446|-71.37722222222222|WGS84
Valparaíso|Quillota|Nogales|2016-2017|HUASO FUNDIDO|2016-11-29|12:34|172.0|Sin alerta|IFIUr-Fo|Incendios intencionales|0.0|0.0|0.0|0.0|0.0|0.0|0.0|0.24|0.0|0.0|0.24|-32.72972222222222|-71.21833333333333|WGS84
Valparaíso|San Antonio|Cartagena|2016-2017|EL TURCO|2016-11-29|15:09|181.0|Alerta roja|IFor-Vn|Tránsito de personasvehículos o aeronaves|0.0|0.0|2.75|112.55|0.0|22.4|37.4|104.9|0.0|0.0|280.0|-33.540277777777774|-71.51472222222222|WGS84
Valparaíso|Petorca|Papudo|2016-2017|PULLALLY|2016-11-29|16:12|183.0|Sin alerta|IFor-Vn|Tránsito de personasvehículos o aeronaves|0.0|0.0|0.0|0.0|0.0|0.5|0.5|1.5|0.0|0.0|2.5|-32.43416666666667|-71.31333333333333|WGS84
Valparaíso|San Felipe de Aconcagua|Putaendo|2016-2017|EDUARDO WEGGENER|2016-11-30|12:15|102.0|Sin alerta|IFIUr-Fo|Tránsito de personasvehículos o aeronaves|0.0|0.0|0.0|0.0|0.0|0.0|0.0|0.1|0.0|0.0|0.1|-32.63472222222222|-70.7175|WGS84
Valparaíso|Marga Marga|Quilpué|2016-2017|ANTONIO VARAS|2016-11-30|14:19|80.0|Sin alerta|IFIUr-Fo|Tránsito de personasvehículos o aeronaves|0.0|0.0|0.0|0.0|0.0|0.0|0.1|0.3|0.0|0.0|0.4|-33.058055555555555|-71.44444444444444|WGS84
Valparaíso|Marga Marga|Quilpué|2016-2017|FINAL CALLE URIBE|2016-11-30|14:26|103.0|Sin alerta|IFIUr-Fo|Tránsito de personasvehículos o aeronaves|0.0|0.0|0.0|0.04|0.0|0.0|0.06|0.3|0.0|0.0|0.4|-33.03277777777778|-71.41166666666666|WGS84
Valparaíso|Quillota|Hijuelas|2016-2017|CUATRO ESQUINAS|2016-11-30|14:30|174.0|Sin alerta|IFor-Vn|Quema de desechos|0.0|0.0|0.0|0.0|0.0|0.0|0.02|0.05|0.0|0.0|0.07|-32.82194444444445|-71.15305555555555|WGS84
Valparaíso|Valparaíso|Puchuncavi|2016-2017|CHILICAUQUEN|2016-11-30|16:50|117.0|Sin alerta|IFor-PI|Tránsito de personasvehículos o aeronaves|0.0|0.0|0.0|0.0|0.0|0.0|0.0|0.0|2.5|0.0|2.5|-32.8025|-71.38166666666666|WGS84
Valparaíso|Valparaíso|Casablanca|2016-2017|FUNDO EL CARMEN TAPIHUE|2016-12-01|14:35|118.0|Sin alerta|IFor-Vn|Tránsito de personasvehículos o aeronaves|0.0|0.0|0.0|0.0|0.0|0.0|0.5|1.0|0.0|0.0|1.5|-33.31861111111111|-71.30888888888889|WGS84
Valparaíso|Marga Marga|Limache|2016-2017|EASTMAN - PARADA 3 1/2|2016-12-01|15:50|147.0|Sin alerta|IFIUr-Fo|Tránsito de personasvehículos o aeronaves|0.0|0.0|0.0|0.4|0.0|0.0|0.6|0.7|0.0|0.0|1.7|-32.99916666666667|-71.25166666666667|WGS84
Valparaíso|Valparaíso|Valparaíso|2016-2017|FUNDO LA MARIPOSA|2016-12-01|16:06|1379.0|Sin alerta|IFor-Vn|Tránsito de personasvehículos o aeronaves|0.0|0.0|0.0|0.0|0.0|1.2|1.4|0.2|0.0|0.0|2.8|-33.155|-71.58694444444444|WGS84
Valparaíso|Marga Marga|Villa Alemana|2016-2017|MONTE CARMELO|2016-12-01|16:28|98.0|Sin alerta|IFIUr-Fo|Tránsito de personasvehículos o aeronaves|0.0|0.0|0.0|0.0|0.0|0.0|0.21|0.5|0.0|0.0|0.71|-33.031666666666666|-71.35972222222222|WGS84
Valparaíso|Valparaíso|Valparaíso|2016-2017|FUNDO EL SAUCE|2016-12-01|17:06|157.0|Sin alerta|IFIUr-Fo|Tránsito de personasvehículos o aeronaves|0.0|0.0|0.0|0.2|0.0|0.0|0.3|0.6|0.0|0.0|1.1|-33.10722222222222|-71.66027777777778|WGS84
Valparaíso|Los Andes|Los Andes|2016-2017|PUERTO TERRESTRE - BY PASS|2016-12-02|14:25|254.0|Alerta roja|IFIUr-Fo|Tránsito de personasvehículos o aeronaves|0.0|0.0|0.0|1.5|0.0|0.0|2.4|3.0|0.0|0.0|6.9|-32.848333333333336|-70.52555555555556|WGS84
Valparaíso|San Felipe de Aconcagua|Llay-Llay|2016-2017|FUNDO LAS  PALMAS|2016-12-02|15:03|1384.0|Sin alerta|IFor-Vn|Tránsito de personasvehículos o aeronaves|0.0|0.0|0.0|0.0|0.0|0.0|2.5|4.5|0.0|0.0|7.0|-32.86|-70.99638888888889|WGS84
Valparaíso|Marga Marga|Villa Alemana|2016-2017|IGNACIO CARRERA PINTO|2016-12-02|16:25|115.0|Sin alerta|IFIUr-Fo|Tránsito de personasvehículos o aeronaves|0.0|0.0|0.0|0.0|0.0|0.0|0.08|0.4|0.0|0.0|0.48|-33.03305555555556|-71.36527777777778|WGS84
Valparaíso|San Felipe de Aconcagua|Catemu|2016-2017|CERRO PALO BLANCO NILHUE|2016-12-03|14:50|1153.0|Sin alerta|IFor-Vn|Actividades recreativas|0.0|0.0|0.0|0.0|0.0|0.0|33.5|51.8|0.0|0.0|85.3|-32.7275|-70.90666666666667|WGS84
Valparaíso|San Felipe de Aconcagua|Llay-Llay|2016-2017|CERRO TUNEL LA CALAVERA|2016-12-03|14:57|237.0|Sin alerta|IFor-Vn|Tránsito de personasvehículos o aeronaves|0.0|0.0|0.0|0.0|0.0|0.0|2.84|4.0|0.0|0.0|6.84|-32.83805555555556|-71.03861111111111|WGS84
Valparaíso|Marga Marga|Quilpué|2016-2017|LA CANTERA - BELLOTO NORTE|2016-12-05|13:57|176.0|Sin alerta|IFor-Vn|Tránsito de personasvehículos o aeronaves|0.0|0.0|0.0|0.0|0.0|0.0|0.54|2.0|0.0|0.0|2.54|-33.013888888888886|-71.4|WGS84
Valparaíso|Petorca|Cabildo|2016-2017|RINCONADA DE CABILDO|2016-12-05|15:25|154.0|Sin alerta|IFor-Vn|Tránsito de personasvehículos o aeronaves|0.0|0.0|0.0|0.0|0.0|0.0|0.6|0.4|0.0|0.0|1.0|-32.44083333333333|-71.07805555555555|WGS84
Valparaíso|Marga Marga|Villa Alemana|2016-2017|FINAL VALENTIN LETELIER|2016-12-05|15:28|277.0|Sin alerta|IFor-Vn|Tránsito de personasvehículos o aeronaves|0.0|0.0|0.0|0.0|0.0|0.0|7.6|14.0|0.0|0.0|21.6|-33.03277777777778|-71.35861111111112|WGS84
Valparaíso|Petorca|La Ligua|2016-2017|COPIHUE ROJO|2016-12-05|17:52|203.0|Sin alerta|IFor-Vn|Tránsito de personasvehículos o aeronaves|0.0|0.0|0.0|0.0|0.0|0.0|3.0|3.8|0.0|0.0|6.8|-32.456944444444446|-71.17972222222222|WGS84
Valparaíso|Quillota|Quillota|2016-2017|LO ROJAS|2016-12-05|17:58|970.0|Sin alerta|IFor-Vn|Tránsito de personasvehículos o aeronaves|0.0|0.0|0.0|0.0|0.0|0.0|0.05|0.2|0.0|0.0|0.25|-32.84166666666667|-71.24666666666667|WGS84
Valparaíso|Los Andes|Calle Larga|2016-2017|CALLE LARGA - POCURO|2016-12-05|18:15|952.0|Sin alerta|IFor-Vn|Tránsito de personasvehículos o aeronaves|0.0|0.0|0.0|0.0|0.0|0.0|1.5|1.5|0.0|0.0|3.0|-32.88777777777778|-70.62222222222222|WGS84
Valparaíso|Valparaíso|Valparaíso|2016-2017|VILLA RAPANUI|2016-12-05|20:44|883.0|Sin alerta|IFIUr-Fo|Tránsito de personasvehículos o aeronaves|0.0|0.0|0.0|0.05|0.0|0.0|0.1|0.13|0.0|0.0|0.28|-33.062777777777775|-71.57694444444445|WGS84
Valparaíso|Valparaíso|Valparaíso|2016-2017|AVENIDA ESPAÑA - HOLANDA|2016-12-05|23:40|115.0|Sin alerta|IFIUr-Fo|Tránsito de personasvehículos o aeronaves|0.0|0.0|0.0|0.04|0.0|0.0|0.01|0.0|0.0|0.0|0.05|-33.11361111111111|-71.55361111111111|WGS84
Valparaíso|Valparaíso|Valparaíso|2016-2017|FINAL DECIMA AVENIDA|2016-12-06|00:35|115.0|Sin alerta|IFIUr-Fo|Tránsito de personasvehículos o aeronaves|0.0|0.0|0.0|0.04|0.0|0.0|0.0|0.06|0.0|0.0|0.1|-33.11944444444445|-71.54972222222223|WGS84
Valparaíso|San Antonio|San Antonio|2016-2017|FUNDO MIRAMAR|2016-12-06|13:00|236.0|Sin alerta|IFor-Vn|Incendios intencionales|0.0|0.0|0.0|0.0|0.0|0.0|0.0|18.0|0.0|0.0|18.0|-33.5825|-71.56833333333333|WGS84
Valparaíso|Marga Marga|Villa Alemana|2016-2017|POBLACION EL MIRADOR|2016-12-06|14:22|82.0|Sin alerta|IFor-Vn|Tránsito de personasvehículos o aeronaves|0.0|0.0|0.0|0.0|0.0|0.0|0.08|0.12|0.0|0.0|0.2|-33.036944444444444|-71.38722222222222|WGS84
Valparaíso|Petorca|Zapallar|2016-2017|ASENTAMIENTO LAS PARRAS|2016-12-06|16:17|148.0|Sin alerta|IFor-Vn|Otras actividades|0.0|0.0|0.0|0.0|0.0|0.0|0.5|1.6|0.0|0.0|2.1|-32.56027777777778|-71.32333333333334|WGS84
Valparaíso|Marga Marga|Quilpué|2016-2017|POMPEYA NORTE|2016-12-06|17:28|82.0|Sin alerta|IFor-Vn|Tránsito de personasvehículos o aeronaves|0.0|0.0|0.0|0.0|0.0|0.0|0.13|0.07|0.0|0.0|0.2|-33.05027777777778|-71.4725|WGS84
Valparaíso|Marga Marga|Quilpué|2016-2017|FUNDO EL PEQUEN|2016-12-06|17:40|64.0|Sin alerta|IFor-Vn|Tránsito de personasvehículos o aeronaves|0.0|0.0|0.0|0.01|0.0|0.0|0.02|0.07|0.0|0.0|0.1|-33.1175|-71.38722222222222|WGS84
Valparaíso|Marga Marga|Villa Alemana|2016-2017|COPA ESVAL|2016-12-06|18:29|106.0|Sin alerta|IFor-Vn|Tránsito de personasvehículos o aeronaves|0.0|0.0|0.0|0.1|0.0|0.0|0.3|0.6|0.0|0.0|1.0|-33.044444444444444|-71.34|WGS84
