Región|Provincia|Comuna|Temporada|Nombre|Fecha|Hora inicio|Duración (minutos)|Alerta|Escenario|Causa|Superficie quemada: Pino A [ha]|Superficie quemada: Pino B [ha]|Superficie quemada: Pino C [ha]|Superficie quemada: Eucalípto [ha]|Superficie quemada: Otras plantas [ha]|Superficie quemada: Arbolado [ha]|Superficie quemada: Matorral [ha]|Superficie quemada: Pastizal [ha]|Superficie quemada: Agrícola [ha]|Superficie quemada: Desechos [ha]|Superficie quemada total [ha]|Latitud|Longitud|Datum
Tarapacá|Tamarugal|Pozo Almonte|2017-2018|CAMIÑA|2018-06-01|11:00|200.0|Sin alerta|IFor-Vn|Faenas forestales|0.0|0.0|0.0|0.0|0.0|0.0|0.0|1.0|0.0|0.0|1.0|-20.07138888888889|-69.21305555555556|WGS84
Atacama|Copiapó|Copiapó|2017-2018|CHAMONATE COPIAPÓ|2017-09-23|14:30|150.0|Sin alerta|IFIUr-Fo|Incendios de causa desconocida|0.0|0.0|0.0|0.0|0.0|0.26|0.91|0.13|0.0|0.0|1.2999999999999998|-27.28944444444444|-70.42333333333333|WGS84
Atacama|Huasco|Vallenar|2017-2018|SECTOR EL MORRO|2017-11-17|18:30|1097.0|Sin alerta|IFor-Vn|Actividades recreativas|0.0|0.0|0.0|2.1|0.0|0.0|3.1|0.0|0.0|0.0|5.2|-28.598888888888894|-70.72083333333333|WGS84
Atacama|Huasco|Vallenar|2017-2018|SECTOR ANTENA|2017-11-22|10:50|68.0|Sin alerta|IFor-Vn|Quema de desechos|0.0|0.0|0.0|0.0|0.0|0.0|0.003|0.0|0.0|0.0|0.003|-28.59861111111111|-70.72027777777778|WGS84
Atacama|Copiapó|Copiapó|2017-2018|SECTOR CHAMONATE|2017-11-29|12:50|328.0|Sin alerta|IFor-Vn|Faenas agrícolas y pecuarias|0.0|0.0|0.0|0.0|0.0|0.0|0.03|0.0|0.0|0.0|0.03|-27.29222222222222|-70.4375|WGS84
Atacama|Huasco|Vallenar|2017-2018|SECTOR VENTANAS|2017-12-09|12:50|75.0|Sin alerta|IFor-Vn|Quema de desechos|0.0|0.0|0.0|2.2|0.0|0.0|2.75|0.55|0.0|0.0|5.5|-28.55361111111111|-70.80777777777777|WGS84
Atacama|Copiapó|Copiapó|2017-2018|PIEDRA COLGADA|2017-12-09|14:30|300.0|Sin alerta|IFor-Vn|Tránsito de personasvehículos o aeronaves|0.0|0.0|0.0|0.0|0.0|0.1|0.15|0.0|0.0|0.0|0.25|-27.31055555555556|-70.49416666666667|WGS84
Atacama|Huasco|Vallenar|2017-2018|SECTOR EL JILGERO|2017-12-16|17:25|169.0|Sin alerta|IFor-Vn|Quema de desechos|0.0|0.0|0.0|0.0|0.0|0.0|0.0|0.006|0.0|0.0|0.006|-28.594444444444445|-70.7325|WGS84
Atacama|Huasco|Vallenar|2017-2018|SECTOR VIVERO MUNICIPAL|2017-12-23|13:40|1429.0|Sin alerta|IFIUr-Fo|Actividades recreativas|0.0|0.0|0.0|0.0|0.0|0.065|1.125|0.0|0.0|0.0|1.19|-28.58888888888889|-70.73777777777778|WGS84
Atacama|Huasco|Vallenar|2017-2018|CAMINO ANTIGUO EL JILGUERO|2017-12-26|13:20|719.0|Sin alerta|IFIUr-Fo|Actividades recreativas|0.0|0.0|0.0|0.0|0.0|0.065|0.0|0.0|0.0|0.0|0.065|-28.59|-70.73722222222223|WGS84
Atacama|Huasco|Vallenar|2017-2018|HACIENDA VENTANAS|2018-01-18|16:00|330.0|Sin alerta|IFor-Vn|Actividades recreativas|0.0|0.0|0.0|0.0|0.0|5.0|5.0|10.0|0.0|0.0|20.0|-28.53805555555556|-70.8425|WGS84
Atacama|Huasco|Vallenar|2017-2018|SECTOR LA VERBENA|2018-02-09|16:19|191.0|Sin alerta|IFIUr-Fo|Actividades recreativas|0.0|0.0|0.0|0.0|0.0|0.0|0.35|0.0|0.0|0.0|0.35|-28.656388888888888|-70.6763888888889|WGS84
Atacama|Huasco|Vallenar|2017-2018|SECTOR CHAÑAR BLANCO|2018-02-13|16:49|101.0|Alerta amarilla|IFIUr-Fo|Actividades recreativas|0.0|0.0|0.0|1.0|0.0|4.0|6.0|0.0|0.0|0.0|11.0|-28.6425|-70.69361111111111|WGS84
Atacama|Huasco|Vallenar|2017-2018|SECTOR LA FLORIDA|2018-02-19|16:30|1272.0|Sin alerta|IFor-Vn|Faenas agrícolas y pecuarias|0.0|0.0|0.0|0.7|0.0|0.0|0.0|0.5|0.0|0.0|1.2|-28.53805555555556|-70.89305555555555|WGS84
Atacama|Huasco|Freirina|2017-2018|MAITENCILLO|2018-02-22|18:00|88.0|Alerta amarilla|IFor-Vn|Actividades recreativas|0.0|0.0|0.0|6.3|0.0|3.7|0.0|0.0|0.0|0.0|10.0|-28.53666666666667|-70.91472222222222|WGS84
Atacama|Huasco|Freirina|2017-2018|MAITENCILLO 2|2018-03-01|12:00|238.0|Sin alerta|IFor-Vn|Actividades recreativas|0.0|0.0|0.0|0.5|0.0|0.0|0.0|0.0|0.0|0.0|0.5|-28.54277777777778|-70.91305555555556|WGS84
Atacama|Huasco|Alto del Carmen|2017-2018|CONAI|2018-03-07|16:37|380.0|Sin alerta|IFor-Vn|Accidentes eléctricos|0.0|0.0|0.0|0.0|0.0|0.05|0.0|0.0|0.0|0.0|0.05|-28.968055555555555|-70.13638888888889|WGS84
Atacama|Huasco|Vallenar|2017-2018|CASA EMAU|2018-03-09|19:10|200.0|Sin alerta|IFor-Vn|Tránsito de personasvehículos o aeronaves|0.0|0.0|0.0|0.0|0.0|0.0|0.0|0.06|0.0|0.0|0.06|-28.591666666666665|-70.73861111111111|WGS84
Atacama|Huasco|Huasco|2017-2018|HUMEDAL CARRIZAL BAJO|2018-04-01|13:00|1380.0|Sin alerta|IFor-Vn|Quema de desechos|0.0|0.0|0.0|0.0|0.0|0.0|4.0|0.0|0.0|0.0|4.0|-28.093333333333334|-71.14|WGS84
Atacama|Huasco|Vallenar|2017-2018|SECTOR EL MORRO|2018-04-18|18:00|990.0|Sin alerta|IFor-Vn|Quema de desechos|0.0|0.0|0.0|0.0|0.0|0.1|0.0|0.4|0.0|0.0|0.5|-28.598888888888894|-70.72611111111111|WGS84
Atacama|Huasco|Vallenar|2017-2018|SECTOR JILGERO|2018-04-21|14:30|348.0|Sin alerta|IFor-Vn|Incendios intencionales|0.0|0.0|0.0|0.0|0.0|0.4|0.1|0.0|0.0|0.0|0.5|-28.593888888888884|-70.73361111111112|WGS84
Coquimbo|Limarí|Ovalle|2017-2018|CARACHILLAS|2017-10-10|18:30|1310.0|Sin alerta|IFor-Vn|Tránsito de personasvehículos o aeronaves|0.0|0.0|0.0|0.0|0.0|2.0|2.5|0.5|0.0|0.0|5.0|-30.681666666666665|-71.06083333333333|WGS84
Coquimbo|Elqui|Coquimbo|2017-2018|POLLO AL PASO|2017-10-02|20:50|250.0|Sin alerta|IFIUr-Fo|Tránsito de personasvehículos o aeronaves|0.0|0.0|0.0|0.0|0.0|0.0|0.7|0.1|0.0|0.0|0.7999999999999999|-29.952222222222225|-71.29222222222222|WGS84
Coquimbo|Elqui|Coquimbo|2017-2018|LOS PESCADORES|2017-10-20|16:00|125.0|Sin alerta|IFor-Vn|Quema de desechos|0.0|0.0|0.0|0.0|0.0|0.0|0.1|0.1|0.0|0.0|0.2|-29.95138888888889|-71.29388888888889|WGS84
Coquimbo|Limarí|Ovalle|2017-2018|LA SILLETA|2017-10-23|13:30|126.0|Sin alerta|IFor-Vn|Quema de desechos|0.0|0.0|0.0|0.0|0.0|0.0|0.0|3.0|0.0|0.0|3.0|-30.611944444444443|-71.22583333333333|WGS84
Coquimbo|Elqui|Paiguano|2017-2018|HORCON|2017-10-30|14:00|1360.0|Sin alerta|IFIUr-Fo|Tránsito de personasvehículos o aeronaves|0.0|0.0|0.0|0.0|0.0|1.0|0.0|0.0|0.5|0.0|1.5|-30.20138888888889|-70.48694444444445|WGS84
Coquimbo|Limarí|Ovalle|2017-2018|EL ESPINAL|2017-11-02|20:00|245.0|Sin alerta|IFor-Vn|Quema de desechos|0.0|0.0|0.0|0.0|0.0|0.0|0.0|0.5|0.0|0.0|0.5|-30.60472222222222|-71.13333333333334|WGS84
Coquimbo|Limarí|Ovalle|2017-2018|TALHUEN|2017-11-04|16:15|1425.0|Sin alerta|IFor-Vn|Tránsito de personasvehículos o aeronaves|0.0|0.0|0.0|0.0|0.0|7.0|0.0|7.0|0.0|0.0|14.0|-30.581666666666667|-71.21166666666667|WGS84
Coquimbo|Limarí|Ovalle|2017-2018|FUNDO SAN JOSE OVALLE|2017-11-05|12:00|135.0|Sin alerta|IFor-Vn|Tránsito de personasvehículos o aeronaves|0.0|0.0|0.0|0.0|0.0|0.3|0.2|0.0|0.0|0.0|0.5|-30.604444444444447|-71.13472222222222|WGS84
Coquimbo|Limarí|Ovalle|2017-2018|LOS OLIVOS|2017-11-06|13:50|180.0|Sin alerta|IFor-Vn|Faenas agrícolas y pecuarias|0.0|0.0|0.0|0.2|0.0|0.0|0.0|1.0|0.0|0.0|1.2|-30.601388888888888|-71.43833333333333|WGS84
Coquimbo|Elqui|La Serena|2017-2018|RUTA D41- KMS 16|2017-11-07|13:10|225.0|Sin alerta|IFor-Vn|Tránsito de personasvehículos o aeronaves|0.0|0.0|0.0|1.0|0.0|0.0|0.0|0.0|0.0|0.0|1.0|-29.96944444444445|-71.10666666666667|WGS84
Coquimbo|Elqui|La Serena|2017-2018|SANTA ANA|2017-11-08|14:00|200.0|Sin alerta|IFor-Vn|Tránsito de personasvehículos o aeronaves|0.0|0.0|0.0|0.0|0.0|0.0|0.01|0.0|0.0|0.0|0.01|-29.9475|-71.13555555555556|WGS84
Coquimbo|Choapa|Canela|2017-2018|LOS TOMES|2017-11-09|12:30|427.0|Sin alerta|IFor-Vn|Tránsito de personasvehículos o aeronaves|0.0|0.0|0.0|0.0|0.0|0.0|32.0|100.0|0.0|0.0|132.0|-31.43722222222222|-71.52722222222222|WGS84
Coquimbo|Elqui|Coquimbo|2017-2018|LA TORTOLAS|2017-11-09|16:00|1289.0|Sin alerta|IFor-Vn|Actividades recreativas|0.0|0.0|0.0|0.0|0.0|0.0|10.0|10.0|0.0|0.0|20.0|-30.276111111111103|-71.465|WGS84
Coquimbo|Limarí|Ovalle|2017-2018|TABALI|2017-11-10|15:30|180.0|Sin alerta|IFor-Vn|Actividades recreativas|0.0|0.0|0.0|0.0|0.0|0.0|0.0|2.0|0.0|0.0|2.0|-30.648333333333333|-71.40527777777778|WGS84
Coquimbo|Limarí|Ovalle|2017-2018|LA PLACA|2017-11-12|15:40|168.0|Sin alerta|IFor-Vn|Tránsito de personasvehículos o aeronaves|0.0|0.0|0.0|0.0|0.0|0.0|0.0|15.0|0.0|0.0|15.0|-30.61722222222222|-71.3386111111111|WGS84
Coquimbo|Limarí|Ovalle|2017-2018|EL OLIVO|2017-11-13|17:00|110.0|Sin alerta|IFor-Vn|Quema de desechos|0.0|0.0|0.0|0.0|0.0|0.0|0.0|8.0|0.0|0.0|8.0|-30.579722222222223|-71.42361111111111|WGS84
Coquimbo|Elqui|La Serena|2017-2018|ULRILKSEN|2017-11-15|15:00|120.0|Sin alerta|IFor-Vn|Quema de desechos|0.0|0.0|0.0|0.0|0.0|0.0|0.0|0.01|0.0|0.0|0.01|-29.92805555555556|-71.22833333333334|WGS84
Coquimbo|Elqui|La Serena|2017-2018|ALGARROBITO-1|2017-11-16|15:50|300.0|Sin alerta|IFor-Vn|Tránsito de personasvehículos o aeronaves|0.0|0.0|0.0|0.5|0.0|0.0|0.0|0.0|0.0|0.0|0.5|-29.948333333333338|-71.13472222222222|WGS84
Coquimbo|Elqui|Coquimbo|2017-2018|CULEBRON|2017-11-17|16:40|125.0|Sin alerta|IFor-Vn|Quema de desechos|0.0|0.0|0.0|0.0|0.0|0.0|0.0|0.01|0.0|0.0|0.01|-29.9775|-71.32305555555556|WGS84
Coquimbo|Elqui|Vicuña|2017-2018|ALMENDRAL|2017-11-19|17:30|1425.0|Alerta amarilla|IFor-Vn|Tránsito de personasvehículos o aeronaves|0.0|0.0|0.0|7.0|0.0|0.0|5.0|3.0|0.0|0.0|15.0|-29.98777777777778|-70.89361111111111|WGS84
Coquimbo|Elqui|Vicuña|2017-2018|PELICANA|2017-11-20|17:00|86.0|Sin alerta|IFor-Vn|Tránsito de personasvehículos o aeronaves|0.0|0.0|0.0|0.0|0.0|0.0|0.01|0.0|0.0|0.0|0.01|-29.98333333333333|-70.99805555555555|WGS84
Coquimbo|Limarí|Ovalle|2017-2018|LA PROVIDENCIA|2017-11-21|14:00|290.0|Sin alerta|IFor-Vn|Tránsito de personasvehículos o aeronaves|0.0|0.0|0.0|0.0|0.0|0.5|0.0|1.5|0.0|0.0|2.0|-30.614722222222223|-71.12694444444445|WGS84
Coquimbo|Limarí|Ovalle|2017-2018|RAMILLAN DE ALGARROBO ALTOS|2017-11-22|13:00|260.0|Sin alerta|IFor-Vn|Incendios de causa desconocida|0.0|0.0|0.0|0.0|0.0|0.0|0.0|3.0|0.0|0.0|3.0|-30.58833333333333|-71.48138888888889|WGS84
Coquimbo|Limarí|Monte Patria|2017-2018|HUATULAME|2017-11-22|15:00|278.0|Sin alerta|IFor-Vn|Incendios intencionales|0.0|0.0|0.0|0.0|0.0|1.0|1.0|0.0|0.0|0.0|2.0|-30.83944444444445|-70.98472222222222|WGS84
Coquimbo|Limarí|Monte Patria|2017-2018|TOME ALTO|2017-11-27|16:45|150.0|Sin alerta|IFor-Vn|Tránsito de personasvehículos o aeronaves|0.0|0.0|0.0|0.0|0.0|0.0|0.0|8.0|0.0|0.0|8.0|-30.80777777777778|-70.97805555555556|WGS84
Coquimbo|Limarí|Ovalle|2017-2018|FUNDO EL SOL|2017-11-29|14:00|156.0|Sin alerta|IFor-Vn|Tránsito de personasvehículos o aeronaves|0.0|0.0|0.0|0.3|0.0|0.0|0.0|0.9|0.0|0.0|1.2|-30.615|-71.12722222222222|WGS84
Coquimbo|Limarí|Punitaqui|2017-2018|LAS RAMADAS|2017-11-29|15:00|308.0|Sin alerta|IFor-Vn|Faenas agrícolas y pecuarias|0.0|0.0|0.0|1.2|0.0|0.6|0.0|14.0|0.0|0.0|15.8|-30.79027777777777|-71.26722222222222|WGS84
Coquimbo|Elqui|Coquimbo|2017-2018|PEÑUELAS|2017-12-03|14:25|91.0|Sin alerta|IFor-Vn|Tránsito de personasvehículos o aeronaves|0.0|0.0|0.0|0.0|0.0|0.0|0.01|0.0|0.0|0.0|0.01|-29.952777777777776|-71.2925|WGS84
Coquimbo|Limarí|Ovalle|2017-2018|PUNTILLA DE BARRANCAS|2017-12-04|18:30|77.0|Sin alerta|IFor-Vn|Actividades recreativas|0.0|0.0|0.0|0.0|0.0|0.0|0.5|2.0|0.0|0.0|2.5|-30.58833333333333|-71.16916666666667|WGS84
Coquimbo|Elqui|Coquimbo|2017-2018|PEÑUELAS 2|2017-12-05|18:40|70.0|Sin alerta|IFor-Vn|Tránsito de personasvehículos o aeronaves|0.0|0.0|0.0|0.0|0.0|0.0|0.01|0.0|0.0|0.0|0.01|-29.953333333333333|-71.29333333333334|WGS84
Coquimbo|Limarí|Ovalle|2017-2018|EL CASINO|2017-12-06|18:50|88.0|Sin alerta|IFor-Vn|Tránsito de personasvehículos o aeronaves|0.0|0.0|0.0|0.0|0.0|0.0|2.0|5.0|0.0|0.0|7.0|-30.579722222222223|-71.17333333333333|WGS84
Coquimbo|Limarí|Ovalle|2017-2018|LLANOS  DEL LIMARI|2017-12-08|18:15|148.0|Sin alerta|IFor-Vn|Incendios de causa desconocida|0.0|0.0|0.0|1.5|0.0|0.0|0.0|1.0|0.0|0.0|2.5|-30.62027777777778|-71.275|WGS84
Coquimbo|Limarí|Ovalle|2017-2018|LLANOS DEL LIMARI 2|2017-12-09|08:00|690.0|Sin alerta|IFor-Vn|Incendios de causa desconocida|0.0|0.0|0.0|1.0|0.0|0.0|0.0|1.5|0.0|0.0|2.5|-30.62|-71.27555555555556|WGS84
Coquimbo|Elqui|Coquimbo|2017-2018|PEÑUELAS 3|2017-12-12|16:10|95.0|Sin alerta|IFor-Vn|Tránsito de personasvehículos o aeronaves|0.0|0.0|0.0|0.0|0.0|0.0|0.02|0.0|0.0|0.0|0.02|-29.952777777777776|-71.29305555555555|WGS84
Coquimbo|Choapa|Los Vilos|2017-2018|AGUA AMARILLA|2017-12-14|10:30|90.0|Sin alerta|IFor-Vn|Accidentes eléctricos|0.0|0.0|0.0|0.0|0.0|0.0|0.005|0.005|0.0|0.0|0.01|-31.823333333333338|-71.48694444444445|WGS84
Coquimbo|Limarí|Ovalle|2017-2018|TAMELCURA|2017-12-14|15:10|35.0|Sin alerta|IFor-Vn|Tránsito de personasvehículos o aeronaves|0.0|0.0|0.0|2.0|0.0|1.0|0.0|0.5|0.0|0.0|3.5|-30.70138888888889|-71.02972222222222|WGS84
Coquimbo|Choapa|Los Vilos|2017-2018|CERRO QUELON|2017-12-15|16:10|260.0|Sin alerta|IFor-Vn|Tránsito de personasvehículos o aeronaves|0.0|0.0|0.0|0.0|0.0|0.0|1.5|0.5|0.0|0.0|2.0|-32.06388888888889|-71.36416666666666|WGS84
Coquimbo|Elqui|Coquimbo|2017-2018|EL TRIGAL|2017-12-16|14:20|215.0|Sin alerta|IFor-Vn|Accidentes eléctricos|0.0|0.0|0.0|0.0|0.0|0.0|4.0|4.0|0.0|0.0|8.0|-30.230555555555554|-71.41972222222222|WGS84
Coquimbo|Choapa|Illapel|2017-2018|MAITEN|2017-12-16|16:10|1205.0|Sin alerta|IFor-Vn|Faenas agrícolas y pecuarias|0.0|0.0|0.0|0.0|0.0|5.0|10.0|7.0|0.0|0.0|22.0|-31.668055555555554|-71.25583333333333|WGS84
Coquimbo|Choapa|Illapel|2017-2018|MAITEN 2|2017-12-16|18:00|1022.0|Sin alerta|IFor-Vn|Faenas agrícolas y pecuarias|0.0|0.0|0.0|0.0|0.0|9.0|24.0|5.0|0.0|0.0|38.0|-31.67111111111111|-71.2375|WGS84
Coquimbo|Choapa|Illapel|2017-2018|RANCHO ELVIS|2017-12-17|12:55|75.0|Sin alerta|IFor-Vn|Quema de desechos|0.0|0.0|0.0|0.4|0.0|0.0|0.0|0.1|0.0|0.0|0.5|-31.619444444444444|-71.13944444444445|WGS84
Coquimbo|Limarí|Ovalle|2017-2018|FUNDO SAN JOSE 2|2017-12-17|16:50|95.0|Sin alerta|IFor-Vn|Tránsito de personasvehículos o aeronaves|0.0|0.0|0.0|0.0|0.0|0.0|0.0|0.01|0.0|0.0|0.01|-30.61138888888889|-71.13055555555556|WGS84
Coquimbo|Limarí|Ovalle|2017-2018|FUNDO SAN JOSE 3|2017-12-18|18:35|27.0|Sin alerta|IFor-Vn|Tránsito de personasvehículos o aeronaves|0.0|0.0|0.0|0.0|0.0|0.0|0.0|0.01|0.0|0.0|0.01|-30.60944444444445|-71.13194444444444|WGS84
Coquimbo|Choapa|Canela|2017-2018|HUENTELAUQUEN SUR|2017-12-22|00:00|670.0|Sin alerta|IFor-Vn|Incendios de causa desconocida|0.0|0.0|0.0|0.0|0.0|0.0|0.0|0.1|0.0|0.1|0.2|-31.598333333333333|-71.52388888888889|WGS84
Coquimbo|Limarí|Ovalle|2017-2018|LA CHIMBA|2017-12-23|16:50|193.0|Sin alerta|IFor-PI|Tránsito de personasvehículos o aeronaves|0.0|0.0|0.0|1.0|0.0|0.0|0.0|0.0|0.0|0.0|1.0|-30.625833333333333|-71.22833333333334|WGS84
Coquimbo|Limarí|Ovalle|2017-2018|SONORA|2017-12-26|14:50|205.0|Sin alerta|IFor-Vn|Tránsito de personasvehículos o aeronaves|0.0|0.0|0.0|0.0|0.0|0.0|1.0|12.0|0.0|0.0|13.0|-30.675833333333337|-71.27944444444445|WGS84
Coquimbo|Elqui|La Serena|2017-2018|ALGARROBITO-2|2017-12-29|11:00|345.0|Sin alerta|IFor-PI|Faenas forestales|0.0|0.0|0.0|1.5|0.0|0.0|0.5|0.0|0.0|0.0|2.0|-29.95555555555556|-71.12944444444445|WGS84
Coquimbo|Limarí|Ovalle|2017-2018|LA PLACA-2|2017-12-29|15:00|15.0|Sin alerta|IFor-Vn|Tránsito de personasvehículos o aeronaves|0.0|0.0|0.0|0.0|0.0|4.0|0.0|0.5|0.0|0.0|4.5|-30.617777777777786|-71.35277777777777|WGS84
Coquimbo|Limarí|Ovalle|2017-2018|CARACHILLA-2|2018-01-01|15:00|240.0|Sin alerta|IFor-Vn|Tránsito de personasvehículos o aeronaves|0.0|0.0|0.0|0.0|0.0|1.0|0.0|1.0|0.0|0.0|2.0|-30.66583333333333|-71.07944444444445|WGS84
Coquimbo|Limarí|Ovalle|2017-2018|VILLA EL INGENIO|2018-01-04|16:00|90.0|Sin alerta|IFIUr-Fo|Tránsito de personasvehículos o aeronaves|0.0|0.0|0.0|0.0|0.0|0.0|0.6|1.0|0.0|0.0|1.6|-30.60861111111111|-71.22027777777778|WGS84
Coquimbo|Limarí|Ovalle|2017-2018|SOTAQUI|2018-01-06|18:15|35.0|Sin alerta|IFIUr-Fo|Tránsito de personasvehículos o aeronaves|0.0|0.0|0.0|0.0|0.0|0.0|0.0|0.01|0.0|0.0|0.01|-30.63805555555556|-71.11638888888889|WGS84
Coquimbo|Choapa|Illapel|2017-2018|CHOAPA VIEJO|2018-01-11|14:00|225.0|Sin alerta|IFor-Vn|Quema de desechos|0.0|0.0|0.0|0.0|0.0|0.0|3.0|7.0|0.0|0.0|10.0|-31.729444444444447|-71.20861111111111|WGS84
Coquimbo|Elqui|Coquimbo|2017-2018|LOS LAGOS|2018-01-15|13:50|160.0|Sin alerta|IFor-Vn|Tránsito de personasvehículos o aeronaves|0.0|0.0|0.0|0.4|0.0|0.0|0.3|0.0|0.0|0.0|0.7|-29.95861111111111|-71.27361111111111|WGS84
Coquimbo|Choapa|Los Vilos|2017-2018|SANTA INES|2018-01-16|16:30|110.0|Sin alerta|IFor-Vn|Actividades recreativas|0.0|0.0|0.0|0.0|0.0|0.0|1.5|1.0|0.0|0.0|2.5|-32.136944444444445|-71.4875|WGS84
Coquimbo|Elqui|La Serena|2017-2018|ALGARROBITO-3|2018-01-18|15:20|1169.0|Sin alerta|IFor-Vn|Quema de desechos|0.0|0.0|0.0|2.0|0.0|0.0|0.1|0.1|0.0|0.0|2.2|-29.951944444444443|-71.13138888888889|WGS84
Coquimbo|Limarí|Ovalle|2017-2018|HUAMALATA|2018-01-18|16:30|159.0|Sin alerta|IFor-Vn|Tránsito de personasvehículos o aeronaves|0.0|0.0|0.0|0.4|0.0|0.0|0.0|0.1|0.0|0.0|0.5|-30.58138888888889|-71.1686111111111|WGS84
Coquimbo|Limarí|Ovalle|2017-2018|CARACHILLA-3|2018-01-21|12:50|105.0|Sin alerta|IFor-Vn|Tránsito de personasvehículos o aeronaves|0.0|0.0|0.0|0.0|0.0|0.0|0.0|0.01|0.0|0.0|0.01|-30.67833333333333|-71.07|WGS84
Coquimbo|Elqui|Coquimbo|2017-2018|MAR AZUL|2018-01-22|10:30|109.0|Sin alerta|IFor-Vn|Tránsito de personasvehículos o aeronaves|0.0|0.0|0.0|0.002|0.0|0.0|0.0|0.008|0.0|0.0|0.01|-30.19611111111111|-71.40805555555555|WGS84
Coquimbo|Limarí|Ovalle|2017-2018|LAS SOSSAS|2018-01-24|13:50|55.0|Sin alerta|IFor-Vn|Accidentes eléctricos|0.0|0.0|0.0|0.0|0.0|0.0|0.5|2.0|0.0|0.0|2.5|-30.59583333333333|-71.38944444444445|WGS84
Coquimbo|Limarí|Ovalle|2017-2018|LOS LEICES|2018-01-24|16:45|152.0|Sin alerta|IFor-Vn|Tránsito de personasvehículos o aeronaves|0.0|0.0|0.0|0.0|0.0|0.2|0.3|0.0|0.0|0.0|0.5|-30.636944444444445|-71.22805555555556|WGS84
Coquimbo|Elqui|Coquimbo|2017-2018|GUANAQUEROS|2018-01-24|16:40|260.0|Sin alerta|IFor-Vn|Tránsito de personasvehículos o aeronaves|0.0|0.0|0.0|0.0|0.0|0.0|3.5|8.0|0.0|0.0|11.5|-30.198888888888888|-71.38916666666667|WGS84
Coquimbo|Choapa|Salamanca|2017-2018|CANCHA BRAVA|2018-01-24|16:40|125.0|Sin alerta|IFor-Vn|Otras actividades|0.0|0.0|0.0|0.0|0.0|0.0|0.1|0.4|0.0|0.0|0.5|-31.7575|-70.96666666666667|WGS84
Coquimbo|Elqui|La Serena|2017-2018|LAS ROJAS|2018-01-25|11:00|480.0|Sin alerta|IFor-Vn|Quema de desechos|0.0|0.0|0.0|2.0|0.0|0.5|0.0|0.3|0.0|0.0|2.8|-29.98527777777778|-71.06444444444445|WGS84
Coquimbo|Choapa|Canela|2017-2018|HUENTELAUQUEN NORTE|2018-01-25|16:30|77.0|Sin alerta|IFor-Vn|Tránsito de personasvehículos o aeronaves|0.0|0.0|0.0|0.0|0.0|0.0|0.0|0.15|0.0|0.0|0.15|-31.587777777777777|-71.53111111111112|WGS84
Coquimbo|Choapa|Salamanca|2017-2018|EL TEBAL|2018-01-25|17:00|210.0|Sin alerta|IFor-Vn|Quema de desechos|0.0|0.0|0.0|0.0|0.0|0.0|1.0|1.5|0.0|0.0|2.5|-31.756944444444443|-70.97833333333334|WGS84
Coquimbo|Elqui|Coquimbo|2017-2018|GUANAQUEROS 2|2018-01-26|14:45|160.0|Sin alerta|IFor-Vn|Tránsito de personasvehículos o aeronaves|0.0|0.0|0.0|0.0|0.0|0.0|1.8|1.0|0.0|0.0|2.8|-30.198888888888888|-71.39027777777778|WGS84
Coquimbo|Elqui|Coquimbo|2017-2018|EL TRIGAL-2|2018-01-26|13:30|275.0|Sin alerta|IFor-Vn|Tránsito de personasvehículos o aeronaves|0.0|0.0|0.0|0.0|0.0|0.0|3.0|5.0|0.0|0.0|8.0|-30.232222222222227|-71.41111111111111|WGS84
Coquimbo|Limarí|Ovalle|2017-2018|CERRO LA TORRE|2018-01-28|15:15|201.0|Sin alerta|IFor-Vn|Tránsito de personasvehículos o aeronaves|0.0|0.0|0.0|1.0|0.0|2.0|1.0|12.0|0.0|0.0|16.0|-30.61055555555556|-71.36138888888888|WGS84
Coquimbo|Elqui|La Serena|2017-2018|LAS ROJAS-2|2018-01-31|08:00|235.0|Sin alerta|IFIUr-Fo|Quema de desechos|0.0|0.0|0.0|0.0|0.0|0.0|0.14|0.01|0.0|0.0|0.15|-29.971944444444446|-71.06305555555555|WGS84
Coquimbo|Choapa|Salamanca|2017-2018|TAHUINCO|2018-01-31|17:30|128.0|Sin alerta|IFor-Vn|Tránsito de personasvehículos o aeronaves|0.0|0.0|0.0|0.0|0.0|0.2|0.2|0.1|0.0|0.0|0.5|-31.749722222222218|-71.09444444444445|WGS84
Coquimbo|Elqui|Coquimbo|2017-2018|LAGUNILLAS|2018-02-01|09:20|205.0|Sin alerta|IFor-Vn|Tránsito de personasvehículos o aeronaves|0.0|0.0|0.0|0.0|0.0|0.0|0.1|0.5|0.0|0.0|0.6|-30.1175|-71.36583333333333|WGS84
Coquimbo|Limarí|Punitaqui|2017-2018|SAN PEDRO DE QUILES|2018-02-01|18:30|55.0|Sin alerta|IFor-Vn|Tránsito de personasvehículos o aeronaves|0.0|0.0|0.0|0.0|0.0|0.0|80.0|40.81|0.0|0.0|120.81|-31.07361111111112|-71.34611111111111|WGS84
Coquimbo|Limarí|Ovalle|2017-2018|LA PROVIDENCIA 2|2018-02-03|15:30|45.0|Sin alerta|IFor-Vn|Tránsito de personasvehículos o aeronaves|0.0|0.0|0.0|0.0|0.0|0.0|0.0|0.01|0.0|0.0|0.01|-30.59805555555556|-71.13972222222222|WGS84
Coquimbo|Choapa|Los Vilos|2017-2018|CULIMO|2018-02-04|14:00|60.0|Sin alerta|IFor-Vn|Tránsito de personasvehículos o aeronaves|0.0|0.0|0.0|0.0|0.0|1.0|0.2|0.3|0.0|0.0|1.5|-32.007777777777775|-71.22611111111111|WGS84
Coquimbo|Choapa|Los Vilos|2017-2018|PEAJE PICHIDANGUI|2018-02-04|22:20|850.0|Sin alerta|IFor-Vn|Quema de desechos|0.0|0.0|0.0|0.0|0.0|0.5|0.81|2.0|0.0|0.0|3.31|-32.172222222222224|-71.51916666666666|WGS84
Coquimbo|Limarí|Ovalle|2017-2018|BARRAZA|2018-02-05|15:50|87.0|Sin alerta|IFor-Vn|Tránsito de personasvehículos o aeronaves|0.0|0.0|0.0|0.0|0.0|0.0|1.0|0.0|0.0|0.0|1.0|-30.66972222222222|-71.51472222222222|WGS84
Coquimbo|Limarí|Ovalle|2017-2018|PARCELA SAN MANUEL|2018-02-07|15:00|240.0|Sin alerta|IFor-Vn|Tránsito de personasvehículos o aeronaves|0.0|0.0|0.0|0.0|0.0|0.0|0.03|0.02|0.0|0.0|0.05|-30.81305555555556|-71.50916666666667|WGS84
Coquimbo|Limarí|Ovalle|2017-2018|CAMPO LINDO|2018-02-08|14:00|100.0|Sin alerta|IFor-Vn|Tránsito de personasvehículos o aeronaves|0.0|0.0|0.0|0.0|0.0|0.0|0.0|4.0|0.0|0.0|4.0|-30.72305555555556|-71.36222222222223|WGS84
Coquimbo|Elqui|Coquimbo|2017-2018|PENUELAS 4|2018-02-08|18:10|50.0|Sin alerta|IFor-Vn|Tránsito de personasvehículos o aeronaves|0.0|0.0|0.0|0.0|0.0|0.0|0.01|0.0|0.0|0.0|0.01|-29.952222222222225|-71.29138888888889|WGS84
Coquimbo|Limarí|Ovalle|2017-2018|QDA ANGEL CALAMEÑO|2018-02-09|17:50|1234.0|Alerta roja|IFIUr-Fo|Tránsito de personasvehículos o aeronaves|0.0|0.0|0.0|5.0|0.0|0.8|3.0|2.0|0.0|0.0|10.8|-30.593611111111112|-71.13944444444445|WGS84
Coquimbo|Limarí|Ovalle|2017-2018|HUAMALATA 2|2018-02-10|17:45|1215.0|Alerta roja|IFIUr-Fo|Tránsito de personasvehículos o aeronaves|0.0|0.0|0.0|2.5|0.0|0.0|1.0|0.5|0.0|0.0|4.0|-30.578333333333333|-71.16388888888889|WGS84
Coquimbo|Choapa|Los Vilos|2017-2018|PEAJE PICHIDANGUI 2|2018-02-10|17:45|45.0|Alerta roja|IFIUr-Fo|Tránsito de personasvehículos o aeronaves|0.0|0.0|0.0|0.0|0.0|3.0|185.0|275.0|0.0|0.0|463.0|-32.17166666666667|-71.51944444444445|WGS84
Coquimbo|Limarí|Ovalle|2017-2018|CRUCE VALLE EL ENCANTO|2018-02-12|15:51|68.0|Sin alerta|IFor-Vn|Tránsito de personasvehículos o aeronaves|0.0|0.0|0.0|0.0|0.0|0.0|0.0|0.5|0.0|0.0|0.5|-30.66388888888889|-71.37194444444444|WGS84
Coquimbo|Limarí|Ovalle|2017-2018|LA SILLETA 2|2018-02-12|17:15|42.0|Sin alerta|IFor-Vn|Quema de desechos|0.0|0.0|0.0|0.0|0.0|0.0|0.0|0.02|0.0|0.0|0.02|-30.606944444444444|-71.21638888888889|WGS84
Coquimbo|Choapa|Los Vilos|2017-2018|FUNDO EL ROMERO|2018-02-16|14:50|226.0|Sin alerta|IFor-Vn|Tránsito de personasvehículos o aeronaves|0.0|0.0|0.0|0.0|0.0|0.0|8.0|4.2|0.0|0.0|12.2|-31.95527777777778|-71.12083333333334|WGS84
Coquimbo|Limarí|Ovalle|2017-2018|PUENTE QUEBRADA SECA|2018-02-20|14:30|90.0|Sin alerta|IFor-Vn|Tránsito de personasvehículos o aeronaves|0.0|0.0|0.0|0.0|0.0|0.05|0.15|0.0|0.0|0.0|0.2|-30.66111111111111|-71.08888888888889|WGS84
Coquimbo|Elqui|La Serena|2017-2018|PARQUE COLL|2018-02-20|15:00|90.0|Sin alerta|IFor-Vn|Tránsito de personasvehículos o aeronaves|0.0|0.0|0.0|0.0|0.0|0.0|0.01|0.0|0.0|0.0|0.01|-29.910833333333333|-71.23277777777778|WGS84
Coquimbo|Limarí|Ovalle|2017-2018|TRAPICHE|2018-02-20|16:50|70.0|Sin alerta|IFor-Vn|Tránsito de personasvehículos o aeronaves|0.0|0.0|0.0|0.0|0.0|0.0|0.0|0.01|0.0|0.0|0.01|-30.631388888888885|-71.3236111111111|WGS84
Coquimbo|Limarí|Ovalle|2017-2018|LA TORRE|2018-02-21|14:10|175.0|Sin alerta|IFor-Vn|Tránsito de personasvehículos o aeronaves|0.0|0.0|0.0|0.0|0.0|0.3|0.5|7.0|0.0|0.0|7.8|-30.614444444444445|-71.38|WGS84
Coquimbo|Limarí|Ovalle|2017-2018|LAS SOSSAS 2|2018-02-21|14:00|180.0|Sin alerta|IFor-Vn|Tránsito de personasvehículos o aeronaves|0.0|0.0|0.0|0.0|0.0|0.0|0.2|1.3|0.0|0.0|1.5|-30.606666666666666|-71.40944444444445|WGS84
Coquimbo|Choapa|Salamanca|2017-2018|EL TAMBO|2018-02-23|16:10|65.0|Sin alerta|IFor-Vn|Faenas agrícolas y pecuarias|0.0|0.0|0.0|0.0|0.0|0.0|0.0|0.0|0.0|0.02|0.02|-31.7875|-71.03611111111111|WGS84
Coquimbo|Limarí|Ovalle|2017-2018|MINA LA COCINERA|2018-02-25|18:05|73.0|Sin alerta|IFor-Vn|Tránsito de personasvehículos o aeronaves|0.0|0.0|0.0|0.0|0.0|0.0|0.5|0.2|0.0|0.0|0.7|-30.55305555555556|-71.17444444444445|WGS84
Coquimbo|Limarí|Ovalle|2017-2018|EMBALSE RECOLETA|2018-02-26|14:45|165.0|Alerta amarilla|IFor-Vn|Actividades recreativas|0.0|0.0|0.0|0.0|0.0|10.0|1.0|1.0|0.0|0.0|12.0|-30.48|-71.0663888888889|WGS84
Coquimbo|Limarí|Ovalle|2017-2018|LA CHIMBA 2|2018-02-28|17:50|989.0|Sin alerta|IFor-Vn|Tránsito de personasvehículos o aeronaves|0.0|0.0|0.0|1.0|0.0|0.8|0.5|0.2|0.0|0.0|2.5|-30.636388888888888|-71.2286111111111|WGS84
Coquimbo|Elqui|Vicuña|2017-2018|MARQUEZA|2018-03-01|14:30|117.0|Sin alerta|IFor-Vn|Quema de desechos|0.0|0.0|0.0|0.0|0.0|0.2|0.0|0.4|0.0|0.0|0.6000000000000001|-29.96361111111111|-70.97|WGS84
Coquimbo|Limarí|Ovalle|2017-2018|LA CHIMBA 3|2018-03-02|16:00|104.0|Sin alerta|IFor-Vn|Tránsito de personasvehículos o aeronaves|0.0|0.0|0.0|0.1|0.0|0.0|0.1|0.3|0.0|0.0|0.5|-30.63583333333333|-71.22833333333334|WGS84
Coquimbo|Limarí|Ovalle|2017-2018|LA CHIMBA 4|2018-03-03|17:00|119.0|Sin alerta|IFIUr-Fo|Actividades recreativas|0.0|0.0|0.0|0.0|0.0|0.0|0.0|0.01|0.0|0.0|0.01|-30.635555555555555|-71.2275|WGS84
Coquimbo|Limarí|Ovalle|2017-2018|EL CIENAGO|2018-03-04|12:00|360.0|Sin alerta|IFor-Vn|Tránsito de personasvehículos o aeronaves|0.0|0.0|0.0|0.0|0.0|0.0|3.0|2.3|0.0|0.0|5.3|-30.82055555555556|-71.55472222222222|WGS84
Coquimbo|Elqui|Coquimbo|2017-2018|FUNDO CORAZÓN DE MARIA|2018-03-09|14:15|195.0|Sin alerta|IFor-PI|Tránsito de personasvehículos o aeronaves|0.0|0.0|0.0|0.5|0.0|0.0|0.0|0.0|0.0|0.0|0.5|-29.988611111111112|-71.22555555555556|WGS84
Coquimbo|Choapa|Salamanca|2017-2018|EL BOLDO|2018-03-11|15:00|229.0|Sin alerta|IFor-Vn|Incendios de causa desconocida|0.0|0.0|0.0|3.0|0.0|9.0|6.0|7.0|0.0|0.0|25.0|-31.77638888888889|-71.01194444444444|WGS84
Coquimbo|Choapa|Salamanca|2017-2018|SANTA ROSA|2018-03-11|18:00|1168.0|Sin alerta|IFor-Vn|Faenas agrícolas y pecuarias|0.0|0.0|0.0|0.0|0.0|0.1|1.5|0.4|0.0|0.0|2.0|-31.79222222222222|-70.95777777777778|WGS84
Coquimbo|Elqui|Coquimbo|2017-2018|EXPO PEÑUELAS|2018-03-19|13:15|72.0|Sin alerta|IFor-Vn|Tránsito de personasvehículos o aeronaves|0.0|0.0|0.0|0.0|0.0|0.0|0.01|0.0|0.0|0.0|0.01|-29.951944444444443|-71.29055555555556|WGS84
Coquimbo|Elqui|Paiguano|2017-2018|LA CONCHINA|2018-03-22|12:30|210.0|Sin alerta|IFor-Vn|Quema de desechos|0.0|0.0|0.0|0.0|0.0|0.0|1.0|0.3|0.0|0.0|1.3|-30.00944444444444|-70.52416666666667|WGS84
Coquimbo|Choapa|Los Vilos|2017-2018|CASCABELES|2018-03-23|11:00|118.0|Sin alerta|IFor-Vn|Tránsito de personasvehículos o aeronaves|0.0|0.0|0.0|0.0|0.0|0.0|0.04|0.02|0.0|0.0|0.06|-31.98166666666667|-71.50444444444445|WGS84
Coquimbo|Limarí|Ovalle|2017-2018|POTRERILLOS BAJOS|2018-03-25|16:50|1210.0|Sin alerta|IFor-Vn|Tránsito de personasvehículos o aeronaves|0.0|0.0|0.0|0.0|0.0|0.7|1.3|0.5|0.0|0.0|2.5|-30.62333333333333|-71.19388888888889|WGS84
Coquimbo|Limarí|Ovalle|2017-2018|LOS OLIVOS 2|2018-04-04|17:40|95.0|Sin alerta|IFor-Vn|Incendios de causa desconocida|0.0|0.0|0.0|0.0|0.0|0.0|0.0|0.3|0.0|0.0|0.3|-30.5775|-71.47361111111111|WGS84
Coquimbo|Limarí|Ovalle|2017-2018|HOTEL LIMARI|2018-04-22|18:35|71.0|Sin alerta|IFor-Vn|Tránsito de personasvehículos o aeronaves|0.0|0.0|0.0|0.0|0.0|0.02|0.03|0.0|0.0|0.0|0.05|-30.59916666666667|-71.15138888888889|WGS84
Coquimbo|Elqui|Coquimbo|2017-2018|CHILE-ITALIA|2018-04-23|08:30|45.0|Sin alerta|IFor-Vn|Tránsito de personasvehículos o aeronaves|0.0|0.0|0.0|0.0|0.0|0.0|0.01|0.0|0.0|0.0|0.01|-29.94388888888889|-71.28416666666666|WGS84
Coquimbo|Limarí|Monte Patria|2017-2018|LAS JUNTAS|2018-04-27|13:20|284.0|Sin alerta|IFor-Vn|Quema de desechos|0.0|0.0|0.0|0.5|0.0|0.5|0.1|0.2|0.0|0.0|1.3|-30.708888888888893|-70.86472222222223|WGS84
Coquimbo|Choapa|Los Vilos|2017-2018|LAS MOSTAZAS|2018-06-12|13:45|145.0|Sin alerta|IFor-Vn|Accidentes eléctricos|0.0|0.0|0.0|0.0|0.0|0.0|0.0|1.5|0.0|0.0|1.5|-31.86166666666667|-71.40638888888888|WGS84
Valparaíso|Isla de Pascua|Isla de Pascua|2017-2018|HANGA HEMU|2017-07-05|12:20|110.0|Sin alerta|IFIns|Incendios intencionales|0.0|0.0|0.0|0.0|0.0|0.0|0.0|1.0|0.0|0.0|1.0|-27.16333333333333|-109.38916666666668|WGS84
Valparaíso|Isla de Pascua|Isla de Pascua|2017-2018|VAITOIRI|2017-07-07|12:20|100.0|Sin alerta|IFIns|Incendios intencionales|0.0|0.0|0.0|0.0|0.0|0.0|0.0|8.0|0.0|0.0|8.0|-27.13805555555556|-109.29|WGS84
Valparaíso|Isla de Pascua|Isla de Pascua|2017-2018|HANGA MAI HIKU|2017-07-14|06:40|160.0|Sin alerta|IFIns|Incendios intencionales|0.0|0.0|0.0|0.0|0.0|0.0|0.0|4.0|0.0|0.0|4.0|-27.136388888888888|-109.29861111111111|WGS84
Valparaíso|Isla de Pascua|Isla de Pascua|2017-2018|VAITOIRI 1|2017-07-19|11:45|125.0|Sin alerta|IFIns|Incendios intencionales|0.0|0.0|0.0|0.0|0.0|0.0|0.0|5.0|0.0|0.0|5.0|-27.13833333333333|-109.29|WGS84
Valparaíso|Isla de Pascua|Isla de Pascua|2017-2018|VAITOIRI 2|2017-07-19|12:25|95.0|Sin alerta|IFIns|Incendios intencionales|0.0|0.0|0.0|0.0|0.0|0.0|0.0|8.0|0.0|0.0|8.0|-27.13805555555556|-109.29|WGS84
Valparaíso|Quillota|La Cruz|2017-2018|CORDON CHILICAUQUEN|2017-07-19|14:25|85.0|Sin alerta|IFor-Vn|Tránsito de personasvehículos o aeronaves|0.0|0.0|0.0|0.0|0.0|4.4|5.1|1.4|0.0|0.0|10.9|-32.8325|-71.32111111111111|WGS84
Valparaíso|Isla de Pascua|Isla de Pascua|2017-2018|AHU RUNGA (ANAKENA)|2017-07-21|14:55|95.0|Sin alerta|IFIns|Tránsito de personasvehículos o aeronaves|0.0|0.0|0.0|0.0|0.0|0.0|0.0|1.0|0.0|0.0|1.0|-27.09555555555556|-109.24194444444444|WGS84
Valparaíso|Isla de Pascua|Isla de Pascua|2017-2018|VAITATAKOKOMA|2017-07-25|14:26|210.0|Sin alerta|IFIns|Tránsito de personasvehículos o aeronaves|0.0|0.0|0.0|0.0|0.0|0.0|0.0|5.0|0.0|0.0|5.0|-27.1275|-109.36833333333334|WGS84
Valparaíso|Isla de Pascua|Isla de Pascua|2017-2018|CERRO PUI|2017-07-30|17:40|80.0|Sin alerta|IFIns|Tránsito de personasvehículos o aeronaves|0.0|0.0|0.0|0.0|0.0|0.0|0.0|5.0|0.0|0.0|5.0|-27.11138888888889|-109.34055555555555|WGS84
Valparaíso|Isla de Pascua|Isla de Pascua|2017-2018|ANAMARAMA|2017-07-30|13:58|257.0|Sin alerta|IFIns|Tránsito de personasvehículos o aeronaves|0.0|0.0|0.0|0.0|0.0|0.0|0.0|20.0|0.0|0.0|20.0|-27.12333333333333|-109.32055555555556|WGS84
Valparaíso|Valparaíso|Viña del Mar|2017-2018|GRANADILLA SIETE|2017-08-02|12:07|69.0|Sin alerta|IFIUr-Fo|Tránsito de personasvehículos o aeronaves|0.0|0.0|0.0|0.0|0.0|0.0|0.03|0.03|0.0|0.0|0.06|-33.019444444444446|-71.51194444444444|WGS84
Valparaíso|Isla de Pascua|Isla de Pascua|2017-2018|RANO RARAKU|2017-08-06|15:15|210.0|Sin alerta|IFIns|Incendios intencionales|0.0|0.0|0.0|0.0|0.0|0.0|0.0|50.0|0.0|0.0|50.0|-27.118611111111115|-109.29861111111111|WGS84
Valparaíso|Isla de Pascua|Isla de Pascua|2017-2018|MAUNGA KAUHAGA O VARU|2017-08-11|00:00|1020.0|Sin alerta|IFIns|Incendios intencionales|0.0|0.0|0.0|0.0|0.0|0.0|0.0|20.0|0.0|0.0|20.0|-27.1375|-109.38583333333337|WGS84
Valparaíso|Isla de Pascua|Isla de Pascua|2017-2018|PEKA PEKA|2017-08-23|12:55|245.0|Sin alerta|IFIns|Tránsito de personasvehículos o aeronaves|0.0|0.0|0.0|10.0|0.0|0.0|0.0|0.0|0.0|0.0|10.0|-27.092777777777776|-109.31666666666666|WGS84
Valparaíso|Isla de Pascua|Isla de Pascua|2017-2018|OCAC|2017-08-30|15:55|180.0|Sin alerta|IFIns|Incendios intencionales|0.0|0.0|0.0|5.0|0.0|0.0|0.0|0.0|0.0|0.0|5.0|-27.09527777777777|-109.31333333333332|WGS84
Valparaíso|San Antonio|Santo Domingo|2017-2018|FUNDO SANTA ROSA - SAN ENRIQUE|2017-09-01|13:00|150.0|Sin alerta|IFor-PI|Faenas forestales|0.0|0.0|0.0|0.0|0.0|0.0|0.0|0.2|0.0|0.8|1.0|-33.90138888888889|-71.73527777777778|WGS84
Valparaíso|Valparaíso|Quintero|2017-2018|DUNAS DE RITOQUE|2017-09-02|16:00|120.0|Sin alerta|IFor-Vn|Tránsito de personasvehículos o aeronaves|0.0|0.0|0.0|0.0|0.0|0.0|0.05|0.0|0.0|0.0|0.05|-32.8675|-71.50555555555556|WGS84
Valparaíso|Isla de Pascua|Isla de Pascua|2017-2018|ANAMARAMA 2|2017-09-03|00:00|0.0|Sin alerta|IFIns|Incendios intencionales|0.0|0.0|0.0|0.0|0.0|0.0|0.0|30.0|0.0|0.0|30.0|-27.12361111111111|-109.30555555555554|WGS84
Valparaíso|Isla de Pascua|Isla de Pascua|2017-2018|VAITEA|2017-09-03|00:00|0.0|Sin alerta|IFIns|Tránsito de personasvehículos o aeronaves|0.0|0.0|0.0|15.0|0.0|0.0|0.0|5.0|0.0|0.0|20.0|-27.119444444444444|-109.3575|WGS84
Valparaíso|Isla de Pascua|Isla de Pascua|2017-2018|RANO RARAKU 2|2017-09-03|12:26|244.0|Sin alerta|IFIns|Incendios intencionales|0.0|0.0|0.0|0.0|0.0|0.0|0.0|50.0|0.0|0.0|50.0|-27.1175|-109.29222222222222|WGS84
Valparaíso|Isla de Pascua|Isla de Pascua|2017-2018|VAITOIRI 3|2017-09-03|16:55|65.0|Sin alerta|IFIns|Incendios intencionales|0.0|0.0|0.0|0.0|0.0|0.0|0.0|20.0|0.0|0.0|20.0|-27.134166666666665|-109.29194444444444|WGS84
Valparaíso|Isla de Pascua|Isla de Pascua|2017-2018|ANAKENA|2017-09-04|00:00|0.0|Sin alerta|IFIns|Incendios intencionales|0.0|0.0|0.0|0.0|0.0|0.0|0.0|5.0|0.0|0.0|5.0|-27.08333333333333|-109.32666666666664|WGS84
Valparaíso|Isla de Pascua|Isla de Pascua|2017-2018|VAITOIRI 4|2017-09-04|00:00|0.0|Sin alerta|IFIns|Tránsito de personasvehículos o aeronaves|0.0|0.0|0.0|0.0|0.0|0.0|0.0|5.0|0.0|0.0|5.0|-27.134166666666665|-109.29194444444444|WGS84
Valparaíso|Isla de Pascua|Isla de Pascua|2017-2018|PUNA PAU|2017-09-04|00:00|0.0|Sin alerta|IFIns|Tránsito de personasvehículos o aeronaves|0.0|0.0|0.0|0.0|0.0|0.0|0.0|6.0|0.0|0.0|6.0|-27.15027777777778|-109.39472222222224|WGS84
Valparaíso|Valparaíso|Valparaíso|2017-2018|FUNDO LA PLANTACION - CAMINO REAL|2017-09-04|16:38|254.0|Sin alerta|IFIUr-Fo|Tránsito de personasvehículos o aeronaves|0.0|0.0|0.0|0.0|0.0|0.15|0.0|0.05|0.0|0.0|0.2|-33.084722222222226|-71.56833333333333|WGS84
Valparaíso|Isla de Pascua|Isla de Pascua|2017-2018|MAUNGA PUI  PEKA-PEKA|2017-09-06|00:00|0.0|Sin alerta|IFIns|Tránsito de personasvehículos o aeronaves|0.0|0.0|0.0|0.0|0.0|10.0|0.0|20.0|0.0|0.0|30.0|-27.10111111111112|-109.32638888888889|WGS84
Valparaíso|Marga Marga|Olmué|2017-2018|LO CASTRO|2017-09-15|20:00|909.0|Sin alerta|IFor-Vn|Tránsito de personasvehículos o aeronaves|0.0|0.0|0.0|0.0|0.0|0.0|8.0|0.7|0.0|0.0|8.7|-33.094722222222224|-71.05666666666667|WGS84
Valparaíso|Marga Marga|Olmué|2017-2018|LO CASTRO 2|2017-09-16|00:01|670.0|Sin alerta|IFor-Vn|Tránsito de personasvehículos o aeronaves|0.0|0.0|0.0|0.0|0.0|0.0|4.0|0.5|0.0|0.0|4.5|-33.09305555555556|-71.06083333333333|WGS84
Valparaíso|Marga Marga|Olmué|2017-2018|LO CASTRO 3|2017-09-16|00:40|631.0|Sin alerta|IFor-Vn|Faenas forestales|0.0|0.0|0.0|0.0|0.0|0.0|6.0|1.9|0.0|0.0|7.9|-33.09777777777778|-71.0525|WGS84
Valparaíso|Marga Marga|Olmué|2017-2018|LO CASTRO 4|2017-09-16|00:41|630.0|Sin alerta|IFor-Vn|Tránsito de personasvehículos o aeronaves|0.0|0.0|0.0|0.0|0.0|0.0|0.05|0.1|0.0|0.0|0.15|-33.07277777777778|-71.07277777777777|WGS84
Valparaíso|Isla de Pascua|Isla de Pascua|2017-2018|ANAMARAMA|2017-09-17|00:00|0.0|Sin alerta|IFIns|Tránsito de personasvehículos o aeronaves|0.0|0.0|0.0|0.0|0.0|0.0|0.0|188.0|0.0|0.0|188.0|-27.118611111111115|-109.3211111111111|WGS84
Valparaíso|Isla de Pascua|Isla de Pascua|2017-2018|MANGA PUI|2017-09-17|00:00|0.0|Sin alerta|IFIns|Tránsito de personasvehículos o aeronaves|0.0|0.0|0.0|0.0|0.0|0.0|0.0|35.0|0.0|0.0|35.0|-27.10638888888889|-109.32833333333332|WGS84
Valparaíso|Isla de Pascua|Isla de Pascua|2017-2018|ORONGO|2017-09-17|00:00|0.0|Sin alerta|IFIns|Tránsito de personasvehículos o aeronaves|0.0|0.0|0.0|0.0|0.0|0.0|0.0|30.0|0.0|27.5|57.5|-27.188611111111115|-109.44305555555556|WGS84
Valparaíso|Isla de Pascua|Isla de Pascua|2017-2018|VAITEA|2017-09-17|00:00|0.0|Sin alerta|IFIns|Incendios intencionales|0.0|0.0|0.0|0.0|0.0|0.0|0.0|23.5|0.0|0.0|23.5|-27.130833333333328|-109.36111111111111|WGS84
Valparaíso|Isla de Pascua|Isla de Pascua|2017-2018|VAI A TARE|2017-09-17|00:00|0.0|Sin alerta|IFIns|Tránsito de personasvehículos o aeronaves|0.0|0.0|0.0|0.0|0.0|0.0|0.0|6.7|0.0|0.0|6.7|-27.17888888888889|-109.42527777777778|WGS84
Valparaíso|Isla de Pascua|Isla de Pascua|2017-2018|OCAC|2017-09-17|00:00|0.0|Sin alerta|IFIns|Tránsito de personasvehículos o aeronaves|0.0|0.0|0.0|0.0|0.0|0.0|0.0|298.0|0.0|0.0|298.0|-27.091666666666665|-109.29999999999998|WGS84
Valparaíso|Petorca|La Ligua|2017-2018|CERRO EL TURQUEN|2017-09-17|15:00|1209.0|Sin alerta|IFor-Vn|Tránsito de personasvehículos o aeronaves|0.0|0.0|0.0|0.0|0.0|0.0|20.0|4.2|0.0|0.0|24.2|-32.605|-71.12305555555555|WGS84
Valparaíso|Isla de Pascua|Isla de Pascua|2017-2018|VOLCAN RANO KAU|2017-09-18|00:00|0.0|Sin alerta|IFIns|Tránsito de personasvehículos o aeronaves|0.0|0.0|0.0|0.0|0.0|0.0|0.0|23.0|0.0|0.0|23.0|-27.17944444444445|-109.4375|WGS84
Valparaíso|Valparaíso|Casablanca|2017-2018|TRANQUE LO OVALLE|2017-09-19|16:50|110.0|Sin alerta|IFor-PI|Tránsito de personasvehículos o aeronaves|0.0|0.0|0.0|0.0|0.0|0.0|0.09|0.1|0.0|0.0|0.19|-33.25611111111111|-71.35777777777778|WGS84
Valparaíso|Valparaíso|Valparaíso|2017-2018|R.N.L.P - LAS GUALAS|2017-09-22|14:30|115.0|Sin alerta|IFASP|Incendios intencionales|0.0|0.0|0.0|0.0|0.0|0.0|0.03|0.0|0.0|0.11|0.14|-33.16583333333333|-71.54138888888889|WGS84
Valparaíso|Valparaíso|Concón|2017-2018|LAJARILLAS - 1|2017-09-25|11:30|77.0|Sin alerta|IFor-PI|Tránsito de personasvehículos o aeronaves|0.0|0.0|0.0|0.01|0.0|0.0|0.0|0.02|0.0|0.0|0.03|-32.961666666666666|-71.46833333333333|WGS84
Valparaíso|San Antonio|Santo Domingo|2017-2018|SUR SANTO DOMINGO|2017-09-25|16:00|190.0|Sin alerta|IFor-PI|Faenas forestales|0.0|0.0|0.0|0.0|0.0|2.2|3.0|2.0|0.0|0.0|7.2|-33.9375|-71.7286111111111|WGS84
Valparaíso|Valparaíso|Valparaíso|2017-2018|PEUMOS DE PEÑUELAS 1|2017-09-27|13:30|221.0|Sin alerta|IFor-Vn|Tránsito de personasvehículos o aeronaves|0.0|0.0|0.0|0.0|0.0|0.0|0.0|0.0|0.0|0.32|0.32|-33.16583333333333|-71.56388888888888|WGS84
Valparaíso|Valparaíso|Quintero|2017-2018|SANTA ROSA DE COLMO|2017-09-27|15:00|212.0|Sin alerta|IFor-PI|Tránsito de personasvehículos o aeronaves|0.0|0.0|0.0|0.0|0.0|0.1|0.22|0.4|0.0|0.0|0.72|-32.905|-71.4475|WGS84
Valparaíso|Valparaíso|Valparaíso|2017-2018|PEUMOS DE PEÑUELAS 2|2017-09-27|15:15|111.0|Sin alerta|IFor-Vn|Tránsito de personasvehículos o aeronaves|0.1|0.0|0.0|0.1|0.0|0.0|0.03|0.02|0.0|0.0|0.25|-33.16222222222222|-71.56472222222222|WGS84
Valparaíso|Valparaíso|Valparaíso|2017-2018|CAMINO QUINTAY SECTOR LAS TABLAS|2017-10-12|17:00|70.0|Sin alerta|IFor-PI|Tránsito de personasvehículos o aeronaves|0.0|0.0|0.0|0.0|0.0|0.0|0.0|0.0|0.0|0.07|0.07|-33.18055555555556|-71.54583333333333|WGS84
Valparaíso|San Antonio|El Tabo|2017-2018|FUNDO SANTA MARGARITA|2017-10-19|14:17|161.0|Sin alerta|IFIUr-Fo|Faenas forestales|0.0|0.0|0.0|0.05|0.0|0.0|0.0|0.15|0.0|0.0|0.2|-33.467777777777776|-71.62944444444445|WGS84
Valparaíso|Los Andes|San Esteban|2017-2018|CAHUCALAN|2017-10-19|15:45|1353.0|Sin alerta|IFIUr-Fo|Quema de desechos|0.0|0.0|0.0|0.0|0.0|0.0|0.3|0.8|0.0|0.0|1.1|-32.78944444444444|-70.60805555555555|WGS84
Valparaíso|Quillota|Calera|2017-2018|SECTOR LA PEÑA|2017-10-21|16:38|167.0|Sin alerta|IFor-PI|Tránsito de personasvehículos o aeronaves|0.0|0.0|0.0|0.05|0.0|0.0|0.28|0.2|0.0|0.0|0.53|-32.763333333333335|-71.15944444444445|WGS84
Valparaíso|Los Andes|Calle Larga|2017-2018|LA PAMPILLA|2017-10-22|13:59|126.0|Sin alerta|IFor-Vn|Faenas forestales|0.0|0.0|0.0|0.0|0.0|0.0|0.01|0.01|0.0|0.0|0.02|-32.85027777777778|-70.62694444444445|WGS84
Valparaíso|San Antonio|Cartagena|2017-2018|QUILLAICILLO|2017-10-22|15:40|114.0|Sin alerta|IFor-Vn|Faenas forestales|0.0|0.0|0.0|0.05|0.0|0.0|0.05|0.1|0.0|0.0|0.2|-33.49611111111111|-71.51611111111112|WGS84
Valparaíso|Valparaíso|Valparaíso|2017-2018|FUNDO LAS TABLAS - 1|2017-10-22|15:58|94.0|Sin alerta|IFor-Vn|Incendios intencionales|0.0|0.0|0.0|0.04|0.0|0.0|0.02|0.02|0.0|0.0|0.08|-33.1825|-71.54472222222222|WGS84
Valparaíso|Valparaíso|Concón|2017-2018|LAJARILLA CAMINO FUERTE AGUAYO - 2|2017-10-24|10:55|165.0|Sin alerta|IFor-Vn|Tránsito de personasvehículos o aeronaves|0.0|0.0|0.1|0.0|0.0|0.0|0.05|0.18|0.0|0.0|0.33|-32.95916666666667|-71.46944444444445|WGS84
Valparaíso|Marga Marga|Villa Alemana|2017-2018|FINAL CALLE LIMA|2017-10-25|17:36|69.0|Sin alerta|IFor-Vn|Tránsito de personasvehículos o aeronaves|0.0|0.0|0.0|0.0|0.0|0.0|0.01|0.03|0.0|0.0|0.04|-33.03527777777778|-71.36083333333333|WGS84
Valparaíso|San Felipe de Aconcagua|Llay-Llay|2017-2018|LA ESTANCILLA - 1|2017-10-28|11:03|150.0|Sin alerta|IFor-Vn|Tránsito de personasvehículos o aeronaves|0.0|0.0|0.0|0.0|0.0|0.0|0.0|0.05|0.0|0.0|0.05|-32.800555555555555|-70.98666666666666|WGS84
Valparaíso|Quillota|Quillota|2017-2018|FUNDO LAS GARZAS|2017-10-28|16:00|138.0|Sin alerta|IFor-Vn|Tránsito de personasvehículos o aeronaves|0.0|0.0|0.0|0.0|0.0|0.0|2.0|2.6|0.0|0.0|4.6|-32.92722222222222|-71.31083333333333|WGS84
Valparaíso|Quillota|Hijuelas|2017-2018|EL ROMERAL|2017-10-28|22:37|62.0|Sin alerta|IFor-Vn|Tránsito de personasvehículos o aeronaves|0.0|0.0|0.0|0.0|0.0|0.0|0.0|0.015|0.0|0.005|0.02|-32.83277777777778|-71.08722222222222|WGS84
Valparaíso|Valparaíso|Valparaíso|2017-2018|FUNDO LA MERCED - 1|2017-10-29|15:12|96.0|Sin alerta|IFor-Vn|Incendios intencionales|0.01|0.0|0.0|0.01|0.0|0.0|0.01|0.03|0.0|0.0|0.06|-33.11222222222222|-71.55666666666667|WGS84
Valparaíso|Quillota|Quillota|2017-2018|CANCHA VIEJOS TERCIOS 1|2017-10-30|14:05|168.0|Sin alerta|IFIUr-Fo|Tránsito de personasvehículos o aeronaves|0.0|0.0|0.0|0.0|0.0|0.0|0.09|0.1|0.0|0.0|0.19|-32.875277777777775|-71.26138888888889|WGS84
Valparaíso|Valparaíso|Concón|2017-2018|VILLA PRIMAVERA|2017-10-31|12:47|103.0|Sin alerta|IFIUr-Fo|Tránsito de personasvehículos o aeronaves|0.0|0.0|0.0|0.3|0.0|0.0|0.0|0.43|0.0|0.0|0.73|-32.939166666666665|-71.51611111111112|WGS84
Valparaíso|San Antonio|San Antonio|2017-2018|ARBOLEDA|2017-11-01|15:51|57.0|Sin alerta|IFor-PI|Accidentes eléctricos|0.0|0.0|0.0|0.0|0.0|0.0|0.0|0.01|0.0|0.0|0.01|-33.63944444444444|-71.47694444444444|WGS84
Valparaíso|Valparaíso|Viña del Mar|2017-2018|LAJARILLA - 3|2017-11-05|15:39|173.0|Sin alerta|IFor-Vn|Quema de desechos|0.0|0.0|0.0|0.0|0.0|0.0|0.6|1.0|0.0|0.0|1.6|-32.98555555555556|-71.49444444444444|WGS84
Valparaíso|Marga Marga|Villa Alemana|2017-2018|CERRO LO VIRGEN 1|2017-11-05|15:57|119.0|Sin alerta|IFor-Vn|Incendios intencionales|0.0|0.0|0.0|0.0|0.0|0.0|0.14|0.4|0.0|0.0|0.54|-33.03055555555556|-71.36138888888888|WGS84
Valparaíso|Marga Marga|Villa Alemana|2017-2018|CERRO LA VIRGEN 1|2017-11-05|16:00|50.0|Sin alerta|IFor-Vn|Incendios intencionales|0.0|0.0|0.0|0.0|0.0|0.0|0.05|0.15|0.0|0.0|0.2|-33.02861111111111|-71.36333333333333|WGS84
Valparaíso|Marga Marga|Villa Alemana|2017-2018|EL PATAGUAL - 1|2017-11-05|17:53|54.0|Sin alerta|IFor-Vn|Incendios intencionales|0.0|0.0|0.0|0.0|0.0|0.0|0.06|0.09|0.0|0.0|0.15|-33.04138888888889|-71.3163888888889|WGS84
Valparaíso|Petorca|La Ligua|2017-2018|LA TRICANA  SECTOR RIO LA LIGUA|2017-11-07|15:30|168.0|Sin alerta|IFor-Vn|Quema de desechos|0.0|0.0|0.0|0.0|0.0|0.0|0.5|1.5|0.0|0.0|2.0|-32.443888888888885|-71.21583333333334|WGS84
Valparaíso|Valparaíso|Valparaíso|2017-2018|LAS DOCAS  - LAGUNA VERDE|2017-11-07|17:16|1167.0|Sin alerta|IFIUr-Fo|Tránsito de personasvehículos o aeronaves|0.0|0.0|0.0|0.0|0.0|0.0|0.0|0.06|0.0|0.2|0.26|-33.14833333333333|-71.70388888888888|WGS84
Valparaíso|Marga Marga|Villa Alemana|2017-2018|FINAL CALLE LATORRE|2017-11-08|16:18|69.0|Sin alerta|IFIUr-Fo|Tránsito de personasvehículos o aeronaves|0.0|0.0|0.0|0.0|0.0|0.0|0.18|1.0|0.0|0.0|1.18|-33.0325|-71.3725|WGS84
Valparaíso|Marga Marga|Villa Alemana|2017-2018|FUNDO EL RINCON - 1|2017-11-08|17:25|46.0|Sin alerta|IFor-Vn|Tránsito de personasvehículos o aeronaves|0.0|0.0|0.0|0.0|0.0|0.0|0.0|0.09|0.0|0.0|0.09|-33.05638888888889|-71.33805555555556|WGS84
Valparaíso|Valparaíso|Concón|2017-2018|AV. MAGALLANES|2017-11-09|13:35|63.0|Sin alerta|IFIUr-Fo|Tránsito de personasvehículos o aeronaves|0.0|0.0|0.0|0.0|0.0|0.0|0.0|0.0|0.0|0.01|0.01|-32.94277777777778|-71.52277777777778|WGS84
Valparaíso|Marga Marga|Villa Alemana|2017-2018|FUNDO HERMANOS MARISTAS - 1|2017-11-09|14:50|141.0|Sin alerta|IFor-Vn|Tránsito de personasvehículos o aeronaves|0.0|0.0|0.0|0.0|0.0|0.0|0.12|0.43|0.0|0.0|0.55|-33.030833333333334|-71.3725|WGS84
Valparaíso|San Antonio|Cartagena|2017-2018|VISTA HERMOSA 1|2017-11-09|16:00|76.0|Sin alerta|IFIUr-Fo|Tránsito de personasvehículos o aeronaves|0.0|0.0|0.0|0.1|0.0|0.0|0.0|0.2|0.0|0.0|0.3|-33.558055555555555|-71.615|WGS84
Valparaíso|San Felipe de Aconcagua|Llay-Llay|2017-2018|FUNDO LA ESTRELLA|2017-11-09|19:09|1195.0|Sin alerta|IFIUr-Fo|Tránsito de personasvehículos o aeronaves|0.0|0.0|0.0|0.0|0.0|0.0|4.2|10.0|0.0|0.0|14.2|-32.88861111111111|-70.80444444444444|WGS84
Valparaíso|San Felipe de Aconcagua|San Felipe|2017-2018|ESTERO SECO EL ASIENTO|2017-11-10|10:40|100.0|Sin alerta|IFor-Vn|Tránsito de personasvehículos o aeronaves|0.0|0.0|0.0|0.0|0.0|0.0|0.02|0.04|0.0|0.0|0.06|-32.69222222222222|-70.76333333333334|WGS84
Valparaíso|Marga Marga|Villa Alemana|2017-2018|FUNDO EL RINCON - 2|2017-11-10|12:59|104.0|Sin alerta|IFor-Vn|Tránsito de personasvehículos o aeronaves|0.0|0.0|0.0|0.0|0.0|0.0|0.0|0.04|0.0|0.0|0.04|-33.065555555555555|-71.33722222222222|WGS84
Valparaíso|San Felipe de Aconcagua|Catemu|2017-2018|SECO ALTO|2017-11-10|15:00|281.0|Sin alerta|IFor-Vn|Tránsito de personasvehículos o aeronaves|0.0|0.0|0.0|0.0|0.0|0.0|0.1|0.3|0.0|0.0|0.4|-32.76555555555556|-70.97027777777778|WGS84
Valparaíso|Marga Marga|Limache|2017-2018|FUNDO LIMACHITO 1|2017-11-10|15:20|173.0|Sin alerta|IFIUr-Fo|Incendios intencionales|0.0|0.0|0.0|0.0|0.0|0.0|1.0|2.0|0.0|0.0|3.0|-33.00416666666667|-71.27472222222222|WGS84
Valparaíso|Quillota|Hijuelas|2017-2018|PUREGUE - EL ROMERAL|2017-11-10|15:36|32.0|Sin alerta|IFor-Vn|Tránsito de personasvehículos o aeronaves|0.0|0.0|0.0|0.0|0.0|0.0|0.0|0.02|0.0|0.0|0.02|-32.83083333333333|-71.08055555555555|WGS84
Valparaíso|Valparaíso|Valparaíso|2017-2018|TRANQUE LA LUZ|2017-11-10|17:11|134.0|Sin alerta|IFor-Vn|Tránsito de personasvehículos o aeronaves|0.0|0.0|0.03|0.0|0.0|0.0|0.05|0.1|0.0|0.0|0.18|-33.13194444444444|-71.5825|WGS84
Valparaíso|Valparaíso|Valparaíso|2017-2018|CURVA EL PARQUE - 1|2017-11-10|17:46|78.0|Sin alerta|IFIUr-Fo|Incendios intencionales|0.0|0.0|0.0|0.02|0.0|0.0|0.0|0.0|0.0|0.02|0.04|-33.10583333333334|-71.56111111111112|WGS84
Valparaíso|San Antonio|Cartagena|2017-2018|VISTA HERMOSA 2|2017-11-10|18:40|55.0|Sin alerta|IFIUr-Fo|Tránsito de personasvehículos o aeronaves|0.0|0.0|0.0|0.0|0.0|0.0|0.0|0.1|0.0|0.0|0.1|-33.55694444444445|-71.61555555555556|WGS84
Valparaíso|Marga Marga|Quilpué|2017-2018|POBLACION PILOTO PARDO|2017-11-11|12:43|95.0|Sin alerta|IFIUr-Fo|Actividades recreativas|0.0|0.0|0.0|0.0|0.0|0.0|0.1|0.2|0.0|0.0|0.3|-33.06388888888889|-71.41944444444445|WGS84
Valparaíso|San Felipe de Aconcagua|Putaendo|2017-2018|LAS COIMAS|2017-11-11|15:27|208.0|Sin alerta|IFor-Vn|Tránsito de personasvehículos o aeronaves|0.0|0.0|0.0|0.0|0.0|0.0|0.0|0.15|0.0|0.05|0.2|-32.68527777777778|-70.7325|WGS84
Valparaíso|Valparaíso|Valparaíso|2017-2018|FUNDO LAS TABLAS - 2|2017-11-11|15:45|128.0|Sin alerta|IFor-Vn|Tránsito de personasvehículos o aeronaves|0.0|0.0|0.0|0.0|0.0|0.0|0.0|0.25|0.0|0.11|0.36|-33.157222222222224|-71.55527777777777|WGS84
Valparaíso|Marga Marga|Villa Alemana|2017-2018|LOMAS DE BELLAVISTA 1|2017-11-11|15:55|125.0|Sin alerta|IFIUr-Fo|Tránsito de personasvehículos o aeronaves|0.0|0.0|0.0|0.0|0.0|0.0|0.6|0.5|0.0|0.0|1.1|-33.07111111111111|-71.3925|WGS84
Valparaíso|Marga Marga|Quilpué|2017-2018|FUNDO SANTA ANA|2017-11-11|15:57|58.0|Sin alerta|IFor-Vn|Tránsito de personasvehículos o aeronaves|0.0|0.0|0.0|0.0|0.0|0.0|0.0|0.05|0.0|0.0|0.05|-33.08138888888889|-71.37027777777777|WGS84
Valparaíso|San Antonio|Cartagena|2017-2018|VISTA HERMOSA 3|2017-11-11|18:24|59.0|Sin alerta|IFor-Vn|Tránsito de personasvehículos o aeronaves|0.0|0.0|0.0|0.0|0.0|0.0|0.0|0.5|0.0|0.0|0.5|-33.55888888888889|-71.6138888888889|WGS84
Valparaíso|San Antonio|Cartagena|2017-2018|VISTA HERMOSA 4|2017-11-12|12:35|150.0|Sin alerta|IFIUr-Fo|Incendios intencionales|0.0|0.0|0.0|0.2|0.0|0.0|0.0|0.4|0.0|0.0|0.6000000000000001|-33.55888888888889|-71.61805555555556|WGS84
Valparaíso|Quillota|Nogales|2017-2018|CERRO LA VIRGEN EL POLIGONO|2017-11-12|13:14|81.0|Sin alerta|IFor-Vn|Tránsito de personasvehículos o aeronaves|0.0|0.0|0.0|0.0|0.0|0.0|0.2|1.0|0.0|0.0|1.2|-32.736666666666665|-71.21138888888889|WGS84
Valparaíso|San Antonio|Cartagena|2017-2018|VISTA HERMOSA 5|2017-11-12|13:15|133.0|Sin alerta|IFIUr-Fo|Incendios intencionales|0.0|0.0|0.0|0.07|0.0|0.0|0.0|0.15|0.0|0.0|0.22|-33.55638888888889|-71.61861111111111|WGS84
Valparaíso|Los Andes|Calle Larga|2017-2018|POCURO|2017-11-12|17:03|88.0|Sin alerta|IFor-PI|Tránsito de personasvehículos o aeronaves|0.0|0.0|0.0|0.0|0.0|0.0|0.3|0.7|0.0|0.0|1.0|-32.87722222222222|-70.60777777777778|WGS84
Valparaíso|Marga Marga|Villa Alemana|2017-2018|VILLA SUECIA|2017-11-13|16:54|66.0|Sin alerta|IFor-Vn|Tránsito de personasvehículos o aeronaves|0.0|0.0|0.0|0.0|0.0|0.0|0.03|0.2|0.0|0.0|0.23|-33.01833333333333|-71.35972222222222|WGS84
Valparaíso|Petorca|La Ligua|2017-2018|EL LLANO DE PLACILLA|2017-11-13|19:27|121.0|Sin alerta|IFor-Vn|Tránsito de personasvehículos o aeronaves|0.0|0.0|0.0|0.0|0.0|0.0|0.2|1.3|0.0|0.0|1.5|-32.46083333333333|-71.25972222222222|WGS84
Valparaíso|Quillota|Quillota|2017-2018|CANCHA VIEJOS TERCIOS 2|2017-11-13|23:10|37.0|Sin alerta|IFIUr-Fo|Tránsito de personasvehículos o aeronaves|0.0|0.0|0.0|0.0|0.0|0.0|0.0|0.03|0.0|0.0|0.03|-32.8775|-71.26861111111111|WGS84
Valparaíso|Valparaíso|Viña del Mar|2017-2018|CENTRO CEREMONIAL MAPUCHE|2017-11-14|00:05|848.0|Sin alerta|IFIUr-Fo|Tránsito de personasvehículos o aeronaves|0.0|0.0|0.0|0.0|0.0|0.0|0.02|0.1|0.0|0.0|0.12|-33.040277777777774|-71.49722222222222|WGS84
Valparaíso|Valparaíso|Viña del Mar|2017-2018|VILLA RUKAN|2017-11-15|13:15|182.0|Sin alerta|IFor-Vn|Tránsito de personasvehículos o aeronaves|0.0|0.0|0.0|0.0|0.0|0.0|0.3|0.7|0.0|0.0|1.0|-33.01444444444444|-71.48611111111111|WGS84
Valparaíso|San Antonio|Santo Domingo|2017-2018|FUNDO LOS ANGELITOS|2017-11-15|13:55|231.0|Sin alerta|IFor-Vn|Tránsito de personasvehículos o aeronaves|0.0|0.0|0.0|0.5|0.0|0.0|0.5|1.0|0.0|0.0|2.0|-33.66|-71.59138888888889|WGS84
Valparaíso|San Antonio|Algarrobo|2017-2018|CAMINO EL PINAR|2017-11-15|14:29|246.0|Sin alerta|IFor-Vn|Tránsito de personasvehículos o aeronaves|0.5|0.0|0.0|0.0|0.0|0.0|0.15|0.2|0.0|0.0|0.8500000000000001|-33.394444444444446|-71.63583333333334|WGS84
Valparaíso|Marga Marga|Olmué|2017-2018|LO NARVAEZ - FUNDO OJOS BUENOS|2017-11-15|15:26|84.0|Sin alerta|IFor-Vn|Tránsito de personasvehículos o aeronaves|0.0|0.0|0.0|0.02|0.0|0.0|0.03|0.05|0.0|0.0|0.1|-33.01166666666666|-71.16722222222222|WGS84
Valparaíso|Marga Marga|Villa Alemana|2017-2018|MONTE CARMELO 1|2017-11-15|16:18|153.0|Sin alerta|IFor-Vn|Tránsito de personasvehículos o aeronaves|0.0|0.0|0.0|0.2|0.0|0.0|1.0|5.5|0.0|0.0|6.7|-33.02916666666667|-71.36416666666666|WGS84
Valparaíso|Quillota|Hijuelas|2017-2018|CANCHA SAN RAMÓN DE PUREHUE|2017-11-15|22:05|782.0|Sin alerta|IFIUr-Fo|Tránsito de personasvehículos o aeronaves|0.0|0.0|0.0|0.0|0.0|0.0|0.03|0.15|0.0|0.02|0.1999999999999999|-32.83027777777778|-71.08055555555555|WGS84
Valparaíso|Petorca|Cabildo|2017-2018|SECTOR ACHUPALLAS|2017-11-16|11:05|215.0|Sin alerta|IFor-Vn|Tránsito de personasvehículos o aeronaves|0.0|0.0|0.0|0.0|0.0|0.0|1.0|4.0|0.0|0.0|5.0|-32.30638888888889|-70.59694444444445|WGS84
Valparaíso|San Antonio|Algarrobo|2017-2018|NUEVO CAMINO COSTERO|2017-11-16|11:40|77.0|Sin alerta|IFIUr-Fo|Tránsito de personasvehículos o aeronaves|0.0|0.0|0.0|0.0|0.0|0.0|0.0|0.03|0.0|0.02|0.05|-33.39527777777778|-71.6361111111111|WGS84
Valparaíso|Quillota|Nogales|2017-2018|CERRO LA VIRGEN EL POLIGONO 2|2017-11-16|11:59|179.0|Sin alerta|IFor-Vn|Tránsito de personasvehículos o aeronaves|0.0|0.0|0.0|0.0|0.0|0.0|1.0|1.8|0.0|0.0|2.8|-32.736666666666665|-71.21055555555556|WGS84
Valparaíso|Marga Marga|Villa Alemana|2017-2018|FINAL CALLE VALENTIN LETELIER|2017-11-16|13:22|156.0|Sin alerta|IFor-Vn|Incendios intencionales|0.0|0.0|0.0|0.0|0.0|0.0|0.9|1.5|0.0|0.0|2.4|-33.03305555555556|-71.35722222222222|WGS84
Valparaíso|San Antonio|Algarrobo|2017-2018|EL PINAR|2017-11-16|13:40|76.0|Sin alerta|IFor-Vn|Tránsito de personasvehículos o aeronaves|0.0|0.0|0.0|0.0|0.0|0.0|0.08|0.0|0.0|0.02|0.1|-33.39472222222222|-71.63555555555556|WGS84
Valparaíso|Valparaíso|Viña del Mar|2017-2018|JARDIN BOTANICO - PORTON 4|2017-11-16|13:43|163.0|Sin alerta|IFor-Vn|Incendios intencionales|0.0|0.0|0.0|0.0|0.0|0.0|1.0|2.1|0.0|0.0|3.1|-33.0425|-71.49833333333333|WGS84
Valparaíso|Quillota|Quillota|2017-2018|EL BOCO 1|2017-11-16|14:18|127.0|Sin alerta|IFIUr-Fo|Tránsito de personasvehículos o aeronaves|0.0|0.0|0.0|0.0|0.0|0.0|0.01|0.04|0.0|0.0|0.05|-32.855|-71.2388888888889|WGS84
Valparaíso|Marga Marga|Villa Alemana|2017-2018|LAS AMERICAS 1|2017-11-16|16:32|99.0|Sin alerta|IFIUr-Fo|Tránsito de personasvehículos o aeronaves|0.0|0.0|0.0|0.0|0.0|0.0|0.1|1.0|0.0|0.0|1.1|-33.03055555555556|-71.39527777777778|WGS84
Valparaíso|San Antonio|Algarrobo|2017-2018|EL PINAR 2|2017-11-16|17:00|72.0|Sin alerta|IFor-Vn|Tránsito de personasvehículos o aeronaves|0.0|0.0|0.0|0.0|0.0|0.0|0.1|0.0|0.0|0.0|0.1|-33.39472222222222|-71.63583333333334|WGS84
Valparaíso|Marga Marga|Villa Alemana|2017-2018|FUNDO HERMANOS MARISTAS - 2|2017-11-16|18:00|72.0|Sin alerta|IFIUr-Fo|Tránsito de personasvehículos o aeronaves|0.0|0.0|0.0|0.0|0.0|0.0|0.0|0.75|0.0|0.0|0.75|-33.03388888888889|-71.3711111111111|WGS84
Valparaíso|Los Andes|Rinconada|2017-2018|CUESTA VIEJA CHACABUCO|2017-11-16|18:15|999.0|Sin alerta|IFor-Vn|Tránsito de personasvehículos o aeronaves|0.0|0.0|0.0|0.0|0.0|0.0|0.8|2.2|0.0|0.0|3.0|-33.07333333333333|-71.36694444444444|WGS84
Valparaíso|Valparaíso|Valparaíso|2017-2018|LA FORESTA PLACILLA|2017-11-17|00:15|765.0|Sin alerta|IFor-Vn|Tránsito de personasvehículos o aeronaves|0.0|0.03|0.0|0.0|0.0|0.0|0.0|0.0|0.0|0.0|0.03|-33.13|-71.57472222222222|WGS84
Valparaíso|Marga Marga|Villa Alemana|2017-2018|MONTE CARMELO 2|2017-11-17|13:55|123.0|Sin alerta|IFor-Vn|Tránsito de personasvehículos o aeronaves|0.0|0.0|0.0|0.0|0.0|0.0|0.8|0.5|0.0|0.0|1.3|-33.032222222222224|-71.36138888888888|WGS84
Valparaíso|Quillota|Quillota|2017-2018|LOS PARRONES PARADERO 8|2017-11-17|14:14|411.0|Alerta amarilla|IFor-Vn|Tránsito de personasvehículos o aeronaves|0.0|0.0|0.0|2.0|0.0|0.0|3.0|5.1|0.0|0.0|10.1|-32.858333333333334|-71.23944444444444|WGS84
Valparaíso|Quillota|Quillota|2017-2018|EL BOCO 2|2017-11-17|15:25|105.0|Sin alerta|IFor-Vn|Tránsito de personasvehículos o aeronaves|0.0|0.0|0.0|0.0|0.0|0.0|0.05|0.15|0.0|0.0|0.2|-32.859722222222224|-71.28944444444444|WGS84
Valparaíso|Valparaíso|Valparaíso|2017-2018|QUINTA COPTOM|2017-11-17|16:16|61.0|Sin alerta|IFor-Vn|Tránsito de personasvehículos o aeronaves|0.0|0.0|0.0|0.0|0.0|0.0|0.02|0.0|0.0|0.0|0.02|-33.10388888888889|-71.57777777777778|WGS84
Valparaíso|Valparaíso|Valparaíso|2017-2018|TRANQUE LA LUZ - FINAL EKONO|2017-11-17|17:03|101.0|Sin alerta|IFor-Vn|Tránsito de personasvehículos o aeronaves|0.06|0.0|0.0|0.0|0.0|0.0|0.0|0.01|0.0|0.01|0.0799999999999999|-33.12916666666667|-71.57527777777777|WGS84
Valparaíso|San Felipe de Aconcagua|Santa María|2017-2018|CERRO BARON|2017-11-18|11:01|303.0|Sin alerta|IFor-Vn|Tránsito de personasvehículos o aeronaves|0.0|0.0|0.0|0.0|0.0|0.0|1.0|1.72|0.0|0.0|2.72|-32.74333333333333|-70.68138888888889|WGS84
Valparaíso|Valparaíso|Viña del Mar|2017-2018|CANCHA EL MAITEN|2017-11-18|12:12|90.0|Sin alerta|IFIUr-Fo|Quema de desechos|0.0|0.0|0.0|0.0|0.0|0.0|0.03|0.02|0.0|0.0|0.05|-33.02472222222222|-71.51555555555555|WGS84
Valparaíso|Marga Marga|Villa Alemana|2017-2018|POBLACIÓN SAN JOSE - 1|2017-11-18|12:18|129.0|Sin alerta|IFIUr-Fo|Tránsito de personasvehículos o aeronaves|0.0|0.0|0.0|0.0|0.0|0.0|0.5|1.24|0.0|0.5|2.24|-33.06777777777778|-71.37166666666667|WGS84
Valparaíso|Marga Marga|Villa Alemana|2017-2018|FUNDO EL TRIANGULO 1|2017-11-18|15:27|109.0|Sin alerta|IFor-Vn|Tránsito de personasvehículos o aeronaves|0.0|0.0|0.0|0.0|0.0|0.0|1.2|2.6|0.0|0.0|3.8|-33.07194444444445|-71.36611111111111|WGS84
Valparaíso|Quillota|Quillota|2017-2018|EL BOCO 3|2017-11-18|16:04|74.0|Sin alerta|IFor-Vn|Tránsito de personasvehículos o aeronaves|0.0|0.0|0.0|0.0|0.0|0.0|0.0|0.1|0.0|2.9|3.0|-32.87833333333333|-71.26555555555555|WGS84
Valparaíso|San Antonio|Cartagena|2017-2018|PUERTO NUEVO|2017-11-18|17:56|93.0|Sin alerta|IFIUr-Fo|Tránsito de personasvehículos o aeronaves|0.0|0.0|0.0|0.12|0.0|0.0|0.0|0.08|0.0|0.0|0.2|-33.55861111111111|-71.61527777777778|WGS84
Valparaíso|Petorca|La Ligua|2017-2018|CHACARILLAS 1|2017-11-18|19:10|95.0|Sin alerta|IFIUr-Fo|Incendios intencionales|0.0|0.0|0.0|0.0|0.0|0.0|0.01|0.02|0.0|0.0|0.03|-32.45194444444444|-71.24444444444444|WGS84
Valparaíso|Marga Marga|Quilpué|2017-2018|SECTOR CALICHEROS|2017-11-19|11:08|536.0|Sin alerta|IFor-Vn|Tránsito de personasvehículos o aeronaves|0.0|0.0|0.0|0.0|0.0|0.0|0.0|0.4|0.0|0.3|0.7|-33.06138888888889|-71.45944444444444|WGS84
Valparaíso|Quillota|Quillota|2017-2018|LAS GARZAS|2017-11-19|11:08|243.0|Sin alerta|IFor-Vn|Incendios intencionales|0.0|0.0|0.0|0.0|0.0|0.0|0.7|3.0|0.0|0.0|3.7|-32.92805555555555|-71.30916666666667|WGS84
Valparaíso|Marga Marga|Limache|2017-2018|FUNDO LOS BORRIQUEROS - 1|2017-11-19|13:55|61.0|Sin alerta|IFor-Vn|Tránsito de personasvehículos o aeronaves|0.0|0.0|0.0|0.0|0.0|0.0|0.02|0.06|0.0|0.0|0.08|-33.02916666666667|-71.33277777777778|WGS84
Valparaíso|San Antonio|Cartagena|2017-2018|VISTA HERMOSA 6|2017-11-19|14:23|55.0|Sin alerta|IFor-Vn|Incendios intencionales|0.0|0.0|0.0|0.05|0.0|0.0|0.0|0.35|0.0|0.0|0.3999999999999999|-33.5575|-71.6175|WGS84
Valparaíso|Marga Marga|Quilpué|2017-2018|CERRO VIEJO - COLLIGUAY|2017-11-19|15:40|1425.0|Sin alerta|IFor-Vn|Faenas forestales|0.0|0.0|0.0|0.0|0.0|1.5|12.22|1.58|0.0|0.0|15.3|-33.20472222222222|-71.14222222222222|WGS84
Valparaíso|Marga Marga|Quilpué|2017-2018|FUNDO EL FRUTILLAR|2017-11-19|16:20|119.0|Sin alerta|IFIUr-Fo|Tránsito de personasvehículos o aeronaves|0.0|0.0|0.0|0.0|0.0|0.0|0.9|1.8|0.0|0.0|2.7|-33.022777777777776|-71.40555555555555|WGS84
Valparaíso|San Felipe de Aconcagua|Santa María|2017-2018|JAHUEL|2017-11-19|17:15|179.0|Sin alerta|IFor-Vn|Tránsito de personasvehículos o aeronaves|0.0|0.0|0.0|0.0|0.0|0.0|0.5|1.5|0.0|0.0|2.0|-32.73222222222222|-70.65055555555556|WGS84
Valparaíso|San Antonio|Cartagena|2017-2018|VERTEDERO CARTAGENA|2017-11-20|15:45|47.0|Sin alerta|IFor-Vn|Incendios intencionales|0.0|0.0|0.0|0.0|0.0|0.0|0.0|0.3|0.0|0.0|0.3|-33.56027777777778|-71.58972222222222|WGS84
Valparaíso|Marga Marga|Limache|2017-2018|PUENTE LO CHAPARRO|2017-11-20|16:10|71.0|Sin alerta|IFIUr-Fo|Tránsito de personasvehículos o aeronaves|0.0|0.0|0.0|0.0|0.0|0.0|0.0|0.42|0.0|0.0|0.42|-33.000277777777775|-71.24888888888889|WGS84
Valparaíso|Quillota|La Cruz|2017-2018|EX POZA CRISTALINA|2017-11-20|16:23|1407.0|Sin alerta|IFIUr-Fo|Incendios intencionales|0.0|0.0|0.0|0.0|0.0|0.0|0.0|2.5|0.0|0.0|2.5|-32.82083333333333|-71.24305555555556|WGS84
Valparaíso|Marga Marga|Villa Alemana|2017-2018|ESTADIO VILLA ALEMANA|2017-11-20|16:43|115.0|Sin alerta|IFIUr-Fo|Tránsito de personasvehículos o aeronaves|0.0|0.0|0.0|0.0|0.0|0.0|0.5|0.5|0.0|0.0|1.0|-33.03305555555556|-71.37416666666667|WGS84
Valparaíso|Marga Marga|Villa Alemana|2017-2018|FINAL LAS AMERICAS - 1|2017-11-20|17:52|70.0|Sin alerta|IFIUr-Fo|Tránsito de personasvehículos o aeronaves|0.0|0.0|0.0|0.0|0.0|0.0|0.0|0.6|0.0|0.0|0.6|-33.0325|-71.39777777777778|WGS84
Valparaíso|Marga Marga|Villa Alemana|2017-2018|COPA WILSON 1|2017-11-21|14:20|95.0|Sin alerta|IFor-Vn|Tránsito de personasvehículos o aeronaves|0.0|0.0|0.0|0.0|0.0|0.0|0.06|0.4|0.0|0.0|0.46|-33.03944444444444|-71.33694444444444|WGS84
Valparaíso|Marga Marga|Villa Alemana|2017-2018|COPA WILSON 2|2017-11-21|14:23|117.0|Sin alerta|IFor-Vn|Tránsito de personasvehículos o aeronaves|0.0|0.0|0.0|0.0|0.0|0.0|0.15|0.25|0.0|0.0|0.4|-33.03777777777778|-71.33583333333333|WGS84
Valparaíso|Marga Marga|Villa Alemana|2017-2018|COPA WILSON 3|2017-11-21|14:24|111.0|Sin alerta|IFor-Vn|Tránsito de personasvehículos o aeronaves|0.0|0.0|0.0|0.26|0.0|0.0|0.6|0.0|0.0|0.0|0.86|-33.04277777777778|-71.3375|WGS84
Valparaíso|San Antonio|Cartagena|2017-2018|VIÑA MARIN LO ZARATE|2017-11-21|14:32|228.0|Sin alerta|IFor-Vn|Tránsito de personasvehículos o aeronaves|0.0|0.0|0.0|0.5|0.0|0.3|0.7|0.3|0.0|0.0|1.8|-33.529444444444444|-71.5375|WGS84
Valparaíso|San Antonio|San Antonio|2017-2018|CUNCUMEN - FINAL EL ASILO|2017-11-21|15:30|169.0|Sin alerta|IFor-Vn|Accidentes eléctricos|0.0|0.0|0.0|0.0|0.0|0.0|1.0|1.5|0.0|0.0|2.5|-33.76972222222222|-71.41277777777778|WGS84
Valparaíso|Quillota|Quillota|2017-2018|CERRO MAYACA|2017-11-21|15:39|122.0|Sin alerta|IFIUr-Fo|Tránsito de personasvehículos o aeronaves|0.0|0.0|0.0|0.0|0.0|0.0|0.0|0.8|0.0|0.0|0.8|-32.870555555555555|-71.24722222222222|WGS84
Valparaíso|Marga Marga|Villa Alemana|2017-2018|LAS AMERICAS 2|2017-11-21|16:12|224.0|Sin alerta|IFor-Vn|Tránsito de personasvehículos o aeronaves|0.0|0.0|0.0|2.0|0.0|0.0|6.0|7.3|0.0|0.0|15.3|-33.02916666666667|-71.38888888888889|WGS84
Valparaíso|San Antonio|Cartagena|2017-2018|VISTA HERMOSA 7|2017-11-21|16:08|154.0|Sin alerta|IFIUr-Fo|Quema de desechos|0.0|0.0|0.0|0.37|0.0|0.0|0.0|0.5|0.0|0.0|0.87|-33.558055555555555|-71.61611111111111|WGS84
Valparaíso|Marga Marga|Villa Alemana|2017-2018|RUMIE|2017-11-21|16:19|251.0|Sin alerta|IFIUr-Fo|Incendios intencionales|0.0|0.0|0.0|0.0|0.0|0.0|0.07|0.2|0.0|0.0|0.27|-33.03472222222222|-71.38972222222222|WGS84
Valparaíso|San Antonio|Algarrobo|2017-2018|EL PINAR 3|2017-11-21|17:12|64.0|Sin alerta|IFIUr-Fo|Incendios intencionales|0.0|0.0|0.0|0.0|0.0|0.0|0.0|0.1|0.0|0.1|0.2|-33.395|-71.63555555555556|WGS84
Valparaíso|Valparaíso|Valparaíso|2017-2018|FINAL AV. ESPAÑA -1|2017-11-21|17:15|76.0|Sin alerta|IFIUr-Fo|Tránsito de personasvehículos o aeronaves|0.0|0.0|0.0|0.01|0.0|0.0|0.01|0.01|0.0|0.0|0.03|-33.11222222222222|-71.55638888888889|WGS84
Valparaíso|Valparaíso|Valparaíso|2017-2018|ENACO FINAL EKONO 1|2017-11-22|12:00|191.0|Sin alerta|IFor-Vn|Tránsito de personasvehículos o aeronaves|0.0|0.03|0.0|0.0|0.0|0.0|0.05|0.15|0.0|0.0|0.2299999999999999|-33.131388888888885|-71.57722222222222|WGS84
Valparaíso|Marga Marga|Olmué|2017-2018|POBLACION EL ESFUERZO - QUEBRADA ALVARADO|2017-11-22|14:15|265.0|Alerta roja|IFor-Vn|Accidentes eléctricos|0.0|0.0|0.0|0.0|0.0|0.1|1.2|1.7|0.0|0.0|3.0|-33.047777777777775|-71.09555555555555|WGS84
Valparaíso|Petorca|La Ligua|2017-2018|CHACARILLAS 2|2017-11-22|14:16|164.0|Sin alerta|IFIUr-Fo|Tránsito de personasvehículos o aeronaves|0.0|0.0|0.0|0.0|0.0|0.0|1.8|4.0|0.0|0.0|5.8|-32.44694444444445|-71.25083333333333|WGS84
Valparaíso|San Felipe de Aconcagua|Llay-Llay|2017-2018|CUESTA LAS CHILCAS|2017-11-22|14:42|196.0|Sin alerta|IFor-Vn|Tránsito de personasvehículos o aeronaves|0.0|0.0|0.0|0.0|0.0|0.0|5.5|35.6|0.0|0.0|41.1|-32.87277777777778|-70.83944444444444|WGS84
Valparaíso|Quillota|La Cruz|2017-2018|COMPLEJO LA VICTORIA|2017-11-22|14:43|139.0|Sin alerta|IFor-Vn|Tránsito de personasvehículos o aeronaves|0.0|0.0|0.0|0.0|0.0|0.0|0.0|0.02|0.0|0.0|0.02|-32.820277777777775|-71.2425|WGS84
Valparaíso|Marga Marga|Quilpué|2017-2018|FUNDO EL PEQUEN|2017-11-22|16:03|255.0|Sin alerta|IFor-Vn|Incendios intencionales|0.0|0.0|0.0|0.0|0.0|0.3|0.8|1.0|0.0|0.0|2.1|-33.12305555555555|-71.38833333333334|WGS84
Valparaíso|Marga Marga|Villa Alemana|2017-2018|LOS EUCALIPTUS - 1|2017-11-22|16:08|101.0|Sin alerta|IFIUr-Fo|Tránsito de personasvehículos o aeronaves|0.0|0.0|0.0|0.0|0.0|0.0|0.4|0.6|0.0|0.0|1.0|-33.06861111111111|-71.36305555555556|WGS84
Valparaíso|Marga Marga|Quilpué|2017-2018|TRANQUE RECREO|2017-11-22|16:19|97.0|Sin alerta|IFIUr-Fo|Tránsito de personasvehículos o aeronaves|0.0|0.0|0.0|0.0|0.0|0.0|0.2|0.5|0.0|0.0|0.7|-33.08361111111111|-71.38083333333333|WGS84
Valparaíso|Marga Marga|Villa Alemana|2017-2018|LOS ARRAYANES 1|2017-11-22|16:20|139.0|Sin alerta|IFIUr-Fo|Tránsito de personasvehículos o aeronaves|0.0|0.0|0.0|0.0|0.0|0.0|1.1|1.2|0.0|0.0|2.3|-33.06666666666667|-71.34861111111111|WGS84
Valparaíso|Valparaíso|Valparaíso|2017-2018|FUNDO EL LLANO 1|2017-11-22|16:45|238.0|Sin alerta|IFIUr-Fo|Tránsito de personasvehículos o aeronaves|0.0|0.0|0.3|0.0|0.0|0.0|0.2|0.2|0.0|0.0|0.7|-33.12305555555555|-71.59138888888889|WGS84
Valparaíso|San Antonio|Cartagena|2017-2018|VARIANTE SAN SEBASTIAN|2017-11-22|17:20|32.0|Sin alerta|IFor-Vn|Tránsito de personasvehículos o aeronaves|0.0|0.0|0.0|0.0|0.0|0.0|0.0|0.01|0.0|0.0|0.01|-33.53722222222222|-71.5775|WGS84
Valparaíso|Marga Marga|Villa Alemana|2017-2018|FUNDO LO CABRERA BERLIN|2017-11-22|17:43|141.0|Sin alerta|IFor-Vn|Tránsito de personasvehículos o aeronaves|0.0|0.0|0.0|0.0|0.0|0.0|2.0|3.4|0.0|0.0|5.4|-33.01916666666666|-71.39611111111111|WGS84
Valparaíso|San Antonio|San Antonio|2017-2018|CAMINO ÑANCO|2017-11-23|11:30|107.0|Sin alerta|IFor-Vn|Tránsito de personasvehículos o aeronaves|0.0|0.0|0.0|0.0|0.0|0.0|0.0|1.0|0.0|0.0|1.0|-33.63916666666667|-71.51833333333333|WGS84
Valparaíso|Marga Marga|Limache|2017-2018|AV. EASTMAN - PARADERO 4|2017-11-23|12:38|82.0|Sin alerta|IFIUr-Fo|Faenas forestales|0.0|0.0|0.0|0.0|0.0|0.0|0.0|0.42|0.0|0.0|0.42|-32.9925|-71.24583333333334|WGS84
Valparaíso|Valparaíso|Valparaíso|2017-2018|PLACILLA - FINAL CALLE OHIGGINS - 1|2017-11-23|15:02|153.0|Sin alerta|IFor-Vn|Tránsito de personasvehículos o aeronaves|0.0|0.0|0.0|0.0|0.0|0.0|0.1|0.2|0.0|0.0|0.3|-33.1225|-71.54833333333333|WGS84
Valparaíso|Quillota|Nogales|2017-2018|CEMENTERIO PARQUE|2017-11-23|15:28|200.0|Sin alerta|IFor-Vn|Quema de desechos|0.0|0.0|0.0|0.0|0.0|0.0|1.25|4.0|0.0|0.0|5.25|-32.7475|-71.20055555555555|WGS84
Valparaíso|Marga Marga|Villa Alemana|2017-2018|FINAL LAS AMERICAS - 2|2017-11-23|15:51|107.0|Sin alerta|IFIUr-Fo|Incendios intencionales|0.0|0.0|0.0|0.0|0.0|0.0|0.2|0.6|0.0|0.0|0.8|-33.03305555555556|-71.3963888888889|WGS84
Valparaíso|Marga Marga|Villa Alemana|2017-2018|CALLE LONGITUDINAL|2017-11-23|15:52|111.0|Sin alerta|IFIUr-Fo|Incendios intencionales|0.0|0.0|0.0|0.0|0.0|0.0|0.72|1.66|0.0|0.0|2.38|-33.0325|-71.38916666666667|WGS84
Valparaíso|Marga Marga|Villa Alemana|2017-2018|FUNDO EL RINCON - 3|2017-11-23|18:21|49.0|Sin alerta|IFor-Vn|Tránsito de personasvehículos o aeronaves|0.0|0.0|0.0|0.0|0.0|0.0|0.07|0.1|0.0|0.0|0.17|-33.065|-71.32805555555555|WGS84
Valparaíso|Marga Marga|Villa Alemana|2017-2018|HUANHUALÍ|2017-11-24|15:45|44.0|Sin alerta|IFIUr-Fo|Tránsito de personasvehículos o aeronaves|0.0|0.0|0.0|0.0|0.0|0.0|0.02|0.05|0.0|0.0|0.07|-33.06722222222222|-71.38694444444444|WGS84
Valparaíso|San Antonio|Cartagena|2017-2018|ALTOS DE CARTAGENA|2017-11-24|15:58|64.0|Sin alerta|IFIUr-Fo|Tránsito de personasvehículos o aeronaves|0.0|0.0|0.0|0.0|0.0|0.0|0.0|0.2|0.0|0.0|0.2|-33.54416666666667|-71.56472222222222|WGS84
Valparaíso|Marga Marga|Villa Alemana|2017-2018|CUESTA EL CARMEN|2017-11-24|16:01|146.0|Sin alerta|IFIUr-Fo|Tránsito de personasvehículos o aeronaves|0.0|0.0|0.0|0.0|0.0|0.0|0.7|1.5|0.0|0.0|2.2|-33.047777777777775|-71.33|WGS84
Valparaíso|Marga Marga|Villa Alemana|2017-2018|LOMAS DE BELLAVISTA 2|2017-11-24|16:23|70.0|Sin alerta|IFIUr-Fo|Tránsito de personasvehículos o aeronaves|0.0|0.0|0.0|0.0|0.0|0.0|0.1|1.0|0.0|0.0|1.1|-33.06861111111111|-71.38388888888889|WGS84
Valparaíso|Marga Marga|Quilpué|2017-2018|EX BASURAL BELLOTO NORTE|2017-11-25|11:10|323.0|Sin alerta|IFor-Vn|Tránsito de personasvehículos o aeronaves|0.0|0.0|0.0|0.0|0.0|0.0|0.3|0.7|0.0|0.0|1.0|-33.02333333333333|-71.40166666666667|WGS84
Valparaíso|San Antonio|Cartagena|2017-2018|CEMENTERIO PARROQUIAL|2017-11-25|13:45|108.0|Sin alerta|IFor-Vn|Tránsito de personasvehículos o aeronaves|0.0|0.0|0.0|0.0|0.0|0.0|0.0|2.0|0.0|0.0|2.0|-33.531666666666666|-71.5663888888889|WGS84
Valparaíso|Valparaíso|Casablanca|2017-2018|FUNDO PITAMA|2017-11-25|14:13|87.0|Sin alerta|IFor-Vn|Tránsito de personasvehículos o aeronaves|0.0|0.0|0.0|0.0|0.0|0.0|0.01|0.0|0.0|0.02|0.03|-33.248333333333335|-71.49055555555556|WGS84
Valparaíso|Marga Marga|Villa Alemana|2017-2018|CUESTA EL PANGAL|2017-11-25|14:55|219.0|Sin alerta|IFor-Vn|Tránsito de personasvehículos o aeronaves|0.0|0.0|0.0|0.0|0.0|0.0|1.0|3.0|0.0|0.0|4.0|-33.035833333333336|-71.29055555555556|WGS84
Valparaíso|Valparaíso|Valparaíso|2017-2018|ALTO EL PUERTO  PUERTA 4|2017-11-25|16:36|101.0|Sin alerta|IFor-Vn|Tránsito de personasvehículos o aeronaves|0.0|0.0|0.0|0.0|0.0|0.0|0.0|0.02|0.0|0.0|0.02|-33.096944444444446|-71.57138888888889|WGS84
Valparaíso|Valparaíso|Valparaíso|2017-2018|FUNDO LAS TABLAS - 3|2017-11-25|17:08|109.0|Sin alerta|IFor-Vn|Tránsito de personasvehículos o aeronaves|0.0|0.0|0.0|0.2|0.0|0.0|0.0|0.05|0.0|0.0|0.25|-33.15694444444444|-71.55472222222222|WGS84
Valparaíso|San Felipe de Aconcagua|Catemu|2017-2018|CHAGRES|2017-11-27|13:10|395.0|Sin alerta|IFIUr-Fo|Quema de desechos|0.0|0.0|0.0|1.15|0.0|0.0|2.0|2.0|0.0|0.0|5.15|-32.79805555555556|-70.95|WGS84
Valparaíso|Marga Marga|Villa Alemana|2017-2018|COPA WILSON 4|2017-11-27|15:58|170.0|Sin alerta|IFor-Vn|Tránsito de personasvehículos o aeronaves|0.0|0.0|0.0|0.0|0.0|0.0|1.5|2.8|0.0|0.0|4.3|-33.041111111111114|-71.33416666666666|WGS84
Valparaíso|Valparaíso|Valparaíso|2017-2018|FUNDO LA MERCED - 2|2017-11-27|16:41|66.0|Sin alerta|IFIUr-Fo|Tránsito de personasvehículos o aeronaves|0.0|0.0|0.0|0.0|0.0|0.0|0.0|0.02|0.0|0.0|0.02|-33.11194444444445|-71.55611111111111|WGS84
Valparaíso|San Antonio|Cartagena|2017-2018|CAMINO VIEJO CARTAGENA|2017-11-29|14:02|89.0|Sin alerta|IFor-Vn|Tránsito de personasvehículos o aeronaves|0.0|0.0|0.0|0.0|0.0|0.0|0.0|0.1|0.0|0.0|0.1|-33.56194444444444|-71.59416666666667|WGS84
Valparaíso|Marga Marga|Limache|2017-2018|EMBALSE LOS AROMOS|2017-11-29|14:50|287.0|Sin alerta|IFor-Vn|Tránsito de personasvehículos o aeronaves|0.0|0.0|0.0|0.0|0.0|0.0|1.4|20.0|0.0|0.0|21.4|-32.95805555555555|-71.37333333333333|WGS84
Valparaíso|Marga Marga|Villa Alemana|2017-2018|CERRO LA VIRGEN 2|2017-11-29|16:53|97.0|Sin alerta|IFIUr-Fo|Incendios intencionales|0.0|0.0|0.0|0.02|0.0|0.0|0.05|0.15|0.0|0.0|0.22|-33.03527777777778|-71.36027777777778|WGS84
Valparaíso|Marga Marga|Villa Alemana|2017-2018|CERRO LA VIRGEN 3|2017-11-29|16:55|103.0|Sin alerta|IFor-Vn|Incendios intencionales|0.0|0.0|0.0|0.0|0.0|0.0|0.04|0.06|0.0|0.0|0.1|-33.034444444444446|-71.36055555555555|WGS84
Valparaíso|Marga Marga|Villa Alemana|2017-2018|CEMENTERIO VILLA ALEMANA|2017-11-29|16:58|119.0|Sin alerta|IFIUr-Fo|Tránsito de personasvehículos o aeronaves|0.0|0.0|0.0|0.03|0.0|0.0|0.07|0.1|0.0|0.0|0.2|-33.07361111111111|-71.3711111111111|WGS84
Valparaíso|Isla de Pascua|Isla de Pascua|2017-2018|JUAN HEI|2017-11-29|22:30|570.0|Sin alerta|IFIns|Tránsito de personasvehículos o aeronaves|0.0|0.0|0.0|0.0|0.0|0.0|2.0|18.0|0.0|0.0|20.0|-27.147777777777776|-109.3777777777778|WGS84
Valparaíso|Quillota|Quillota|2017-2018|CERRO MAYACA 2|2017-11-29|23:50|45.0|Sin alerta|IFIUr-Fo|Tránsito de personasvehículos o aeronaves|0.0|0.0|0.0|0.0|0.0|0.0|0.02|0.02|0.0|0.0|0.04|-32.87|-71.26833333333333|WGS84
Valparaíso|San Antonio|Cartagena|2017-2018|PEAJE LAGUNILLAS|2017-11-30|13:20|66.0|Sin alerta|IFIUr-Fo|Tránsito de personasvehículos o aeronaves|0.0|0.0|0.0|0.0|0.0|0.0|0.2|0.3|0.0|0.0|0.5|-33.48638888888889|-71.48333333333333|WGS84
Valparaíso|Marga Marga|Quilpué|2017-2018|LOS MOLLES|2017-11-30|13:58|263.0|Alerta roja|IFor-Vn|Tránsito de personasvehículos o aeronaves|0.0|0.0|0.0|0.0|0.0|0.7|3.0|1.3|0.0|0.0|5.0|-33.11361111111111|-71.36472222222223|WGS84
Valparaíso|Marga Marga|Limache|2017-2018|HACIENDA LIMACHE|2017-11-30|14:10|340.0|Alerta amarilla|IFor-Vn|Incendios intencionales|0.0|0.0|0.0|0.0|0.0|0.0|2.7|18.0|0.0|0.0|20.7|-32.98638888888889|-71.31888888888889|WGS84
Valparaíso|Marga Marga|Villa Alemana|2017-2018|FINAL CALLE ARANDA|2017-11-30|14:12|185.0|Sin alerta|IFor-Vn|Incendios intencionales|0.0|0.0|0.0|0.0|0.0|0.0|1.3|2.0|0.0|0.0|3.3|-33.034444444444446|-71.38277777777778|WGS84
Valparaíso|Marga Marga|Villa Alemana|2017-2018|LOS ARRAYANES 2|2017-11-30|16:59|147.0|Sin alerta|IFIUr-Fo|Tránsito de personasvehículos o aeronaves|0.0|0.0|0.0|0.0|0.0|0.0|0.9|9.0|0.0|0.0|9.9|-33.059444444444445|-71.34027777777777|WGS84
Valparaíso|Marga Marga|Villa Alemana|2017-2018|CERRO LA VIRGEN|2017-12-01|14:34|61.0|Sin alerta|IFIUr-Fo|Tránsito de personasvehículos o aeronaves|0.0|0.0|0.0|0.0|0.0|0.0|0.0|0.22|0.0|0.0|0.22|-33.035833333333336|-71.35666666666667|WGS84
Valparaíso|Quillota|Quillota|2017-2018|LOS PARRONES|2017-12-03|12:43|184.0|Sin alerta|IFor-Vn|Tránsito de personasvehículos o aeronaves|0.0|0.0|0.0|0.0|0.0|0.0|1.0|1.1|0.0|0.0|2.1|-32.864444444444445|-71.24388888888889|WGS84
Valparaíso|Valparaíso|Valparaíso|2017-2018|FUNDO LAS CENIZAS - PUERTA 1 - 2|2017-12-03|15:33|63.0|Sin alerta|IFIUr-Fo|Tránsito de personasvehículos o aeronaves|0.0|0.0|0.0|0.0|0.0|0.0|0.0|0.01|0.0|0.0|0.01|-33.11083333333333|-71.55805555555555|WGS84
Valparaíso|Marga Marga|Quilpué|2017-2018|ALTO EL YUGO|2017-12-03|16:11|116.0|Sin alerta|IFIUr-Fo|Incendios intencionales|0.0|0.0|0.0|1.55|0.0|0.0|1.3|1.25|0.0|0.0|4.1|-33.07111111111111|-71.39333333333333|WGS84
Valparaíso|Marga Marga|Villa Alemana|2017-2018|EL ROCIO - 1|2017-12-03|16:12|115.0|Sin alerta|IFor-Vn|Tránsito de personasvehículos o aeronaves|0.0|0.0|0.0|0.0|0.0|0.0|0.15|0.1|0.0|0.0|0.25|-33.071666666666665|-71.39055555555555|WGS84
Valparaíso|Valparaíso|Valparaíso|2017-2018|FINAL AV. ESPAÑA - 2|2017-12-03|16:32|58.0|Sin alerta|IFIUr-Fo|Tránsito de personasvehículos o aeronaves|0.0|0.0|0.0|0.0|0.0|0.0|0.01|0.02|0.0|0.0|0.03|-33.11222222222222|-71.55916666666667|WGS84
Valparaíso|Marga Marga|Villa Alemana|2017-2018|FINAL CALLE HIPODROMO|2017-12-04|13:20|37.0|Sin alerta|IFIUr-Fo|Tránsito de personasvehículos o aeronaves|0.0|0.0|0.0|0.0|0.0|0.0|0.0|0.2|0.0|0.0|0.2|-33.05166666666667|-71.3561111111111|WGS84
Valparaíso|Marga Marga|Quilpué|2017-2018|PARCELA BOSQUES DE LA VIRGEN|2017-12-04|13:45|163.0|Sin alerta|IFor-Vn|Tránsito de personasvehículos o aeronaves|0.0|0.0|0.0|0.0|0.0|0.0|1.1|2.0|0.0|0.0|3.1|-33.09527777777778|-71.37305555555555|WGS84
Valparaíso|Marga Marga|Villa Alemana|2017-2018|FUNDO EL TRIANGULO 2|2017-12-04|15:30|248.0|Sin alerta|IFor-Vn|Incendios intencionales|0.0|0.0|0.0|0.0|0.0|0.0|2.0|3.3|0.0|0.0|5.3|-33.07527777777778|-71.36472222222223|WGS84
Valparaíso|Marga Marga|Quilpué|2017-2018|SECTOR CALICHEROS 2|2017-12-04|23:15|61.0|Sin alerta|IFIUr-Fo|Tránsito de personasvehículos o aeronaves|0.0|0.0|0.0|0.0|0.0|0.0|0.0|0.01|0.0|0.0|0.01|-33.06333333333333|-71.44722222222222|WGS84
Valparaíso|Marga Marga|Villa Alemana|2017-2018|EL ROCIO - 2|2017-12-05|18:35|85.0|Sin alerta|IFIUr-Fo|Incendios intencionales|0.0|0.0|0.0|0.0|0.0|0.0|0.6|2.0|0.0|0.0|2.6|-33.06722222222222|-71.39527777777778|WGS84
Valparaíso|Marga Marga|Villa Alemana|2017-2018|POBLACION SAN JOSE - 2|2017-12-05|19:17|48.0|Sin alerta|IFor-Vn|Tránsito de personasvehículos o aeronaves|0.0|0.0|0.0|0.0|0.0|0.0|0.0|0.19|0.0|0.0|0.19|-33.0675|-71.37583333333333|WGS84
Valparaíso|Valparaíso|Valparaíso|2017-2018|CAMINO COSTERO 5T0 SECTOR PLAYA ANCHA|2017-12-06|12:00|171.0|Sin alerta|IFor-Vn|Tránsito de personasvehículos o aeronaves|0.0|0.0|0.0|0.0|0.0|0.0|0.0|0.22|0.0|0.0|0.22|-33.05972222222222|-71.65333333333334|WGS84
Valparaíso|Quillota|Nogales|2017-2018|CERRO LA VIRGEN EL POLIGONO 3|2017-12-06|14:06|193.0|Sin alerta|IFIUr-Fo|Tránsito de personasvehículos o aeronaves|0.0|0.0|0.0|0.0|0.0|0.0|1.0|3.8|0.0|0.0|4.8|-32.73722222222222|-71.21277777777777|WGS84
Valparaíso|Marga Marga|Villa Alemana|2017-2018|FINAL CALLE PROGRESO|2017-12-06|14:29|292.0|Sin alerta|IFor-Vn|Tránsito de personasvehículos o aeronaves|0.0|0.0|0.0|0.0|0.0|0.7|1.6|1.3|0.0|0.0|3.6|-33.02583333333333|-71.3725|WGS84
Valparaíso|Marga Marga|Limache|2017-2018|LO CHAPARRO|2017-12-06|16:20|118.0|Sin alerta|IFIUr-Fo|Tránsito de personasvehículos o aeronaves|0.0|0.0|0.0|0.0|0.0|0.0|0.0|1.86|0.0|0.0|1.86|-33.01833333333333|-71.25777777777778|WGS84
Valparaíso|Los Andes|Calle Larga|2017-2018|CERRO PATAGUAL - POCURO|2017-12-06|20:01|1194.0|Sin alerta|IFor-Vn|Tránsito de personasvehículos o aeronaves|0.0|0.0|0.0|0.0|0.0|0.0|1.0|1.5|0.0|0.0|2.5|-32.865|-70.61611111111111|WGS84
Valparaíso|Marga Marga|Quilpué|2017-2018|SECTOR CALICHEROS 3|2017-12-06|23:58|258.0|Sin alerta|IFIUr-Fo|Tránsito de personasvehículos o aeronaves|0.0|0.0|0.0|0.0|0.0|0.01|0.01|0.02|0.0|0.0|0.04|-33.06388888888889|-71.44583333333334|WGS84
Valparaíso|Marga Marga|Villa Alemana|2017-2018|FUNDO EL RINCON - 4|2017-12-07|15:37|158.0|Sin alerta|IFor-Vn|Incendios intencionales|0.0|0.0|0.0|0.0|0.0|0.0|0.4|1.6|0.0|0.0|2.0|-33.05305555555555|-71.33194444444445|WGS84
Valparaíso|Marga Marga|Villa Alemana|2017-2018|CAJON DEL LEBU 1|2017-12-07|16:14|130.0|Sin alerta|IFor-Vn|Tránsito de personasvehículos o aeronaves|0.0|0.0|0.0|0.0|0.0|0.0|0.13|0.5|0.0|0.0|0.63|-33.03138888888889|-71.35055555555556|WGS84
Valparaíso|Valparaíso|Casablanca|2017-2018|VALLE HERMOSO|2017-12-07|17:35|45.0|Sin alerta|IFor-Vn|Accidentes eléctricos|0.0|0.0|0.0|0.0|0.0|0.0|0.0|1.8|0.0|0.0|1.8|-33.41638888888889|-71.50138888888888|WGS84
Valparaíso|Marga Marga|Villa Alemana|2017-2018|CALLE LONGITUDINAL 2|2017-12-07|18:23|70.0|Sin alerta|IFor-Vn|Tránsito de personasvehículos o aeronaves|0.0|0.0|0.0|0.0|0.0|0.0|0.08|0.12|0.0|0.0|0.2|-33.031666666666666|-71.39|WGS84
Valparaíso|Marga Marga|Quilpué|2017-2018|SECTOR CALICHEROS 4|2017-12-08|11:40|310.0|Sin alerta|IFor-Vn|Tránsito de personasvehículos o aeronaves|0.0|0.0|0.0|0.0|0.0|0.0|0.5|1.0|0.0|0.5|2.0|-33.062777777777775|-71.45944444444444|WGS84
Valparaíso|Marga Marga|Olmué|2017-2018|PELUMPEN PARCELA ALENPARTE|2017-12-08|12:54|126.0|Sin alerta|IFor-Vn|Tránsito de personasvehículos o aeronaves|0.0|0.0|0.0|0.4|0.0|0.0|0.2|0.8|0.0|0.0|1.4|-33.01222222222222|-71.18388888888889|WGS84
Valparaíso|Valparaíso|Viña del Mar|2017-2018|REÑACA ALTO - PARADERO 16|2017-12-08|14:23|315.0|Sin alerta|IFor-Vn|Tránsito de personasvehículos o aeronaves|0.0|0.0|0.0|0.0|0.0|1.6|1.4|4.0|0.0|0.0|7.0|-33.00388888888889|-71.4713888888889|WGS84
Valparaíso|Marga Marga|Villa Alemana|2017-2018|MONTE CARMELO 3|2017-12-08|16:49|103.0|Sin alerta|IFor-Vn|Tránsito de personasvehículos o aeronaves|0.0|0.0|0.0|0.2|0.0|0.0|0.2|0.4|0.0|0.0|0.8|-33.03194444444444|-71.36027777777778|WGS84
Valparaíso|Quillota|Nogales|2017-2018|TRANQUE EL MELON|2017-12-09|13:03|204.0|Sin alerta|IFor-Vn|Tránsito de personasvehículos o aeronaves|0.0|0.0|0.0|0.0|0.0|0.0|1.0|2.0|0.0|0.0|3.0|-32.71472222222222|-71.1875|WGS84
Valparaíso|Valparaíso|Valparaíso|2017-2018|FUNDO LAS CENIZAS - PUERTA 1 - 3|2017-12-09|13:24|65.0|Sin alerta|IFor-Vn|Tránsito de personasvehículos o aeronaves|0.0|0.0|0.0|0.03|0.0|0.0|0.0|0.0|0.0|0.0|0.03|-33.11083333333333|-71.5575|WGS84
Valparaíso|San Antonio|San Antonio|2017-2018|FUNDO MIRAMAR - 1|2017-12-09|13:45|50.0|Sin alerta|IFIUr-Fo|Incendios intencionales|0.0|0.0|0.0|0.04|0.0|0.0|0.0|0.0|0.0|0.0|0.04|-33.59|-71.5886111111111|WGS84
Valparaíso|Valparaíso|Viña del Mar|2017-2018|EL OLIVAR|2017-12-09|14:45|107.0|Sin alerta|IFIUr-Fo|Actividades recreativas|0.0|0.0|0.0|0.0|0.0|0.0|0.03|0.1|0.0|0.0|0.13|-33.026944444444446|-71.49444444444444|WGS84
Valparaíso|Marga Marga|Villa Alemana|2017-2018|CANCHA BAQUEDANO|2017-12-09|14:46|77.0|Sin alerta|IFIUr-Fo|Incendios intencionales|0.0|0.0|0.0|0.0|0.0|0.0|0.08|0.1|0.0|0.0|0.18|-33.04|-71.34472222222222|WGS84
Valparaíso|Marga Marga|Villa Alemana|2017-2018|BRAVO TORRE|2017-12-09|15:10|165.0|Sin alerta|IFor-Vn|Incendios intencionales|0.0|0.0|0.0|0.0|0.0|0.0|0.8|1.2|0.0|0.0|2.0|-33.04277777777778|-71.33305555555556|WGS84
Valparaíso|Marga Marga|Quilpué|2017-2018|FUNDO LOS LUNES|2017-12-09|15:25|284.0|Sin alerta|IFIUr-Fo|Tránsito de personasvehículos o aeronaves|0.0|0.0|0.0|0.0|0.0|0.0|1.0|1.8|0.0|0.0|2.8|-33.04666666666667|-71.47833333333334|WGS84
Valparaíso|Marga Marga|Quilpué|2017-2018|FUNDO EL CARMEN - 1|2017-12-09|15:35|209.0|Sin alerta|IFor-Vn|Incendios intencionales|0.0|0.0|0.0|0.0|0.0|0.3|0.6|0.6|0.0|0.0|1.5|-33.04138888888889|-71.45555555555555|WGS84
Valparaíso|Valparaíso|Valparaíso|2017-2018|FUNDO LAS CENIZAS - PUERTA 1 - 4|2017-12-09|18:34|101.0|Sin alerta|IFor-Vn|Tránsito de personasvehículos o aeronaves|0.0|0.0|0.0|0.02|0.0|0.0|0.06|0.09|0.0|0.0|0.1699999999999999|-33.11138888888889|-71.55722222222222|WGS84
Valparaíso|Marga Marga|Villa Alemana|2017-2018|FINAL CALLE LATORRE 2|2017-12-09|18:45|95.0|Sin alerta|IFIUr-Fo|Incendios intencionales|0.0|0.0|0.0|0.0|0.0|0.0|0.4|1.6|0.0|0.0|2.0|-33.02777777777778|-71.36694444444444|WGS84
Valparaíso|Valparaíso|Casablanca|2017-2018|LOS MAITENES|2017-12-09|18:46|1213.0|Sin alerta|IFor-Vn|Tránsito de personasvehículos o aeronaves|0.0|0.0|0.0|0.0|0.0|0.0|1.2|5.0|0.0|0.0|6.2|-33.416111111111114|-71.40722222222222|WGS84
Valparaíso|Petorca|La Ligua|2017-2018|EL RAYADO|2017-12-09|19:53|70.0|Sin alerta|IFIUr-Fo|Tránsito de personasvehículos o aeronaves|0.0|0.0|0.0|0.0|0.0|0.0|0.8|1.2|0.0|0.0|2.0|-32.45166666666667|-71.24694444444444|WGS84
Valparaíso|Valparaíso|Valparaíso|2017-2018|TRANQUE EL PERAL|2017-12-10|04:08|35.0|Sin alerta|IFIUr-Fo|Tránsito de personasvehículos o aeronaves|0.0|0.0|0.0|0.02|0.0|0.0|0.0|0.02|0.0|0.0|0.04|-33.12222222222222|-71.54277777777777|WGS84
Valparaíso|Valparaíso|Valparaíso|2017-2018|CALLE O`HIGGINS ALT. FRIGORIFICO|2017-12-10|09:58|129.0|Sin alerta|IFIUr-Fo|Tránsito de personasvehículos o aeronaves|0.0|0.0|0.0|0.0|0.0|0.0|0.0|0.1|0.0|0.05|0.15|-33.12083333333333|-71.55055555555556|WGS84
Valparaíso|Marga Marga|Quilpué|2017-2018|FUNDO EL CARMEN - 2|2017-12-10|14:03|232.0|Sin alerta|IFor-Vn|Tránsito de personasvehículos o aeronaves|0.0|0.0|0.0|0.0|0.0|1.8|2.0|3.0|0.0|0.0|6.8|-33.03722222222222|-71.45555555555555|WGS84
Valparaíso|Marga Marga|Limache|2017-2018|FUNDO LOS BORRIQUEROS - 2|2017-12-10|15:10|200.0|Sin alerta|IFor-Vn|Incendios intencionales|0.0|0.0|0.0|0.0|0.0|0.0|5.3|6.1|0.0|0.0|11.4|-33.02333333333333|-71.32805555555555|WGS84
Valparaíso|San Antonio|Cartagena|2017-2018|CEMENTERIO SAN SEBASTIAN|2017-12-10|16:15|162.0|Sin alerta|IFor-Vn|Incendios intencionales|0.0|0.0|0.0|0.0|0.0|0.0|0.0|7.8|0.0|0.0|7.8|-33.53333333333333|-71.5675|WGS84
Valparaíso|Valparaíso|Casablanca|2017-2018|ESTANCIA EL CUADRO|2017-12-10|17:25|78.0|Sin alerta|IFor-Vn|Accidentes eléctricos|0.0|0.0|0.0|0.0|0.0|0.0|0.01|0.09|0.0|0.0|0.0999999999999999|-33.318888888888885|-71.3086111111111|WGS84
Valparaíso|Quillota|Quillota|2017-2018|JUAN FRANCISCO GONZALEZ|2017-12-10|22:29|66.0|Sin alerta|IFIUr-Fo|Tránsito de personasvehículos o aeronaves|0.0|0.0|0.0|0.0|0.0|0.0|0.01|0.03|0.0|0.0|0.04|-32.90222222222222|-71.25722222222223|WGS84
Valparaíso|San Antonio|Cartagena|2017-2018|CAMINO VIEJO CARTAGENA 2|2017-12-12|12:34|118.0|Sin alerta|IFIUr-Fo|Incendios intencionales|0.0|0.0|0.0|0.0|0.0|0.0|0.0|2.6|0.0|0.0|2.6|-33.56027777777778|-71.59472222222222|WGS84
Valparaíso|Marga Marga|Villa Alemana|2017-2018|CALLE LOS MAITENES 1|2017-12-12|17:00|70.0|Sin alerta|IFor-Vn|Tránsito de personasvehículos o aeronaves|0.0|0.0|0.0|0.0|0.0|0.0|0.06|0.4|0.0|0.0|0.46|-33.06638888888889|-71.35027777777778|WGS84
Valparaíso|Valparaíso|Puchuncavi|2017-2018|LA CHOCOTA 1|2017-12-13|12:04|155.0|Sin alerta|IFIUr-Fo|Tránsito de personasvehículos o aeronaves|0.0|0.0|0.0|0.01|0.0|0.0|0.0|0.0|0.0|0.04|0.05|-32.731944444444444|-71.49166666666666|WGS84
Valparaíso|Marga Marga|Quilpué|2017-2018|POZA ESVAL|2017-12-13|13:04|227.0|Sin alerta|IFor-Vn|Tránsito de personasvehículos o aeronaves|0.0|0.0|0.0|0.5|0.0|0.0|1.5|5.0|0.0|0.0|7.0|-33.08972222222222|-71.40388888888889|WGS84
Valparaíso|Marga Marga|Villa Alemana|2017-2018|CALLE LONGITUDINAL 3|2017-12-13|14:15|320.0|Sin alerta|IFor-Vn|Incendios intencionales|0.0|0.0|0.0|0.0|0.0|1.0|7.0|5.4|0.0|0.0|13.4|-33.02444444444444|-71.38166666666666|WGS84
Valparaíso|San Felipe de Aconcagua|San Felipe|2017-2018|CERRO MINA CARACOL|2017-12-13|14:48|245.0|Sin alerta|IFor-Vn|Tránsito de personasvehículos o aeronaves|0.0|0.0|0.0|0.0|0.0|0.0|7.0|10.0|0.0|0.0|17.0|-32.79805555555556|-70.7175|WGS84
Valparaíso|Valparaíso|Viña del Mar|2017-2018|CALLE LUXEMBURGO  VILLA HERMOSA|2017-12-13|15:05|67.0|Sin alerta|IFor-Vn|Tránsito de personasvehículos o aeronaves|0.0|0.0|0.0|0.0|0.0|0.0|0.2|0.8|0.0|0.0|1.0|-33.034166666666664|-71.48611111111111|WGS84
Valparaíso|Marga Marga|Villa Alemana|2017-2018|FINAL IGNACIO CARRERA PINTO|2017-12-13|18:28|67.0|Sin alerta|IFor-Vn|Tránsito de personasvehículos o aeronaves|0.0|0.0|0.0|0.0|0.0|0.0|0.1|0.6|0.0|0.0|0.7|-33.03277777777778|-71.36527777777778|WGS84
Valparaíso|Quillota|Nogales|2017-2018|LAS CHACRAS|2017-12-14|11:45|2.0|Sin alerta|IFor-Vn|Tránsito de personasvehículos o aeronaves|0.0|0.0|0.0|0.0|0.0|1.5|3.0|6.0|0.0|0.0|10.5|-32.776666666666664|-71.22694444444444|WGS84
Valparaíso|Marga Marga|Quilpué|2017-2018|FUNDO SAN JORGE|2017-12-14|11:55|126.0|Sin alerta|IFor-Vn|Tránsito de personasvehículos o aeronaves|0.0|0.0|0.0|0.0|0.0|0.0|0.3|1.2|0.0|0.0|1.5|-33.02472222222222|-71.41444444444444|WGS84
Valparaíso|Petorca|Zapallar|2017-2018|LA FORESTA|2017-12-14|14:25|1261.0|Sin alerta|IFor-Vn|Tránsito de personasvehículos o aeronaves|0.0|0.0|0.0|0.0|0.0|9.5|18.2|30.0|0.0|0.0|57.7|-32.51166666666666|-71.26416666666667|WGS84
Valparaíso|Marga Marga|Villa Alemana|2017-2018|CEMENTERIO VILLA ALEMANA 3|2017-12-14|15:49|60.0|Sin alerta|IFIUr-Fo|Tránsito de personasvehículos o aeronaves|0.0|0.0|0.0|0.0|0.0|0.0|0.05|0.4|0.0|0.0|0.45|-33.074444444444445|-71.36583333333333|WGS84
Valparaíso|Marga Marga|Quilpué|2017-2018|ENTRADA TRANQUE ESVAL|2017-12-14|16:10|1180.0|Sin alerta|IFIUr-Fo|Incendios intencionales|0.0|0.0|0.0|0.0|0.0|2.8|2.6|0.4|0.0|0.0|5.800000000000001|-33.07972222222222|-71.39944444444444|WGS84
Valparaíso|Marga Marga|Quilpué|2017-2018|SECTOR LOS MOTELES|2017-12-14|16:30|55.0|Alerta roja|IFIUr-Fo|Incendios intencionales|0.0|0.0|0.0|1.3|0.0|0.0|7.0|9.0|0.0|0.0|17.3|-33.06861111111111|-71.40666666666667|WGS84
Valparaíso|Marga Marga|Quilpué|2017-2018|FINAL EL TRABAJADOR|2017-12-14|16:51|263.0|Sin alerta|IFor-Vn|Incendios intencionales|0.0|0.0|0.0|0.0|0.0|0.0|1.8|3.0|0.0|0.0|4.8|-33.03|-71.41555555555556|WGS84
Valparaíso|Marga Marga|Quilpué|2017-2018|CEMENTERIO BELLOTO NORTE|2017-12-14|16:52|166.0|Sin alerta|IFIUr-Fo|Incendios intencionales|0.0|0.0|0.0|0.0|0.0|1.0|1.0|7.3|0.0|0.0|9.3|-33.03194444444444|-71.42194444444445|WGS84
Valparaíso|Valparaíso|Viña del Mar|2017-2018|LAS PATAGUAS|2017-12-14|17:15|181.0|Alerta roja|IFIUr-Fo|Incendios intencionales|0.0|0.0|0.0|0.0|0.0|0.0|6.5|0.5|0.0|0.0|7.0|-33.03611111111111|-71.51194444444444|WGS84
Valparaíso|Marga Marga|Villa Alemana|2017-2018|TRANQUE RECREO|2017-12-14|17:42|1091.0|Sin alerta|IFor-Vn|Incendios intencionales|0.0|0.0|0.0|0.0|0.0|1.8|8.0|27.0|0.0|0.0|36.8|-33.07944444444445|-71.37027777777777|WGS84
Valparaíso|Marga Marga|Villa Alemana|2017-2018|NORTE LAS AMERICAS|2017-12-14|19:20|1390.0|Alerta roja|IFor-Vn|Incendios intencionales|0.0|0.0|0.0|0.15|0.0|0.0|0.2|0.5|0.0|0.0|0.85|-33.032222222222224|-71.39861111111111|WGS84
Valparaíso|Valparaíso|Casablanca|2017-2018|LAGUNILLAS|2017-12-14|19:29|51.0|Sin alerta|IFor-Vn|Incendios intencionales|0.0|0.0|0.0|0.0|0.0|0.0|0.2|0.5|0.0|0.0|0.7|-33.451388888888886|-71.45194444444445|WGS84
Valparaíso|Valparaíso|Casablanca|2017-2018|LAGUNILLAS 2|2017-12-14|19:30|82.0|Sin alerta|IFIUr-Fo|Incendios intencionales|0.0|0.0|0.0|0.0|0.0|0.0|0.2|0.2|0.0|0.0|0.4|-33.45361111111111|-71.45055555555555|WGS84
Valparaíso|Valparaíso|Valparaíso|2017-2018|FUNDO LAS CENIZAS - PUERTA 1|2017-12-14|20:45|36.0|Sin alerta|IFor-Vn|Tránsito de personasvehículos o aeronaves|0.0|0.0|0.0|0.0|0.0|0.0|0.0|0.02|0.0|0.0|0.02|-33.106944444444444|-71.5575|WGS84
Valparaíso|San Antonio|San Antonio|2017-2018|PELANCURA 1|2017-12-14|21:35|37.0|Sin alerta|IFIUr-Fo|Tránsito de personasvehículos o aeronaves|0.0|0.0|0.0|0.0|0.0|0.0|0.02|0.05|0.0|0.0|0.07|-33.57055555555556|-71.62166666666667|WGS84
Valparaíso|Valparaíso|Valparaíso|2017-2018|AUTODROMO PLACILLA 1|2017-12-15|12:15|78.0|Sin alerta|IFIUr-Fo|Tránsito de personasvehículos o aeronaves|0.0|0.0|0.0|0.0|0.0|0.0|0.03|0.1|0.0|0.0|0.13|-33.12583333333333|-71.54666666666667|WGS84
Valparaíso|San Antonio|San Antonio|2017-2018|LEYDA - 1|2017-12-15|12:35|38.0|Sin alerta|IFIUr-Fo|Faenas forestales|0.0|0.0|0.0|0.0|0.0|0.0|0.03|0.15|0.0|0.0|0.18|-33.62027777777778|-71.42888888888889|WGS84
Valparaíso|Marga Marga|Limache|2017-2018|FUNDO SANTA ANA 2|2017-12-15|13:12|210.0|Sin alerta|IFor-Vn|Tránsito de personasvehículos o aeronaves|0.0|0.0|0.0|0.0|0.0|0.0|0.4|1.1|0.0|0.0|1.5|-33.02361111111111|-71.27333333333333|WGS84
Valparaíso|Marga Marga|Villa Alemana|2017-2018|FINAL CALLE TUCAPEL|2017-12-15|13:24|241.0|Alerta roja|IFIUr-Fo|Incendios intencionales|0.0|0.0|0.0|0.0|0.0|10.2|3.8|19.0|0.0|0.0|33.0|-33.041111111111114|-71.34333333333333|WGS84
Valparaíso|Marga Marga|Quilpué|2017-2018|CAMINO LO OROZCO SECTOR LA RETUCA|2017-12-15|13:38|227.0|Alerta roja|IFor-Vn|Tránsito de personasvehículos o aeronaves|0.0|0.0|0.0|0.0|0.0|0.79|0.0|7.71|0.0|0.0|8.5|-33.12833333333333|-71.36111111111111|WGS84
Valparaíso|Quillota|Nogales|2017-2018|HUASO FUNDIDO|2017-12-15|15:55|239.0|Sin alerta|IFIUr-Fo|Tránsito de personasvehículos o aeronaves|0.0|0.0|0.0|0.0|0.0|0.0|6.9|10.0|0.0|0.0|16.9|-32.73444444444444|-71.22805555555556|WGS84
Valparaíso|San Antonio|San Antonio|2017-2018|AUTOPISTA DEL SOL KM 86|2017-12-16|11:24|97.0|Sin alerta|IFor-Vn|Accidentes eléctricos|0.0|0.0|0.0|0.1|0.0|0.0|0.0|0.1|0.0|0.0|0.2|-33.630833333333335|-71.395|WGS84
Valparaíso|San Antonio|San Antonio|2017-2018|BRUSUELAS|2017-12-16|14:35|71.0|Sin alerta|IFor-Vn|Tránsito de personasvehículos o aeronaves|0.0|0.0|0.0|0.0|0.0|0.0|0.02|0.08|0.0|0.0|0.1|-33.56444444444445|-71.60472222222222|WGS84
Valparaíso|Quillota|La Cruz|2017-2018|LO ROJAS|2017-12-16|14:56|169.0|Sin alerta|IFIUr-Fo|Incendios intencionales|0.0|0.0|0.0|0.1|0.0|0.0|0.5|1.0|0.0|0.0|1.6|-32.818333333333335|-71.24305555555556|WGS84
Valparaíso|Marga Marga|Villa Alemana|2017-2018|FINAL CARRERA PINTO|2017-12-16|15:23|99.0|Sin alerta|IFor-Vn|Tránsito de personasvehículos o aeronaves|0.0|0.0|0.0|0.0|0.0|0.0|1.5|1.3|0.0|0.0|2.8|-33.03|-71.36333333333333|WGS84
Valparaíso|San Antonio|Cartagena|2017-2018|MINA LO ZARATE|2017-12-16|15:52|125.0|Sin alerta|IFor-Vn|Tránsito de personasvehículos o aeronaves|0.0|0.0|0.0|0.0|0.0|0.0|1.0|2.4|0.0|0.0|3.4|-33.535833333333336|-71.485|WGS84
Valparaíso|San Antonio|San Antonio|2017-2018|PELANCURA 2|2017-12-17|12:40|151.0|Sin alerta|IFor-Vn|Tránsito de personasvehículos o aeronaves|0.0|0.8|0.0|0.0|0.0|0.0|0.0|2.0|0.0|0.0|2.8|-33.56861111111111|-71.61888888888889|WGS84
Valparaíso|Marga Marga|Limache|2017-2018|FINAL COVADONGA - CAJON DEL LEBU|2017-12-17|13:02|228.0|Sin alerta|IFor-Vn|Tránsito de personasvehículos o aeronaves|0.0|0.0|0.0|0.0|0.0|0.0|0.2|1.0|0.0|0.0|1.2|-33.02472222222222|-71.35222222222222|WGS84
Valparaíso|Marga Marga|Quilpué|2017-2018|FUNDO EL CARMEN 3|2017-12-17|14:43|188.0|Sin alerta|IFor-Vn|Tránsito de personasvehículos o aeronaves|0.0|0.0|0.0|0.0|0.0|0.0|1.1|4.0|0.0|0.0|5.1|-33.03805555555556|-71.45972222222223|WGS84
Valparaíso|San Antonio|San Antonio|2017-2018|CUNCUMEN -  VALLE ABAJO|2017-12-17|15:03|432.0|Alerta amarilla|IFor-Vn|Accidentes eléctricos|0.0|0.0|0.0|1.35|0.0|5.48|56.9|92.27|0.0|0.0|156.0|-33.756388888888885|-71.43638888888889|WGS84
Valparaíso|Quillota|Nogales|2017-2018|FUNDO LAS CHACRAS|2017-12-17|16:50|185.0|Sin alerta|IFor-Vn|Tránsito de personasvehículos o aeronaves|0.0|0.0|0.0|0.0|0.0|0.0|1.0|3.0|0.0|0.0|4.0|-32.784166666666664|-71.22916666666667|WGS84
Valparaíso|Marga Marga|Villa Alemana|2017-2018|LAS AMÉRICAS 3|2017-12-17|18:02|111.0|Sin alerta|IFIUr-Fo|Tránsito de personasvehículos o aeronaves|0.0|0.0|0.0|0.0|0.0|0.0|0.2|5.0|0.0|0.0|5.2|-33.03055555555556|-71.3963888888889|WGS84
Valparaíso|Marga Marga|Quilpué|2017-2018|LAGUNA DE QUILPUE|2017-12-17|18:10|79.0|Sin alerta|IFor-Vn|Tránsito de personasvehículos o aeronaves|0.0|0.0|0.0|0.05|0.0|0.0|0.05|0.2|0.0|0.0|0.3|-33.08027777777778|-71.40166666666667|WGS84
Valparaíso|Marga Marga|Quilpué|2017-2018|FUNDO EL REBAÑO  1|2017-12-17|19:05|70.0|Sin alerta|IFor-Vn|Tránsito de personasvehículos o aeronaves|0.0|0.0|0.0|0.0|0.0|0.0|0.005|0.015|0.0|0.0|0.02|-33.04138888888889|-71.46555555555555|WGS84
Valparaíso|San Antonio|San Antonio|2017-2018|BELLAVISTA BRUSELAS|2017-12-18|12:35|86.0|Sin alerta|IFIUr-Fo|Tránsito de personasvehículos o aeronaves|0.0|0.0|0.0|0.0|0.0|0.0|0.05|0.1|0.0|0.0|0.15|-33.568888888888885|-71.6025|WGS84
Valparaíso|Marga Marga|Villa Alemana|2017-2018|FINAL VALENTIN LETELIER|2017-12-18|14:18|258.0|Sin alerta|IFIUr-Fo|Tránsito de personasvehículos o aeronaves|0.0|0.0|0.0|0.0|0.0|0.0|0.5|2.0|0.0|0.0|2.5|-33.03277777777778|-71.35833333333333|WGS84
Valparaíso|San Antonio|El Quisco|2017-2018|MANANTIALES EL TOTORAL|2017-12-18|14:25|88.0|Sin alerta|IFIUr-Fo|Tránsito de personasvehículos o aeronaves|0.0|0.0|0.0|0.0|0.0|0.0|0.0|0.8|0.0|0.0|0.8|-33.437777777777775|-71.56833333333333|WGS84
Valparaíso|Valparaíso|Valparaíso|2017-2018|FINAL AV. ESPAÑA - 3|2017-12-18|15:00|88.0|Sin alerta|IFor-Vn|Incendios intencionales|0.0|0.0|0.0|0.0|0.0|0.0|0.0|0.02|0.0|0.01|0.03|-33.11055555555556|-71.55611111111111|WGS84
Valparaíso|Marga Marga|Villa Alemana|2017-2018|CALLE LONGITUDINAL 4|2017-12-18|15:30|89.0|Sin alerta|IFor-Vn|Quema de desechos|0.0|0.0|0.0|0.0|0.0|0.0|0.05|0.3|0.0|0.0|0.35|-33.0325|-71.39666666666666|WGS84
Valparaíso|Quillota|Quillota|2017-2018|RUTA 60 CH - PARADERO 8|2017-12-18|16:28|92.0|Sin alerta|IFIUr-Fo|Tránsito de personasvehículos o aeronaves|0.0|0.0|0.0|0.0|0.0|0.0|0.0|1.6|0.0|0.0|1.6|-32.85861111111111|-71.22944444444444|WGS84
Valparaíso|San Antonio|Cartagena|2017-2018|ANTENA CANAL 07|2017-12-18|18:05|68.0|Sin alerta|IFor-Vn|Tránsito de personasvehículos o aeronaves|0.0|0.0|0.0|0.0|0.0|0.0|0.0|0.35|0.0|0.0|0.35|-33.5675|-71.5875|WGS84
Valparaíso|Marga Marga|Quilpué|2017-2018|PASO INFERIOR CALLE COLINA DE ORO|2017-12-19|10:53|56.0|Sin alerta|IFIUr-Fo|Tránsito de personasvehículos o aeronaves|0.0|0.0|0.0|0.0|0.0|0.0|0.0|0.05|0.0|0.0|0.05|-33.0625|-71.43777777777778|WGS84
Valparaíso|Marga Marga|Quilpué|2017-2018|FINAL CALLE CUMMING|2017-12-19|14:10|46.0|Sin alerta|IFor-Vn|Tránsito de personasvehículos o aeronaves|0.0|0.0|0.0|0.0|0.0|0.0|0.0|0.07|0.0|0.0|0.07|-33.05916666666667|-71.44527777777778|WGS84
Valparaíso|Marga Marga|Villa Alemana|2017-2018|FUNDO VIÑA CANEPA  EL PATAGUAL 1|2017-12-19|16:28|262.0|Alerta roja|IFIUr-Fo|Incendios intencionales|0.0|0.0|0.0|0.0|0.0|0.0|5.1|4.8|0.0|0.0|9.9|-33.02777777777778|-71.30888888888889|WGS84
Valparaíso|Marga Marga|Villa Alemana|2017-2018|FUNDO VIÑA CANEPA  EL PATAGUAL 2|2017-12-19|16:29|261.0|Alerta roja|IFor-Vn|Incendios intencionales|0.0|0.0|0.0|1.8|2.2|0.0|1.3|2.2|0.0|0.0|7.5|-33.02611111111111|-71.30555555555556|WGS84
Valparaíso|Valparaíso|Valparaíso|2017-2018|ENLACE CRUCE RUTA 68|2017-12-19|17:52|82.0|Sin alerta|IFor-Vn|Tránsito de personasvehículos o aeronaves|0.0|0.0|0.0|0.05|0.0|0.0|0.0|0.0|0.0|0.05|0.1|-33.09555555555556|-71.54527777777778|WGS84
Valparaíso|San Antonio|Santo Domingo|2017-2018|CRUCE LA MANGA|2017-12-19|18:03|1044.0|Sin alerta|IFIUr-Fo|Accidentes eléctricos|0.0|0.0|0.0|0.1|0.0|0.0|0.0|0.5|0.0|0.0|0.6|-33.88638888888889|-71.67611111111111|WGS84
Valparaíso|Marga Marga|Villa Alemana|2017-2018|EL ROCIO - 3|2017-12-19|22:30|120.0|Sin alerta|IFIUr-Fo|Tránsito de personasvehículos o aeronaves|0.0|0.0|0.0|0.7|0.0|0.0|0.0|1.0|0.0|0.0|1.7|-33.068333333333335|-71.39361111111111|WGS84
Valparaíso|Marga Marga|Quilpué|2017-2018|FUNDO EL PEQUÉN 2|2017-12-19|22:31|199.0|Sin alerta|IFor-Vn|Tránsito de personasvehículos o aeronaves|0.0|0.0|0.0|0.2|0.0|0.0|0.0|0.25|0.0|0.0|0.45|-33.11055555555556|-71.38555555555556|WGS84
Valparaíso|Quillota|Hijuelas|2017-2018|CHACRA DE LA VEGA|2017-12-20|14:25|171.0|Sin alerta|IFor-Vn|Tránsito de personasvehículos o aeronaves|0.0|0.0|0.0|0.0|0.0|0.0|0.1|0.4|0.0|0.0|0.5|-32.8125|-71.16361111111111|WGS84
Valparaíso|Petorca|La Ligua|2017-2018|SANTA MARTA DE LONGOTOMA|2017-12-20|15:14|87.0|Sin alerta|IFor-Vn|Tránsito de personasvehículos o aeronaves|0.0|0.0|0.0|0.0|0.0|0.1|0.1|0.4|0.0|0.0|0.6000000000000001|-32.33722222222222|-71.18194444444444|WGS84
Valparaíso|Marga Marga|Villa Alemana|2017-2018|BRAVO TORRE 2|2017-12-20|17:35|110.0|Sin alerta|IFor-Vn|Tránsito de personasvehículos o aeronaves|0.0|0.0|0.0|0.0|0.0|0.1|0.2|0.3|0.0|0.0|0.6000000000000001|-33.045|-71.33055555555555|WGS84
Valparaíso|Valparaíso|Valparaíso|2017-2018|PUERTA 1 FUNDO LAS CENIZAS|2017-12-20|18:17|56.0|Sin alerta|IFor-Vn|Tránsito de personasvehículos o aeronaves|0.0|0.0|0.02|0.0|0.0|0.0|0.0|0.0|0.0|0.0|0.02|-33.11138888888889|-71.55527777777777|WGS84
Valparaíso|Valparaíso|Valparaíso|2017-2018|FINAL CALLE OHIGGINS - 2|2017-12-21|13:00|186.0|Sin alerta|IFor-Vn|Incendios intencionales|0.0|0.0|0.0|0.5|0.0|0.0|0.0|0.1|0.0|0.0|0.6|-33.11944444444445|-71.54583333333333|WGS84
Valparaíso|Marga Marga|Villa Alemana|2017-2018|NORTE LAS AMERICAS 2|2017-12-21|14:05|160.0|Sin alerta|IFor-Vn|Incendios intencionales|0.0|0.0|0.0|0.0|0.0|0.5|1.5|3.0|0.0|0.0|5.0|-33.029444444444444|-71.38583333333334|WGS84
Valparaíso|Quillota|Nogales|2017-2018|FUNDO LAS CHACRAS 2|2017-12-21|14:10|287.0|Sin alerta|IFor-Vn|Tránsito de personasvehículos o aeronaves|0.0|0.0|0.0|0.0|0.0|0.0|1.7|2.0|0.0|0.0|3.7|-32.78472222222222|-71.22972222222222|WGS84
Valparaíso|San Antonio|Santo Domingo|2017-2018|EL CONVENTO - 1|2017-12-21|16:10|68.0|Sin alerta|IFor-Vn|Otras actividades|0.0|0.0|0.0|0.0|0.0|0.0|0.0|1.2|0.0|0.0|1.2|-33.77555555555556|-71.62861111111111|WGS84
Valparaíso|Marga Marga|Quilpué|2017-2018|COLINAS DE ORO|2017-12-21|16:20|64.0|Sin alerta|IFIUr-Fo|Tránsito de personasvehículos o aeronaves|0.0|0.0|0.0|0.0|0.0|0.0|0.04|0.04|0.0|0.0|0.08|-33.06194444444444|-71.4375|WGS84
Valparaíso|Valparaíso|Valparaíso|2017-2018|FUNDO LAS CENIZAS - PUERTA 1-5|2017-12-21|17:20|103.0|Sin alerta|IFor-Vn|Tránsito de personasvehículos o aeronaves|0.0|0.0|0.01|0.01|0.0|0.0|0.0|0.0|0.0|0.01|0.03|-33.11083333333333|-71.55777777777777|WGS84
Valparaíso|Marga Marga|Villa Alemana|2017-2018|RUMIE 2|2017-12-21|19:16|111.0|Sin alerta|IFor-Vn|Tránsito de personasvehículos o aeronaves|0.0|0.0|0.0|0.0|0.0|0.0|0.06|0.4|0.0|0.0|0.46|-33.029444444444444|-71.38305555555556|WGS84
Valparaíso|Valparaíso|Valparaíso|2017-2018|3° SECTOR  PLAYA ANCHA|2017-12-21|22:30|55.0|Sin alerta|IFIUr-Fo|Tránsito de personasvehículos o aeronaves|0.0|0.0|0.0|0.0|0.0|0.0|0.01|0.01|0.0|0.0|0.02|-33.05027777777778|-71.65138888888889|WGS84
Valparaíso|Quillota|Nogales|2017-2018|ESTERO NOGALES|2017-12-22|12:35|65.0|Sin alerta|IFIUr-Fo|Tránsito de personasvehículos o aeronaves|0.0|0.0|0.0|0.0|0.0|0.0|0.0|0.1|0.0|0.0|0.1|-32.72222222222222|-71.20555555555555|WGS84
Valparaíso|Valparaíso|Concón|2017-2018|FUERTE AGUAYO|2017-12-22|13:49|221.0|Sin alerta|IFor-Vn|Otras actividades|0.0|0.0|0.0|0.0|0.0|0.0|0.15|0.2|0.0|0.0|0.35|-32.988055555555555|-71.44388888888889|WGS84
Valparaíso|San Antonio|Cartagena|2017-2018|ESTACIÓN CARTAGENA|2017-12-22|16:06|44.0|Sin alerta|IFIUr-Fo|Actividades extinción incendios forestalesincendios estructurales u otros|0.0|0.0|0.0|0.0|0.0|0.0|0.0|0.05|0.0|0.0|0.05|-33.55277777777778|-71.61694444444444|WGS84
Valparaíso|Marga Marga|Limache|2017-2018|CALLE CONCEPCION|2017-12-22|17:24|111.0|Sin alerta|IFIUr-Fo|Tránsito de personasvehículos o aeronaves|0.0|0.0|0.0|0.04|0.0|0.0|0.06|0.1|0.0|0.0|0.2|-33.08027777777778|-71.26833333333333|WGS84
Valparaíso|Valparaíso|Viña del Mar|2017-2018|REÑACA ALTO|2017-12-22|19:06|1134.0|Sin alerta|IFIUr-Fo|Tránsito de personasvehículos o aeronaves|0.0|0.0|0.0|0.1|0.0|0.0|0.3|1.7|0.0|0.0|2.1|-32.98027777777778|-71.49555555555555|WGS84
Valparaíso|Valparaíso|Viña del Mar|2017-2018|REÑACA ALTO 2|2017-12-22|19:07|1133.0|Sin alerta|IFIUr-Fo|Tránsito de personasvehículos o aeronaves|0.0|0.0|0.0|0.0|0.0|0.0|0.9|1.2|0.0|0.0|2.1|-32.98277777777778|-71.49583333333334|WGS84
Valparaíso|Valparaíso|Puchuncavi|2017-2018|LA CHOCOTA 2|2017-12-23|10:27|79.0|Sin alerta|IFIUr-Fo|Tránsito de personasvehículos o aeronaves|0.0|0.0|0.0|0.02|0.0|0.0|0.0|0.0|0.0|0.0|0.02|-32.73111111111111|-71.4925|WGS84
Valparaíso|Marga Marga|Limache|2017-2018|AV. EASTMAN - PARADERO 4 - 2|2017-12-23|13:01|131.0|Sin alerta|IFor-Vn|Tránsito de personasvehículos o aeronaves|0.0|0.0|0.0|0.0|0.0|0.0|0.2|0.2|0.0|0.0|0.4|-32.999722222222225|-71.24916666666667|WGS84
